{"type": "FeatureCollection", "features": [{"type": "Feature", "properties": {"route_name": "121C", "stop_id": "WgelRheP", "name": "Ennore Bus Depot", "city": "CHENNAI"}, "geometry": {"type": "Point", "coordinates": [80.32080305787895, 13.214831387415297]}}, {"type": "Feature", "properties": {"route_name": "121C", "stop_id": "shsbwlrM", "name": "Hinduja Foundries", "city": "CHENNAI"}, "geometry": {"type": "Point", "coordinates": [80.3186787013426, 13.212759782370014]}}, {"type": "Feature", "properties": {"route_name": "121C", "stop_id": "WPcaURVq", "name": "Ashok Leyland Ennore", "city": "CHENNAI"}, "geometry": {"type": "Point", "coordinates": [80.3168450084089, 13.210300976237388]}}, {"type": "Feature", "properties": {"route_name": "121C", "stop_id": "AoAbuPJW", "name": "Nehru Nagar Ennore", "city": "CHENNAI"}, "geometry": {"type": "Point", "coordinates": [80.3154707713768, 13.206875037034814]}}, {"type": "Feature", "properties": {"route_name": "121C", "stop_id": "msGFqCDa", "name": "Post Office Ennore", "city": "CHENNAI"}, "geometry": {"type": "Point", "coordinates": [80.31459051659124, 13.204351317757766]}}, {"type": "Feature", "properties": {"route_name": "121C", "stop_id": "nwGGoSvm", "name": "E T P S", "city": "CHENNAI"}, "geometry": {"type": "Point", "coordinates": [80.31332002028773, 13.200434257732184]}}, {"type": "Feature", "properties": {"route_name": "121C", "stop_id": "VrqtMskC", "name": "E B Quarters", "city": "CHENNAI"}, "geometry": {"type": "Point", "coordinates": [80.31191315250373, 13.195937909398388]}}, {"type": "Feature", "properties": {"route_name": "121C", "stop_id": "jOvtnfLH", "name": "Ernavoor Gate", "city": "CHENNAI"}, "geometry": {"type": "Point", "coordinates": [80.3106855444787, 13.191161407836718]}}, {"type": "Feature", "properties": {"route_name": "121C", "stop_id": "tkhDcqas", "name": "Gandhi Nagar Eranavoor", "city": "CHENNAI"}, "geometry": {"type": "Point", "coordinates": [80.30856334980967, 13.188338408870687]}}, {"type": "Feature", "properties": {"route_name": "121C", "stop_id": "PoshUaCl", "name": "Murugan Koil Eranavoor", "city": "CHENNAI"}, "geometry": {"type": "Point", "coordinates": [80.30754769905184, 13.186269167976084]}}, {"type": "Feature", "properties": {"route_name": "121C", "stop_id": "THUDGZDu", "name": "Mullai Nagar", "city": "CHENNAI"}, "geometry": {"type": "Point", "coordinates": [80.30306126854168, 13.185424246128271]}}, {"type": "Feature", "properties": {"route_name": "121C", "stop_id": "WSBJbplj", "name": "Murugappa Nagar", "city": "CHENNAI"}, "geometry": {"type": "Point", "coordinates": [80.30090017710802, 13.183306031613467]}}, {"type": "Feature", "properties": {"route_name": "121C", "stop_id": "qsoLaWuJ", "name": "Jothi Nagar", "city": "CHENNAI"}, "geometry": {"type": "Point", "coordinates": [80.2989013794662, 13.181282638284973]}}, {"type": "Feature", "properties": {"route_name": "121C", "stop_id": "ERIWLSEl", "name": "TKS Nagar", "city": "CHENNAI"}, "geometry": {"type": "Point", "coordinates": [80.29766815917776, 13.179882948148602]}}, {"type": "Feature", "properties": {"route_name": "121C", "stop_id": "lotPPedu", "name": "Sathya Moorthy Nagar", "city": "CHENNAI"}, "geometry": {"type": "Point", "coordinates": [80.29482738325714, 13.176571816549693]}}, {"type": "Feature", "properties": {"route_name": "121C", "stop_id": "nBYHMnkU", "name": "Sathangadu Police Station", "city": "CHENNAI"}, "geometry": {"type": "Point", "coordinates": [80.28655742566298, 13.175187860576454]}}, {"type": "Feature", "properties": {"route_name": "121C", "stop_id": "BldTZUAI", "name": "TPL", "city": "CHENNAI"}, "geometry": {"type": "Point", "coordinates": [80.27994989239255, 13.176224735528129]}}, {"type": "Feature", "properties": {"route_name": "121C", "stop_id": "CbblRkaH", "name": "Petro Araldit", "city": "CHENNAI"}, "geometry": {"type": "Point", "coordinates": [80.27751558376997, 13.176641667592062]}}, {"type": "Feature", "properties": {"route_name": "121C", "stop_id": "agmUQnfF", "name": "MFL", "city": "CHENNAI"}, "geometry": {"type": "Point", "coordinates": [80.27023111338644, 13.177463808475677]}}, {"type": "Feature", "properties": {"route_name": "121C", "stop_id": "IuRRuHdp", "name": "MFL Labour Gate", "city": "CHENNAI"}, "geometry": {"type": "Point", "coordinates": [80.27197891999037, 13.169787988170839]}}, {"type": "Feature", "properties": {"route_name": "121C", "stop_id": "qVzVrWDp", "name": "Chennai Petroleum Corporation Limited", "city": "CHENNAI"}, "geometry": {"type": "Point", "coordinates": [80.26925574101415, 13.161178301354932]}}, {"type": "Feature", "properties": {"route_name": "121C", "stop_id": "LXDQjYxM", "name": "Manali Metro Water", "city": "CHENNAI"}, "geometry": {"type": "Point", "coordinates": [80.26413051069835, 13.161958698860879]}}, {"type": "Feature", "properties": {"route_name": "121C", "stop_id": "QeEdlYuU", "name": "Manali Meenakshi Theatre", "city": "CHENNAI"}, "geometry": {"type": "Point", "coordinates": [80.26244425367872, 13.16241398772022]}}, {"type": "Feature", "properties": {"route_name": "121C", "stop_id": "dKSFzIqs", "name": "Manali Market", "city": "CHENNAI"}, "geometry": {"type": "Point", "coordinates": [80.25864020601273, 13.163534692742978]}}, {"type": "Feature", "properties": {"route_name": "121C", "stop_id": "RVNzMGgw", "name": "Sasthiri Nagar Manali", "city": "CHENNAI"}, "geometry": {"type": "Point", "coordinates": [80.25348245992791, 13.165250353845108]}}, {"type": "Feature", "properties": {"route_name": "121C", "stop_id": "HNYicgCh", "name": "Mathur MMDA Third Main Road", "city": "CHENNAI"}, "geometry": {"type": "Point", "coordinates": [80.2499134899499, 13.166786019532736]}}, {"type": "Feature", "properties": {"route_name": "121C", "stop_id": "QaQvGPmN", "name": "Mathur Second Main Road", "city": "CHENNAI"}, "geometry": {"type": "Point", "coordinates": [80.24822047108546, 13.166818801558389]}}, {"type": "Feature", "properties": {"route_name": "121C", "stop_id": "yRpreQRc", "name": "Mathur Gate", "city": "CHENNAI"}, "geometry": {"type": "Point", "coordinates": [80.2455168143573, 13.166832439619041]}}, {"type": "Feature", "properties": {"route_name": "121C", "stop_id": "fCvqoWrT", "name": "MMC Veterinary University", "city": "CHENNAI"}, "geometry": {"type": "Point", "coordinates": [80.2441300705409, 13.161632738171892]}}, {"type": "Feature", "properties": {"route_name": "121C", "stop_id": "pFAoJEPO", "name": "Veterinary College", "city": "CHENNAI"}, "geometry": {"type": "Point", "coordinates": [80.2439985478112, 13.158584787783683]}}, {"type": "Feature", "properties": {"route_name": "121C", "stop_id": "ojINhgSe", "name": "Arul Nagar", "city": "CHENNAI"}, "geometry": {"type": "Point", "coordinates": [80.23978232390778, 13.145520651011662]}}, {"type": "Feature", "properties": {"route_name": "121C", "stop_id": "IURTQlCB", "name": "Madhavaram Post Box", "city": "CHENNAI"}, "geometry": {"type": "Point", "coordinates": [80.23681969530821, 13.142364144338476]}}, {"type": "Feature", "properties": {"route_name": "121C", "stop_id": "KLTxOJqh", "name": "Murari Hospital", "city": "CHENNAI"}, "geometry": {"type": "Point", "coordinates": [80.23791965000873, 13.137798268099035]}}, {"type": "Feature", "properties": {"route_name": "121C", "stop_id": "ftvNhZKM", "name": "Leather Company", "city": "CHENNAI"}, "geometry": {"type": "Point", "coordinates": [80.23869623619362, 13.134994923194911]}}, {"type": "Feature", "properties": {"route_name": "121C", "stop_id": "OoNwiPDT", "name": "Moolakadai Market", "city": "CHENNAI"}, "geometry": {"type": "Point", "coordinates": [80.24026021167367, 13.13183561174341]}}, {"type": "Feature", "properties": {"route_name": "121C", "stop_id": "ztLkgYlA", "name": "Moolakadai", "city": "CHENNAI"}, "geometry": {"type": "Point", "coordinates": [80.24111584548042, 13.128998271678444]}}, {"type": "Feature", "properties": {"route_name": "121C", "stop_id": "vyQyYYqJ", "name": "Madhavaram Bus Depot", "city": "CHENNAI"}, "geometry": {"type": "Point", "coordinates": [80.23708376142258, 13.131995347649102]}}, {"type": "Feature", "properties": {"route_name": "121C", "stop_id": "fjevhefZ", "name": "Kanagachathiram", "city": "CHENNAI"}, "geometry": {"type": "Point", "coordinates": [80.23098801167419, 13.136493081143314]}}, {"type": "Feature", "properties": {"route_name": "121C", "stop_id": "AUBTKFbY", "name": "Kalpana Lamps", "city": "CHENNAI"}, "geometry": {"type": "Point", "coordinates": [80.22787715760091, 13.13880655986661]}}, {"type": "Feature", "properties": {"route_name": "121C", "stop_id": "sNuKvPuW", "name": "ACT", "city": "CHENNAI"}, "geometry": {"type": "Point", "coordinates": [80.22413163120143, 13.141461443129405]}}, {"type": "Feature", "properties": {"route_name": "121C", "stop_id": "TDvESTZN", "name": "Madhavaram Rountana", "city": "CHENNAI"}, "geometry": {"type": "Point", "coordinates": [80.22014399271438, 13.143984301637456]}}, {"type": "Feature", "properties": {"route_name": "121C", "stop_id": "hVMLOzME", "name": "Madhavaram Bypass", "city": "CHENNAI"}, "geometry": {"type": "Point", "coordinates": [80.21864907051247, 13.14048418060415]}}, {"type": "Feature", "properties": {"route_name": "121C", "stop_id": "KCMgfriT", "name": "RTO Or Kolathur Shastri Nagar", "city": "CHENNAI"}, "geometry": {"type": "Point", "coordinates": [80.21656843744097, 13.135905600959994]}}, {"type": "Feature", "properties": {"route_name": "121C", "stop_id": "qzuHypgA", "name": "Retteri Junction", "city": "CHENNAI"}, "geometry": {"type": "Point", "coordinates": [80.21356233853373, 13.129944301006555]}}, {"type": "Feature", "properties": {"route_name": "121C", "stop_id": "vXPGJwVk", "name": "Ambedkar Nagar", "city": "CHENNAI"}, "geometry": {"type": "Point", "coordinates": [80.20678926348785, 13.126023699360703]}}, {"type": "Feature", "properties": {"route_name": "121C", "stop_id": "FyIjwLBj", "name": "Senthil Nagar", "city": "CHENNAI"}, "geometry": {"type": "Point", "coordinates": [80.20255826525658, 13.123602187529706]}}, {"type": "Feature", "properties": {"route_name": "121C", "stop_id": "QUMnpJQp", "name": "Agrakaram", "city": "CHENNAI"}, "geometry": {"type": "Point", "coordinates": [80.19835768493579, 13.118201295021771]}}, {"type": "Feature", "properties": {"route_name": "121C", "stop_id": "MwLdaJul", "name": "Wheels India Road Junction", "city": "CHENNAI"}, "geometry": {"type": "Point", "coordinates": [80.19451288332948, 13.101100011575335]}}, {"type": "Feature", "properties": {"route_name": "121C", "stop_id": "ouPwTbuD", "name": "Kovarthanagiri", "city": "CHENNAI"}, "geometry": {"type": "Point", "coordinates": [80.19708338161468, 13.098715444532548]}}, {"type": "Feature", "properties": {"route_name": "121C", "stop_id": "qGnNRXVR", "name": "Anna Nagar West Depot", "city": "CHENNAI"}, "geometry": {"type": "Point", "coordinates": [80.19875925408053, 13.09401835540949]}}, {"type": "Feature", "properties": {"route_name": "121C", "stop_id": "TcEVvOUM", "name": "Thirumangalam", "city": "CHENNAI"}, "geometry": {"type": "Point", "coordinates": [80.19873013740937, 13.090757158375393]}}, {"type": "Feature", "properties": {"route_name": "121C", "stop_id": "TCqyxHhF", "name": "CPWD Quarters", "city": "CHENNAI"}, "geometry": {"type": "Point", "coordinates": [80.19871929521139, 13.082247031161224]}}, {"type": "Feature", "properties": {"route_name": "121C", "stop_id": "AszcEtOu", "name": "Koyambedu Chathiram", "city": "CHENNAI"}, "geometry": {"type": "Point", "coordinates": [80.20035161971282, 13.073937556098661]}}, {"type": "Feature", "properties": {"route_name": "121C", "stop_id": "BpAiVnps", "name": "CMBT Koyembedu Bus Depot", "city": "CHENNAI"}, "geometry": {"type": "Point", "coordinates": [80.20518932458458, 13.068981607807045]}}, {"type": "Feature", "properties": {"name": "121C"}, "geometry": {"type": "LineString", "coordinates": [[80.32046, 13.21493], [80.3203, 13.21461], [80.31962, 13.21377], [80.31933, 13.21348], [80.31894, 13.21312], [80.31862, 13.21282], [80.31811, 13.21238], [80.31771, 13.21207], [80.3173, 13.21167], [80.31725, 13.21161], [80.3169, 13.21072], [80.31676, 13.21033], [80.31658, 13.20987], [80.31626, 13.20912], [80.31595, 13.20826], [80.31557, 13.20735], [80.31552, 13.20715], [80.31543, 13.20689], [80.31527, 13.20646], [80.3149, 13.20526], [80.31462, 13.20434], [80.31458, 13.20435], [80.31437, 13.20372], [80.31374, 13.20197], [80.31323, 13.20046], [80.31254, 13.1984], [80.31211, 13.197], [80.31184, 13.196], [80.31192, 13.19599], [80.31184, 13.196], [80.31171, 13.19548], [80.31138, 13.19426], [80.31113, 13.19317], [80.31102, 13.19279], [80.31081, 13.19192], [80.31071, 13.19144], [80.31062, 13.19118], [80.31042, 13.1907], [80.30994, 13.1897], [80.30982, 13.18959], [80.30969, 13.18954], [80.3093, 13.18952], [80.30914, 13.18947], [80.30901, 13.18938], [80.30882, 13.18909], [80.3085, 13.18841], [80.30849, 13.18837], [80.30756, 13.18632], [80.30753, 13.18629], [80.30751, 13.18628], [80.30743, 13.18626], [80.30722, 13.18627], [80.30588, 13.18654], [80.30523, 13.18664], [80.30499, 13.18666], [80.30474, 13.18665], [80.30433, 13.18657], [80.30388, 13.18636], [80.30345, 13.18612], [80.30339, 13.18601], [80.30337, 13.18595], [80.3034, 13.18576], [80.30304, 13.18545], [80.30261, 13.18506], [80.30094, 13.18341], [80.30087, 13.18334], [80.29957, 13.18203], [80.29889, 13.18129], [80.29845, 13.18082], [80.29764, 13.17991], [80.29609, 13.17815], [80.29562, 13.17763], [80.29509, 13.17702], [80.29478, 13.17661], [80.29462, 13.17641], [80.29415, 13.17591], [80.29395, 13.17575], [80.2937, 13.17558], [80.29328, 13.17538], [80.29284, 13.17526], [80.29267, 13.17523], [80.29232, 13.17522], [80.29125, 13.17523], [80.28947, 13.17521], [80.28656, 13.17522], [80.28602, 13.17525], [80.28516, 13.17539], [80.28179, 13.17594], [80.27996, 13.17626], [80.27752, 13.17666], [80.27678, 13.17678], [80.27604, 13.17692], [80.27404, 13.17724], [80.27224, 13.17756], [80.27046, 13.17785], [80.27026, 13.17771], [80.2702, 13.17763], [80.27016, 13.1775], [80.27016, 13.17746], [80.27018, 13.1772], [80.27025, 13.17675], [80.27047, 13.17581], [80.27074, 13.17463], [80.27107, 13.17323], [80.27119, 13.17275], [80.27134, 13.17225], [80.27153, 13.17148], [80.27191, 13.16977], [80.27223, 13.16861], [80.27241, 13.16779], [80.27243, 13.16756], [80.27237, 13.16721], [80.27227, 13.16689], [80.27209, 13.16654], [80.27195, 13.16634], [80.2717, 13.1661], [80.27111, 13.16555], [80.27021, 13.16476], [80.26988, 13.16445], [80.26965, 13.16417], [80.26954, 13.16401], [80.26947, 13.16386], [80.26938, 13.16354], [80.26932, 13.16327], [80.26923, 13.16257], [80.26918, 13.16199], [80.26919, 13.16163], [80.26921, 13.16147], [80.26934, 13.1612], [80.26928, 13.16123], [80.26913, 13.16128], [80.26874, 13.16138], [80.26803, 13.16151], [80.26685, 13.16171], [80.26598, 13.1618], [80.26469, 13.16195], [80.26414, 13.16202], [80.26391, 13.16207], [80.26362, 13.16219], [80.26337, 13.16227], [80.26316, 13.16233], [80.26245, 13.16246], [80.2618, 13.16256], [80.26118, 13.16268], [80.26103, 13.16272], [80.26094, 13.16275], [80.26064, 13.16292], [80.26033, 13.16306], [80.25989, 13.16323], [80.25924, 13.16347], [80.25865, 13.16357], [80.25798, 13.1637], [80.2573, 13.16377], [80.25667, 13.16387], [80.25629, 13.16398], [80.25582, 13.16414], [80.25521, 13.1644], [80.25451, 13.1647], [80.25427, 13.16482], [80.25399, 13.16496], [80.2535, 13.16528], [80.25315, 13.16551], [80.25258, 13.16585], [80.25208, 13.1661], [80.25158, 13.16637], [80.25134, 13.16648], [80.25104, 13.16661], [80.25075, 13.1667], [80.25042, 13.16677], [80.25016, 13.16683], [80.24992, 13.16685], [80.24886, 13.1669], [80.24822, 13.16688], [80.24607, 13.16685], [80.24552, 13.16688], [80.24503, 13.16691], [80.24501, 13.16642], [80.245, 13.16618], [80.24499, 13.16566], [80.24498, 13.16513], [80.24496, 13.16334], [80.24497, 13.16257], [80.24499, 13.16179], [80.24498, 13.16175], [80.24494, 13.1617], [80.24449, 13.16168], [80.24413, 13.16169], [80.24384, 13.16168], [80.24389, 13.16061], [80.24388, 13.15984], [80.24392, 13.1588], [80.24392, 13.15858], [80.24396, 13.15739], [80.244, 13.15629], [80.244, 13.15568], [80.24393, 13.15503], [80.24383, 13.15468], [80.24359, 13.15406], [80.24328, 13.15324], [80.24318, 13.1529], [80.24311, 13.15276], [80.24289, 13.15262], [80.24277, 13.15254], [80.24266, 13.1523], [80.24239, 13.15169], [80.24212, 13.15109], [80.24196, 13.15054], [80.24177, 13.15059], [80.24169, 13.15055], [80.24154, 13.1504], [80.24133, 13.14995], [80.24116, 13.1496], [80.24102, 13.14898], [80.24098, 13.14831], [80.24087, 13.14802], [80.24048, 13.1471], [80.23973, 13.14554], [80.23905, 13.1439], [80.23896, 13.14366], [80.23887, 13.14354], [80.2388, 13.14349], [80.23866, 13.14348], [80.2377, 13.14351], [80.2372, 13.14349], [80.23708, 13.14343], [80.237, 13.14335], [80.23693, 13.14315], [80.23687, 13.14294], [80.23679, 13.14237], [80.23676, 13.14218], [80.23698, 13.14178], [80.23724, 13.14123], [80.23729, 13.14107], [80.23733, 13.14084], [80.23743, 13.13983], [80.23755, 13.13896], [80.23767, 13.13844], [80.23784, 13.13778], [80.23802, 13.13672], [80.23815, 13.13623], [80.23831, 13.13566], [80.23864, 13.13497], [80.23877, 13.13477], [80.23946, 13.13336], [80.23974, 13.13283], [80.23992, 13.13243], [80.23993, 13.1323], [80.24005, 13.1321], [80.2402, 13.13181], [80.24024, 13.13182], [80.24076, 13.13084], [80.24094, 13.13059], [80.24162, 13.12974], [80.24166, 13.12959], [80.24161, 13.12925], [80.24156, 13.12905], [80.24162, 13.12901], [80.24197, 13.12878], [80.24198, 13.12874], [80.24196, 13.12867], [80.24187, 13.12861], [80.24181, 13.1286], [80.24155, 13.12876], [80.24141, 13.12885], [80.24115, 13.12904], [80.23916, 13.1305], [80.23905, 13.1306], [80.23901, 13.1307], [80.23841, 13.13118], [80.23712, 13.13205], [80.23712, 13.13204], [80.23349, 13.13466], [80.23208, 13.13572], [80.2317, 13.13599], [80.23101, 13.13652], [80.22813, 13.13864], [80.22789, 13.13882], [80.2247, 13.14118], [80.22469, 13.14107], [80.22455, 13.14106], [80.22444, 13.14105], [80.22412, 13.14114], [80.224, 13.1411], [80.22405, 13.14147], [80.22407, 13.14164], [80.22299, 13.14243], [80.22191, 13.1432], [80.22084, 13.14394], [80.22076, 13.14399], [80.22057, 13.14406], [80.22042, 13.14408], [80.22021, 13.14409], [80.22012, 13.144], [80.22003, 13.14387], [80.21977, 13.14336], [80.2187, 13.14089], [80.21854, 13.14053], [80.2185, 13.14046], [80.21837, 13.1403], [80.21801, 13.13943], [80.2173, 13.13777], [80.21652, 13.13592], [80.21652, 13.13593], [80.2155, 13.13356], [80.21495, 13.13226], [80.21436, 13.13101], [80.21428, 13.13083], [80.21412, 13.13062], [80.21386, 13.13026], [80.21369, 13.13007], [80.21355, 13.12996], [80.21314, 13.12964], [80.21267, 13.12936], [80.2104, 13.12806], [80.20868, 13.12711], [80.20677, 13.12606], [80.20605, 13.12561], [80.20512, 13.12511], [80.20395, 13.12442], [80.20291, 13.12385], [80.20254, 13.12364], [80.20156, 13.12311], [80.20114, 13.12283], [80.20095, 13.12267], [80.20054, 13.12225], [80.20015, 13.12171], [80.1998, 13.12111], [80.19958, 13.12063], [80.19945, 13.12027], [80.19931, 13.11999], [80.19865, 13.11891], [80.19829, 13.11823], [80.19817, 13.118], [80.19802, 13.11763], [80.19788, 13.11709], [80.19765, 13.11536], [80.19753, 13.11457], [80.19743, 13.1135], [80.19728, 13.11212], [80.19718, 13.11143], [80.1971, 13.11074], [80.19696, 13.11008], [80.19681, 13.10965], [80.19661, 13.10925], [80.19589, 13.10804], [80.19506, 13.1066], [80.19475, 13.10585], [80.19468, 13.10555], [80.19458, 13.10459], [80.19449, 13.10315], [80.19446, 13.10286], [80.19443, 13.10243], [80.19441, 13.1019], [80.19445, 13.10127], [80.19447, 13.1011], [80.19451, 13.10088], [80.19457, 13.10066], [80.19466, 13.10044], [80.19482, 13.10012], [80.19496, 13.09989], [80.19513, 13.09966], [80.19539, 13.09939], [80.19561, 13.09923], [80.19605, 13.09897], [80.1964, 13.09884], [80.19681, 13.09872], [80.19706, 13.09864], [80.19754, 13.09851], [80.19781, 13.09843], [80.1981, 13.09826], [80.19838, 13.09799], [80.19855, 13.09772], [80.19864, 13.09749], [80.19871, 13.09719], [80.19871, 13.09702], [80.19872, 13.0949], [80.19868, 13.09402], [80.19865, 13.0936], [80.19865, 13.09294], [80.19867, 13.09241], [80.19868, 13.09184], [80.19866, 13.09123], [80.19866, 13.09076], [80.19866, 13.09046], [80.19873, 13.09001], [80.19872, 13.08834], [80.19871, 13.08778], [80.19868, 13.08726], [80.19866, 13.08666], [80.19865, 13.08503], [80.19868, 13.0845], [80.19868, 13.08298], [80.19868, 13.0828], [80.19864, 13.08231], [80.19863, 13.08227], [80.19861, 13.0822], [80.19858, 13.08166], [80.19858, 13.08129], [80.19863, 13.08055], [80.19875, 13.07945], [80.19889, 13.0784], [80.19891, 13.0782], [80.19892, 13.07795], [80.19901, 13.07748], [80.19908, 13.07699], [80.19915, 13.07635], [80.19926, 13.07565], [80.1993, 13.07548], [80.19936, 13.07517], [80.19955, 13.07478], [80.19968, 13.07452], [80.19996, 13.07427], [80.20033, 13.07392], [80.20125, 13.07314], [80.20328, 13.07134], [80.20445, 13.07043], [80.20513, 13.06991], [80.20559, 13.06966], [80.20582, 13.06951], [80.20577, 13.06944], [80.2057, 13.06935], [80.20565, 13.06929], [80.20558, 13.06924], [80.20549, 13.06915], [80.20543, 13.06908], [80.20541, 13.06897], [80.20543, 13.06884], [80.20543, 13.06879], [80.20503, 13.06901], [80.20485, 13.06911]]}}]}