{"type": "FeatureCollection", "features": [{"type": "Feature", "properties": {"route_name": "53G", "stop_id": "qflzswAf", "name": "Poonamallee Terminus", "city": "CHENNAI"}, "geometry": {"type": "Point", "coordinates": [80.09486902391961, 13.051775993180485]}}, {"type": "Feature", "properties": {"route_name": "53G", "stop_id": "PyGiRErs", "name": "Varadaraja Puram", "city": "CHENNAI"}, "geometry": {"type": "Point", "coordinates": [80.08662361879931, 13.04890990260656]}}, {"type": "Feature", "properties": {"route_name": "53G", "stop_id": "CrOFTJlw", "name": "Nazarathpet", "city": "CHENNAI"}, "geometry": {"type": "Point", "coordinates": [80.08050084998649, 13.047193040450408]}}, {"type": "Feature", "properties": {"route_name": "53G", "stop_id": "FdBCLyPI", "name": "Jaya Jaya Sankara International School", "city": "CHENNAI"}, "geometry": {"type": "Point", "coordinates": [80.07426953185461, 13.046508577273626]}}, {"type": "Feature", "properties": {"route_name": "53G", "stop_id": "DHkaGHFf", "name": "Nazarathpet Police Check Post", "city": "CHENNAI"}, "geometry": {"type": "Point", "coordinates": [80.0686788162675, 13.044951038922536]}}, {"type": "Feature", "properties": {"route_name": "53G", "stop_id": "wRTYbalx", "name": "Chembarambakkam Koil", "city": "CHENNAI"}, "geometry": {"type": "Point", "coordinates": [80.0629981631946, 13.043197666898577]}}, {"type": "Feature", "properties": {"route_name": "53G", "stop_id": "gxidCspv", "name": "Chembarambakkam", "city": "CHENNAI"}, "geometry": {"type": "Point", "coordinates": [80.05755619732508, 13.040627692719365]}}, {"type": "Feature", "properties": {"route_name": "53G", "stop_id": "rljVoTvk", "name": "L and T", "city": "CHENNAI"}, "geometry": {"type": "Point", "coordinates": [80.05316471913534, 13.03881454813193]}}, {"type": "Feature", "properties": {"route_name": "53G", "stop_id": "ekoOPpVq", "name": "Irulapalayam Road Junction", "city": "CHENNAI"}, "geometry": {"type": "Point", "coordinates": [80.04407890972243, 13.035973029197613]}}, {"type": "Feature", "properties": {"route_name": "53G", "stop_id": "tbsBIgaj", "name": "Irulpalayam", "city": "CHENNAI"}, "geometry": {"type": "Point", "coordinates": [80.03511564723874, 13.043101733738089]}}, {"type": "Feature", "properties": {"route_name": "53G", "stop_id": "WoCjyXMQ", "name": "Padurmedu", "city": "CHENNAI"}, "geometry": {"type": "Point", "coordinates": [80.02570033556458, 13.047345575198785]}}, {"type": "Feature", "properties": {"name": "53G"}, "geometry": {"type": "LineString", "coordinates": [[80.0949, 13.05178], [80.09491, 13.05207], [80.09478, 13.05207], [80.09462, 13.05207], [80.09455, 13.05204], [80.09438, 13.05195], [80.09434, 13.05193], [80.09427, 13.05176], [80.09413, 13.0514], [80.09407, 13.05114], [80.09404, 13.05091], [80.09405, 13.05083], [80.09323, 13.05054], [80.09295, 13.05042], [80.0922, 13.05015], [80.0916, 13.05], [80.09097, 13.04987], [80.08979, 13.04963], [80.08912, 13.04945], [80.08839, 13.04925], [80.08779, 13.04907], [80.08754, 13.04906], [80.08663, 13.04889], [80.08601, 13.04882], [80.0855, 13.04875], [80.085, 13.04865], [80.08449, 13.04854], [80.08407, 13.04843], [80.08361, 13.04826], [80.0833, 13.04815], [80.083, 13.04805], [80.08266, 13.04794], [80.0822, 13.04776], [80.08178, 13.04763], [80.08166, 13.04759], [80.08035, 13.04722], [80.08047, 13.04718], [80.08046, 13.04722], [80.08046, 13.04726], [80.08027, 13.04721], [80.07988, 13.04712], [80.07958, 13.04707], [80.07933, 13.04704], [80.07873, 13.047], [80.07754, 13.04697], [80.0759, 13.04689], [80.07536, 13.04688], [80.07503, 13.04686], [80.07479, 13.04681], [80.07436, 13.04664], [80.07423, 13.04658], [80.07365, 13.04631], [80.07334, 13.0462], [80.07288, 13.04607], [80.07211, 13.04599], [80.07156, 13.04593], [80.07124, 13.04587], [80.07038, 13.0456], [80.06999, 13.04546], [80.06896, 13.04516], [80.06864, 13.04507], [80.06432, 13.04382], [80.06366, 13.04356], [80.06297, 13.04326], [80.06215, 13.04287], [80.06132, 13.04243], [80.06038, 13.0419], [80.05956, 13.04152], [80.05838, 13.04101], [80.05753, 13.04069], [80.05605, 13.04013], [80.05472, 13.03955], [80.05314, 13.03888], [80.05208, 13.03848], [80.05002, 13.03775], [80.0491, 13.03746], [80.04792, 13.03712], [80.04748, 13.03702], [80.04619, 13.03669], [80.04405, 13.03606], [80.04367, 13.03594], [80.0436, 13.03621], [80.0436, 13.0364], [80.04365, 13.03667], [80.04369, 13.03679], [80.0439, 13.03729], [80.04415, 13.03789], [80.04403, 13.03799], [80.0429, 13.03868], [80.04239, 13.03895], [80.04214, 13.03905], [80.04168, 13.03919], [80.04097, 13.03935], [80.04049, 13.03942], [80.03953, 13.03949], [80.03943, 13.03951], [80.03926, 13.03958], [80.03838, 13.04003], [80.03768, 13.04048], [80.03725, 13.04075], [80.03707, 13.0409], [80.03668, 13.04127], [80.03644, 13.04151], [80.03631, 13.04168], [80.0362, 13.04192], [80.03611, 13.04218], [80.03597, 13.04243], [80.03574, 13.04273], [80.03551, 13.04292], [80.03533, 13.04304], [80.03515, 13.04316], [80.03501, 13.04325], [80.03482, 13.04329], [80.03462, 13.04335], [80.03446, 13.04344], [80.03399, 13.04376], [80.03334, 13.04419], [80.03222, 13.04487], [80.03149, 13.04542], [80.03066, 13.04602], [80.03039, 13.04618], [80.03018, 13.04626], [80.02954, 13.04641], [80.02764, 13.04681], [80.02748, 13.04685], [80.02675, 13.04705], [80.02665, 13.04713], [80.02635, 13.04726], [80.02605, 13.04734], [80.0257, 13.04739]]}}]}