{"type": "FeatureCollection", "features": [{"type": "Feature", "properties": {"route_name": "206", "stop_id": "ogOCBKAf", "name": "Avadi Terminal", "city": "CHENNAI"}, "geometry": {"type": "Point", "coordinates": [80.10204658205703, 13.120113061821396]}}, {"type": "Feature", "properties": {"route_name": "206", "stop_id": "eiOwifcC", "name": "Avadi Check Post", "city": "CHENNAI"}, "geometry": {"type": "Point", "coordinates": [80.09503036492129, 13.119039724937316]}}, {"type": "Feature", "properties": {"route_name": "206", "stop_id": "waZdIIZY", "name": "Ramarathna Theatre", "city": "CHENNAI"}, "geometry": {"type": "Point", "coordinates": [80.09636722918401, 13.117214657252083]}}, {"type": "Feature", "properties": {"route_name": "206", "stop_id": "qNiTyrkl", "name": "Kannigapuram", "city": "CHENNAI"}, "geometry": {"type": "Point", "coordinates": [80.10061571274105, 13.11658788032437]}}, {"type": "Feature", "properties": {"route_name": "206", "stop_id": "LOIXCDqJ", "name": "Avadi Mosque", "city": "CHENNAI"}, "geometry": {"type": "Point", "coordinates": [80.10818089407599, 13.114332177367336]}}, {"type": "Feature", "properties": {"route_name": "206", "stop_id": "UhAwQaaX", "name": "JB Estate", "city": "CHENNAI"}, "geometry": {"type": "Point", "coordinates": [80.10860694290795, 13.111530277127752]}}, {"type": "Feature", "properties": {"route_name": "206", "stop_id": "LYitljhu", "name": "Vasantham Nagar", "city": "CHENNAI"}, "geometry": {"type": "Point", "coordinates": [80.10847133702657, 13.10540426826048]}}, {"type": "Feature", "properties": {"route_name": "206", "stop_id": "gyedwqXM", "name": "Moorthy Nagar", "city": "CHENNAI"}, "geometry": {"type": "Point", "coordinates": [80.10836870062587, 13.102685813381397]}}, {"type": "Feature", "properties": {"route_name": "206", "stop_id": "BJDTCJYP", "name": "Govardanagiri", "city": "CHENNAI"}, "geometry": {"type": "Point", "coordinates": [80.10837272705714, 13.098411494909767]}}, {"type": "Feature", "properties": {"route_name": "206", "stop_id": "VMzKgUSR", "name": "Iyankulam", "city": "CHENNAI"}, "geometry": {"type": "Point", "coordinates": [80.10846517244875, 13.093608338886707]}}, {"type": "Feature", "properties": {"route_name": "206", "stop_id": "GJEXlFdt", "name": "Paruthipattu Road Junction", "city": "CHENNAI"}, "geometry": {"type": "Point", "coordinates": [80.10868127824097, 13.086550268903975]}}, {"type": "Feature", "properties": {"route_name": "206", "stop_id": "dgLtpUgu", "name": "Melpakkam", "city": "CHENNAI"}, "geometry": {"type": "Point", "coordinates": [80.10932121538963, 13.081671637370007]}}, {"type": "Feature", "properties": {"route_name": "206", "stop_id": "NRaiNGwl", "name": "Kaduvetti", "city": "CHENNAI"}, "geometry": {"type": "Point", "coordinates": [80.11062171368462, 13.078228154870448]}}, {"type": "Feature", "properties": {"route_name": "206", "stop_id": "jSSkauKM", "name": "Vathal Thottam", "city": "CHENNAI"}, "geometry": {"type": "Point", "coordinates": [80.11298909380935, 13.06203625655518]}}, {"type": "Feature", "properties": {"route_name": "206", "stop_id": "JbCujTci", "name": "Parivakkam Signal", "city": "CHENNAI"}, "geometry": {"type": "Point", "coordinates": [80.09766351506453, 13.056485001289191]}}, {"type": "Feature", "properties": {"route_name": "206", "stop_id": "PyGiRErs", "name": "Varadaraja Puram", "city": "CHENNAI"}, "geometry": {"type": "Point", "coordinates": [80.08662361879931, 13.04890990260656]}}, {"type": "Feature", "properties": {"route_name": "206", "stop_id": "ykQYJtnJ", "name": "Malayambakkam Stalin Nagar", "city": "CHENNAI"}, "geometry": {"type": "Point", "coordinates": [80.09121598180377, 13.028505231558064]}}, {"type": "Feature", "properties": {"route_name": "206", "stop_id": "UrOuumcZ", "name": "Chikkarayapuram", "city": "CHENNAI"}, "geometry": {"type": "Point", "coordinates": [80.09454110337413, 13.01465629302559]}}, {"type": "Feature", "properties": {"route_name": "206", "stop_id": "BaMKWhPW", "name": "Kundrathur Lake View Road", "city": "CHENNAI"}, "geometry": {"type": "Point", "coordinates": [80.09181849870879, 13.007691958450811]}}, {"type": "Feature", "properties": {"route_name": "206", "stop_id": "PrbXVSIs", "name": "Kundrathur Natham Murugan Temple", "city": "CHENNAI"}, "geometry": {"type": "Point", "coordinates": [80.08998510244282, 12.982222033961328]}}, {"type": "Feature", "properties": {"route_name": "206", "stop_id": "MEUYJwAC", "name": "Thirumudivakkam SIDCO", "city": "CHENNAI"}, "geometry": {"type": "Point", "coordinates": [80.09032412758108, 12.969277254065416]}}, {"type": "Feature", "properties": {"route_name": "206", "stop_id": "OTWTQCls", "name": "Pazhanthandalam", "city": "CHENNAI"}, "geometry": {"type": "Point", "coordinates": [80.0907602124422, 12.960100476077354]}}, {"type": "Feature", "properties": {"route_name": "206", "stop_id": "TqATzVvV", "name": "Erumaiyur", "city": "CHENNAI"}, "geometry": {"type": "Point", "coordinates": [80.08871515576948, 12.95211883653706]}}, {"type": "Feature", "properties": {"route_name": "206", "stop_id": "ZcOxufIN", "name": "Varadharajapuram Kishkinda", "city": "CHENNAI"}, "geometry": {"type": "Point", "coordinates": [80.0835787591684, 12.93868689785895]}}, {"type": "Feature", "properties": {"route_name": "206", "stop_id": "WQOJAyxG", "name": "Varadharajapuram Rayappa Nagar", "city": "CHENNAI"}, "geometry": {"type": "Point", "coordinates": [80.0779831505206, 12.923682016167461]}}, {"type": "Feature", "properties": {"route_name": "206", "stop_id": "OdbRrJhV", "name": "Vandalur", "city": "CHENNAI"}, "geometry": {"type": "Point", "coordinates": [80.08198678025951, 12.893560244254902]}}, {"type": "Feature", "properties": {"route_name": "206", "stop_id": "gzTQJVMW", "name": "Vandalur Zoo", "city": "CHENNAI"}, "geometry": {"type": "Point", "coordinates": [80.0808152705822, 12.88055624912894]}}, {"type": "Feature", "properties": {"route_name": "206", "stop_id": "RVEyrwjR", "name": "Kilambakkam Bus Terminus", "city": "CHENNAI"}, "geometry": {"type": "Point", "coordinates": [80.07837988343238, 12.874093789888684]}}, {"type": "Feature", "properties": {"route_name": "206", "stop_id": "XLVjRryq", "name": "Urappakam", "city": "CHENNAI"}, "geometry": {"type": "Point", "coordinates": [80.07576903505412, 12.867815440896505]}}, {"type": "Feature", "properties": {"route_name": "206", "stop_id": "NxbXiMUL", "name": "Urapakkam Or Ananthavalli SchoolAnanthavalli School", "city": "CHENNAI"}, "geometry": {"type": "Point", "coordinates": [80.07362946240994, 12.86209629173468]}}, {"type": "Feature", "properties": {"route_name": "206", "stop_id": "vDFCntfg", "name": "Guduvancheri EB Office", "city": "CHENNAI"}, "geometry": {"type": "Point", "coordinates": [80.06579046, 12.85120776]}}, {"type": "Feature", "properties": {"route_name": "206", "stop_id": "YvwuVYMF", "name": "Guduvancheri Bus Terminus", "city": "CHENNAI"}, "geometry": {"type": "Point", "coordinates": [80.06156057583712, 12.845099416050214]}}, {"type": "Feature", "properties": {"name": "206"}, "geometry": {"type": "LineString", "coordinates": [[80.10239, 13.12015], [80.10235, 13.11963], [80.10195, 13.11969], [80.10144, 13.11972], [80.10068, 13.11967], [80.09942, 13.11956], [80.09816, 13.11951], [80.09689, 13.11947], [80.09563, 13.11941], [80.09531, 13.1194], [80.09516, 13.11939], [80.09509, 13.11929], [80.09502, 13.11921], [80.09499, 13.11903], [80.09503, 13.11903], [80.09499, 13.11903], [80.09497, 13.11878], [80.09495, 13.11861], [80.09492, 13.11832], [80.09493, 13.11807], [80.09496, 13.11793], [80.09502, 13.11777], [80.09521, 13.11751], [80.09542, 13.11739], [80.09564, 13.11734], [80.0961, 13.11726], [80.09637, 13.11722], [80.09636, 13.11719], [80.09666, 13.11717], [80.09851, 13.11693], [80.10061, 13.11657], [80.10198, 13.11635], [80.10342, 13.11609], [80.10365, 13.11603], [80.10371, 13.11601], [80.10398, 13.11596], [80.10495, 13.11582], [80.10521, 13.11571], [80.10546, 13.11566], [80.10575, 13.11563], [80.10719, 13.11561], [80.10772, 13.11562], [80.1078, 13.1156], [80.10789, 13.11553], [80.10792, 13.11544], [80.10802, 13.11501], [80.10815, 13.11433], [80.10833, 13.11322], [80.10859, 13.11153], [80.10859, 13.1115], [80.10863, 13.11085], [80.10861, 13.11004], [80.1086, 13.1096], [80.10859, 13.10911], [80.10854, 13.10821], [80.1085, 13.10729], [80.10849, 13.10694], [80.10846, 13.10621], [80.10843, 13.10541], [80.10834, 13.10269], [80.10827, 13.10136], [80.10826, 13.10028], [80.10829, 13.09992], [80.10833, 13.09841], [80.10842, 13.09503], [80.10843, 13.09361], [80.10846, 13.09213], [80.10849, 13.09108], [80.10855, 13.08961], [80.10859, 13.08819], [80.10863, 13.08655], [80.10876, 13.08343], [80.10876, 13.08315], [80.10879, 13.08296], [80.10897, 13.08245], [80.10909, 13.08216], [80.10993, 13.08006], [80.11028, 13.07918], [80.1106, 13.07822], [80.11128, 13.07614], [80.1117, 13.07491], [80.11201, 13.07392], [80.11217, 13.07329], [80.11248, 13.07199], [80.11263, 13.07136], [80.11271, 13.07089], [80.11273, 13.0704], [80.11269, 13.06936], [80.11263, 13.06819], [80.1126, 13.0678], [80.11252, 13.06597], [80.11248, 13.06504], [80.11248, 13.06495], [80.11254, 13.06486], [80.11262, 13.06463], [80.11267, 13.06449], [80.11268, 13.06433], [80.11265, 13.06417], [80.11251, 13.06384], [80.11251, 13.06369], [80.11252, 13.06365], [80.11262, 13.06325], [80.11294, 13.06215], [80.11296, 13.06203], [80.11325, 13.06075], [80.11364, 13.05918], [80.11374, 13.05866], [80.11382, 13.05813], [80.11383, 13.0578], [80.11385, 13.05734], [80.11391, 13.05703], [80.11392, 13.0567], [80.11385, 13.05669], [80.11265, 13.05664], [80.11184, 13.0566], [80.1111, 13.05661], [80.11059, 13.05663], [80.10995, 13.05665], [80.10984, 13.05666], [80.10972, 13.05677], [80.1083, 13.05687], [80.10741, 13.05695], [80.10661, 13.05704], [80.10553, 13.05715], [80.10261, 13.05728], [80.10206, 13.0573], [80.1015, 13.05727], [80.10078, 13.05718], [80.09891, 13.05676], [80.09766, 13.0565], [80.09724, 13.05644], [80.09595, 13.05631], [80.0952, 13.05623], [80.09475, 13.05612], [80.09427, 13.05596], [80.09343, 13.0556], [80.0922, 13.05503], [80.09183, 13.05483], [80.09156, 13.05464], [80.09117, 13.05432], [80.0909, 13.05402], [80.09074, 13.05381], [80.09045, 13.05332], [80.08957, 13.05156], [80.0891, 13.05068], [80.08887, 13.05029], [80.08874, 13.05002], [80.08858, 13.0498], [80.08838, 13.04953], [80.08821, 13.04937], [80.08808, 13.04926], [80.08788, 13.04916], [80.08763, 13.04908], [80.08701, 13.04895], [80.08663, 13.04889], [80.08663, 13.0489], [80.08524, 13.04871], [80.08405, 13.04841], [80.08449, 13.04765], [80.0848, 13.04738], [80.08532, 13.04732], [80.08559, 13.04746], [80.08577, 13.04785], [80.08557, 13.0484], [80.0852, 13.04866], [80.08407, 13.04845], [80.08458, 13.04725], [80.0852, 13.04548], [80.08685, 13.04014], [80.08919, 13.03338], [80.09091, 13.02849], [80.0912, 13.0285], [80.09129, 13.02819], [80.09131, 13.02794], [80.09207, 13.02586], [80.09335, 13.02267], [80.09383, 13.02131], [80.09425, 13.02008], [80.09478, 13.01871], [80.09497, 13.0181], [80.09508, 13.01759], [80.09512, 13.01705], [80.09507, 13.01656], [80.095, 13.01616], [80.09461, 13.01511], [80.09462, 13.01508], [80.09451, 13.01467], [80.09432, 13.01428], [80.09429, 13.01427], [80.09395, 13.0135], [80.09351, 13.01242], [80.09324, 13.0117], [80.093, 13.01112], [80.09252, 13.0098], [80.09187, 13.00811], [80.09187, 13.00799], [80.09182, 13.00777], [80.09179, 13.0077], [80.0917, 13.00749], [80.09159, 13.00731], [80.09155, 13.00729], [80.09147, 13.00708], [80.09132, 13.00661], [80.09127, 13.00634], [80.09123, 13.00614], [80.09115, 13.00596], [80.09106, 13.00573], [80.09071, 13.00513], [80.09037, 13.00429], [80.08981, 13.00281], [80.08922, 13.00131], [80.08911, 13.00129], [80.08898, 13.00095], [80.08852, 12.9998], [80.08799, 12.99845], [80.08778, 12.99775], [80.08764, 12.99693], [80.08761, 12.99652], [80.08761, 12.99584], [80.08763, 12.99544], [80.08772, 12.99485], [80.08787, 12.9942], [80.08802, 12.99375], [80.08825, 12.99319], [80.08879, 12.99189], [80.089, 12.99128], [80.08915, 12.99078], [80.08932, 12.99001], [80.08939, 12.98935], [80.08944, 12.98864], [80.08951, 12.98745], [80.08954, 12.98698], [80.08963, 12.98691], [80.08966, 12.98642], [80.08976, 12.98489], [80.08994, 12.98222], [80.08999, 12.98053], [80.09009, 12.9751], [80.09013, 12.9745], [80.09021, 12.97414], [80.09027, 12.97379], [80.09018, 12.97293], [80.09022, 12.97113], [80.09023, 12.97039], [80.09026, 12.96927], [80.09037, 12.96715], [80.09041, 12.96696], [80.09046, 12.96655], [80.09044, 12.96619], [80.09041, 12.96599], [80.09042, 12.96521], [80.0905, 12.96266], [80.09061, 12.9601], [80.09063, 12.9592], [80.09062, 12.9585], [80.09057, 12.95787], [80.09044, 12.95729], [80.09027, 12.95673], [80.08982, 12.95549], [80.08913, 12.95364], [80.08859, 12.95216], [80.08723, 12.94862], [80.08601, 12.94534], [80.08471, 12.9419], [80.08408, 12.94011], [80.08382, 12.93954], [80.08352, 12.93871], [80.08275, 12.93663], [80.082, 12.93467], [80.0808, 12.9314], [80.07945, 12.92772], [80.07905, 12.92669], [80.078, 12.92386], [80.07794, 12.9237], [80.07728, 12.92137], [80.077, 12.92044], [80.07649, 12.91869], [80.07591, 12.91687], [80.07573, 12.91599], [80.07573, 12.91576], [80.07493, 12.914], [80.073, 12.90776], [80.07176, 12.90429], [80.07067, 12.89584], [80.07085, 12.89412], [80.07091, 12.89299], [80.07107, 12.89186], [80.0711, 12.89131], [80.07197, 12.89135], [80.07335, 12.89167], [80.07476, 12.89182], [80.0762, 12.89189], [80.07762, 12.89196], [80.07807, 12.8921], [80.07882, 12.89265], [80.07975, 12.89346], [80.07993, 12.8936], [80.08039, 12.8937], [80.0809, 12.89366], [80.08128, 12.89363], [80.08197, 12.89353], [80.08318, 12.8933], [80.08487, 12.89296], [80.08541, 12.8929], [80.08577, 12.8929], [80.08598, 12.89291], [80.08612, 12.89279], [80.0861, 12.89261], [80.08595, 12.89243], [80.0854, 12.89156], [80.0851, 12.891], [80.08478, 12.89034], [80.08381, 12.888], [80.08095, 12.88092], [80.08077, 12.88057], [80.08016, 12.87899], [80.07889, 12.87566], [80.07841, 12.87445], [80.07812, 12.87373], [80.07782, 12.87296], [80.07877, 12.87264], [80.07899, 12.87247], [80.07917, 12.87228], [80.07933, 12.87215], [80.07972, 12.872], [80.07992, 12.8719], [80.08017, 12.87206], [80.08007, 12.87261], [80.08008, 12.87302], [80.08017, 12.87329], [80.08021, 12.87353], [80.0802, 12.87363], [80.08014, 12.87372], [80.08004, 12.87381], [80.07852, 12.87438], [80.07847, 12.8744], [80.07835, 12.8741], [80.07822, 12.87382], [80.07812, 12.87373], [80.07782, 12.87296], [80.07756, 12.87228], [80.07655, 12.86968], [80.07582, 12.8678], [80.07575, 12.86782], [80.0753, 12.86672], [80.07539, 12.86668], [80.07497, 12.86552], [80.07451, 12.86429], [80.07425, 12.86363], [80.07388, 12.86266], [80.07362, 12.8621], [80.07306, 12.86105], [80.07236, 12.85998], [80.07199, 12.85941], [80.07178, 12.85929], [80.07173, 12.85928], [80.07085, 12.85811], [80.06966, 12.8566], [80.0691, 12.85586], [80.06811, 12.85454], [80.06651, 12.85237], [80.06641, 12.85218], [80.06619, 12.85186], [80.0662, 12.85181], [80.0662, 12.85179], [80.06617, 12.85172], [80.066, 12.85145], [80.06582, 12.85119], [80.06531, 12.85045], [80.0646, 12.84946], [80.06412, 12.84881], [80.06392, 12.84853], [80.06382, 12.84861], [80.06236, 12.84664], [80.06201, 12.84623], [80.0615, 12.84563], [80.06151, 12.84551], [80.06148, 12.8454], [80.06164, 12.84515]]}}]}