{"type": "FeatureCollection", "features": [{"type": "Feature", "properties": {"route_name": "78", "stop_id": "BpAiVnps", "name": "CMBT Koyembedu Bus Depot", "city": "CHENNAI"}, "geometry": {"type": "Point", "coordinates": [80.20518932458458, 13.068981607807045]}}, {"type": "Feature", "properties": {"route_name": "78", "stop_id": "fmQEzQWV", "name": "MMDA Colony Road Junction", "city": "CHENNAI"}, "geometry": {"type": "Point", "coordinates": [80.21126128835749, 13.06518054252823]}}, {"type": "Feature", "properties": {"route_name": "78", "stop_id": "IubGYoNi", "name": "Thirunagar", "city": "CHENNAI"}, "geometry": {"type": "Point", "coordinates": [80.21166068, 13.05789635]}}, {"type": "Feature", "properties": {"route_name": "78", "stop_id": "jIerKxIb", "name": "Vadapalani", "city": "CHENNAI"}, "geometry": {"type": "Point", "coordinates": [80.21239284135243, 13.047240670280491]}}, {"type": "Feature", "properties": {"route_name": "78", "stop_id": "wDpyEsxh", "name": "Ashok Nagar Canara Bank", "city": "CHENNAI"}, "geometry": {"type": "Point", "coordinates": [80.21241378154525, 13.040150388883035]}}, {"type": "Feature", "properties": {"route_name": "78", "stop_id": "vSdfqYeK", "name": "Ashok Pillar", "city": "CHENNAI"}, "geometry": {"type": "Point", "coordinates": [80.21208679, 13.03354348]}}, {"type": "Feature", "properties": {"route_name": "78", "stop_id": "oNyGHMvy", "name": "Kasi Theatre", "city": "CHENNAI"}, "geometry": {"type": "Point", "coordinates": [80.20887954, 13.02920434]}}, {"type": "Feature", "properties": {"route_name": "78", "stop_id": "KjuJaNsu", "name": "Kalaimagal Nagar", "city": "CHENNAI"}, "geometry": {"type": "Point", "coordinates": [80.20702986, 13.02456277]}}, {"type": "Feature", "properties": {"route_name": "78", "stop_id": "HcPkwFHM", "name": "Ekkattuthangal Or Ambal Nagar", "city": "CHENNAI"}, "geometry": {"type": "Point", "coordinates": [80.20635784175875, 13.019221472051377]}}, {"type": "Feature", "properties": {"route_name": "78", "stop_id": "svgtEcQx", "name": "CIPET", "city": "CHENNAI"}, "geometry": {"type": "Point", "coordinates": [80.20484126, 13.01454542]}}, {"type": "Feature", "properties": {"route_name": "78", "stop_id": "mnkgCFDT", "name": "Guindy Bus Terminus", "city": "CHENNAI"}, "geometry": {"type": "Point", "coordinates": [80.21114278309233, 13.009411553087547]}}, {"type": "Feature", "properties": {"route_name": "78", "stop_id": "WOOyqinT", "name": "Chellammal College", "city": "CHENNAI"}, "geometry": {"type": "Point", "coordinates": [80.22076239073908, 13.012293483983404]}}, {"type": "Feature", "properties": {"route_name": "78", "stop_id": "YmkUpvHU", "name": "Chinnamalai B S or Saidapet Court", "city": "CHENNAI"}, "geometry": {"type": "Point", "coordinates": [80.22645940770053, 13.0139397637957]}}, {"type": "Feature", "properties": {"route_name": "78", "stop_id": "qKeCDDXI", "name": "Anna University Or Engineer College", "city": "CHENNAI"}, "geometry": {"type": "Point", "coordinates": [80.233474145983, 13.008316004554988]}}, {"type": "Feature", "properties": {"route_name": "78", "stop_id": "HrrdJKJb", "name": "IIT Madras Or Guindy National Park", "city": "CHENNAI"}, "geometry": {"type": "Point", "coordinates": [80.24021089224698, 13.006947924888745]}}, {"type": "Feature", "properties": {"route_name": "78", "stop_id": "biJBLznK", "name": "Madhya Kailash", "city": "CHENNAI"}, "geometry": {"type": "Point", "coordinates": [80.24674342935407, 13.006806700930548]}}, {"type": "Feature", "properties": {"route_name": "78", "stop_id": "UfJDroVz", "name": "Adyar Gandhi Nagar", "city": "CHENNAI"}, "geometry": {"type": "Point", "coordinates": [80.24946444439593, 13.006933502128126]}}, {"type": "Feature", "properties": {"route_name": "78", "stop_id": "lsFGVtlq", "name": "Adyar Old Depot", "city": "CHENNAI"}, "geometry": {"type": "Point", "coordinates": [80.2532048438162, 13.006656693302986]}}, {"type": "Feature", "properties": {"route_name": "78", "stop_id": "uxsctOEt", "name": "Adyar Signal", "city": "CHENNAI"}, "geometry": {"type": "Point", "coordinates": [80.25756260627907, 13.00638523803173]}}, {"type": "Feature", "properties": {"route_name": "78", "stop_id": "UFoaQvGg", "name": "BSNL Telephone Exchange", "city": "CHENNAI"}, "geometry": {"type": "Point", "coordinates": [80.25648575940431, 13.000734288174153]}}, {"type": "Feature", "properties": {"route_name": "78", "stop_id": "RfEbENxd", "name": "Adyar Depot", "city": "CHENNAI"}, "geometry": {"type": "Point", "coordinates": [80.2561228005967, 12.998488262599018]}}, {"type": "Feature", "properties": {"route_name": "78", "stop_id": "jQaLNViL", "name": "Jayanthi Theatre", "city": "CHENNAI"}, "geometry": {"type": "Point", "coordinates": [80.25601093652699, 12.988915432282013]}}, {"type": "Feature", "properties": {"route_name": "78", "stop_id": "gyQqEnFq", "name": "Thiruvanmiyur Depot", "city": "CHENNAI"}, "geometry": {"type": "Point", "coordinates": [80.2592892551454, 12.98684992620367]}}, {"type": "Feature", "properties": {"name": "78"}, "geometry": {"type": "LineString", "coordinates": [[80.20474, 13.06925], [80.20485, 13.06973], [80.20508, 13.06998], [80.20555, 13.06967], [80.20635, 13.06925], [80.20749, 13.06847], [80.20844, 13.06778], [80.20931, 13.06723], [80.20972, 13.06695], [80.21014, 13.06645], [80.2105, 13.06606], [80.21117, 13.06519], [80.21118, 13.06514], [80.21119, 13.06514], [80.21153, 13.06448], [80.21166, 13.06376], [80.21172, 13.06278], [80.21173, 13.06205], [80.21165, 13.05999], [80.21158, 13.05865], [80.21157, 13.0579], [80.21153, 13.05544], [80.21154, 13.05472], [80.21156, 13.05454], [80.21183, 13.05328], [80.21201, 13.05271], [80.21216, 13.05222], [80.21223, 13.05196], [80.21223, 13.05148], [80.21219, 13.0509], [80.21215, 13.05054], [80.21212, 13.04991], [80.21215, 13.0496], [80.21216, 13.04938], [80.2122, 13.04907], [80.21231, 13.0477], [80.21231, 13.04748], [80.21227, 13.04737], [80.21229, 13.04723], [80.21228, 13.04723], [80.21238, 13.04517], [80.21239, 13.04469], [80.21239, 13.04446], [80.21235, 13.04334], [80.21235, 13.04288], [80.21234, 13.04188], [80.21237, 13.04015], [80.2124, 13.03905], [80.21239, 13.03824], [80.2124, 13.03744], [80.21235, 13.03595], [80.21229, 13.0353], [80.21224, 13.03482], [80.21208, 13.03417], [80.21198, 13.03355], [80.21176, 13.03199], [80.2097, 13.03228], [80.20881, 13.02922], [80.2087, 13.02879], [80.20855, 13.02837], [80.20836, 13.02784], [80.20807, 13.02733], [80.20767, 13.02669], [80.20734, 13.02608], [80.20714, 13.02566], [80.20691, 13.02471], [80.20688, 13.02459], [80.20665, 13.02332], [80.20648, 13.02252], [80.20642, 13.02207], [80.20643, 13.02129], [80.20642, 13.02065], [80.20638, 13.01982], [80.20634, 13.01949], [80.20628, 13.01924], [80.20564, 13.0174], [80.20505, 13.01568], [80.2046, 13.0145], [80.2043, 13.01373], [80.20496, 13.01353], [80.20587, 13.01318], [80.20732, 13.01298], [80.20822, 13.01285], [80.20933, 13.01306], [80.20967, 13.01319], [80.20986, 13.01322], [80.21019, 13.01321], [80.21063, 13.01314], [80.21107, 13.013], [80.21285, 13.01186], [80.21119, 13.00981], [80.21111, 13.00937], [80.21142, 13.00912], [80.2115, 13.00908], [80.21171, 13.00905], [80.21202, 13.00917], [80.21236, 13.00926], [80.21301, 13.0095], [80.21447, 13.0101], [80.2146, 13.01015], [80.21487, 13.01018], [80.21549, 13.01027], [80.21567, 13.01031], [80.21585, 13.01038], [80.21671, 13.01077], [80.21745, 13.01116], [80.21795, 13.01135], [80.21865, 13.01159], [80.21987, 13.012], [80.22075, 13.01228], [80.22119, 13.01241], [80.22128, 13.01246], [80.22162, 13.01251], [80.22175, 13.0126], [80.2224, 13.01314], [80.22313, 13.01375], [80.22316, 13.01379], [80.22317, 13.01387], [80.22367, 13.01429], [80.22424, 13.01475], [80.22462, 13.01504], [80.22506, 13.01538], [80.22523, 13.01546], [80.22534, 13.01548], [80.22543, 13.01547], [80.22571, 13.01537], [80.2258, 13.01529], [80.22595, 13.01511], [80.22641, 13.01392], [80.22672, 13.01307], [80.22699, 13.01237], [80.22751, 13.01108], [80.22792, 13.01013], [80.22827, 13.00934], [80.22847, 13.00926], [80.22872, 13.00918], [80.23094, 13.00871], [80.2331, 13.00831], [80.23326, 13.00833], [80.23342, 13.00831], [80.23347, 13.0083], [80.23373, 13.00821], [80.23378, 13.00817], [80.23459, 13.00801], [80.23506, 13.00792], [80.23726, 13.00747], [80.23792, 13.00732], [80.23798, 13.00733], [80.23806, 13.00733], [80.24021, 13.00692], [80.24127, 13.00677], [80.24207, 13.00674], [80.24282, 13.00672], [80.24294, 13.00669], [80.24419, 13.00671], [80.24642, 13.00676], [80.24674, 13.00677], [80.24798, 13.00677], [80.24835, 13.00676], [80.24837, 13.00688], [80.24889, 13.0069], [80.24943, 13.00692], [80.24946, 13.00692], [80.24982, 13.00691], [80.25002, 13.00683], [80.25087, 13.00684], [80.25131, 13.00682], [80.25239, 13.00661], [80.2529, 13.00659], [80.2532, 13.00658], [80.2536, 13.00656], [80.25502, 13.00663], [80.25576, 13.00666], [80.25707, 13.00669], [80.25745, 13.00677], [80.25748, 13.0065], [80.25755, 13.00639], [80.25742, 13.00591], [80.25725, 13.00511], [80.25711, 13.00447], [80.25706, 13.00435], [80.25679, 13.00279], [80.25661, 13.00189], [80.25653, 13.00123], [80.25644, 13.00074], [80.25648, 13.00092], [80.25644, 13.00074], [80.25636, 13.00021], [80.25625, 12.99947], [80.2562, 12.9993], [80.25607, 12.9985], [80.25595, 12.99779], [80.2559, 12.99702], [80.25588, 12.99633], [80.25593, 12.99583], [80.25592, 12.99536], [80.25597, 12.99427], [80.25609, 12.99319], [80.2561, 12.99287], [80.25609, 12.9916], [80.25603, 12.98979], [80.256, 12.98918], [80.25597, 12.98892], [80.25597, 12.98861], [80.25585, 12.98775], [80.25645, 12.98763], [80.258, 12.98745], [80.25903, 12.98737], [80.25913, 12.98707]]}}]}