{"type": "FeatureCollection", "features": [{"type": "Feature", "properties": {"route_name": "5C", "stop_id": "kzneBolb", "name": "Taramani Bus Terminus", "city": "CHENNAI"}, "geometry": {"type": "Point", "coordinates": [80.24054830475643, 12.985498769336068]}}, {"type": "Feature", "properties": {"route_name": "5C", "stop_id": "xfoaGXVJ", "name": "Ascendas IT Park", "city": "CHENNAI"}, "geometry": {"type": "Point", "coordinates": [80.24651219442944, 12.9863669358029]}}, {"type": "Feature", "properties": {"route_name": "5C", "stop_id": "rSnWVhOw", "name": "Tidel Park", "city": "CHENNAI"}, "geometry": {"type": "Point", "coordinates": [80.25073061004582, 12.9896336475486]}}, {"type": "Feature", "properties": {"route_name": "5C", "stop_id": "CqefHKGq", "name": "Womens Polytechnic College", "city": "CHENNAI"}, "geometry": {"type": "Point", "coordinates": [80.2489356315998, 12.996787491573743]}}, {"type": "Feature", "properties": {"route_name": "5C", "stop_id": "ulSrvocN", "name": "VHS Hospital", "city": "CHENNAI"}, "geometry": {"type": "Point", "coordinates": [80.24733024652346, 13.003579673548149]}}, {"type": "Feature", "properties": {"route_name": "5C", "stop_id": "nYVfIRsk", "name": "Madhya Kailash", "city": "CHENNAI"}, "geometry": {"type": "Point", "coordinates": [80.2461821771177, 13.00651661419635]}}, {"type": "Feature", "properties": {"route_name": "5C", "stop_id": "YGTBEvoR", "name": "B M Birla Planetarium Or CLRI", "city": "CHENNAI"}, "geometry": {"type": "Point", "coordinates": [80.24038650228385, 13.010140719286753]}}, {"type": "Feature", "properties": {"route_name": "5C", "stop_id": "LtGOEkbi", "name": "Kotturpuram", "city": "CHENNAI"}, "geometry": {"type": "Point", "coordinates": [80.24123214743304, 13.018787610697252]}}, {"type": "Feature", "properties": {"route_name": "5C", "stop_id": "MmtauPfr", "name": "Kotturpuram", "city": "CHENNAI"}, "geometry": {"type": "Point", "coordinates": [80.24264463803411, 13.02310387489993]}}, {"type": "Feature", "properties": {"route_name": "5C", "stop_id": "eddhjHaw", "name": "Barathidasan Road", "city": "CHENNAI"}, "geometry": {"type": "Point", "coordinates": [80.25378356908263, 13.035106655234024]}}, {"type": "Feature", "properties": {"route_name": "5C", "stop_id": "xaaBiNQT", "name": "Cit Colony", "city": "CHENNAI"}, "geometry": {"type": "Point", "coordinates": [80.25745708771422, 13.039348159719104]}}, {"type": "Feature", "properties": {"route_name": "5C", "stop_id": "zZjujLYd", "name": "Music Academy", "city": "CHENNAI"}, "geometry": {"type": "Point", "coordinates": [80.26037142448274, 13.046423127555146]}}, {"type": "Feature", "properties": {"route_name": "5C", "stop_id": "JXTJImqP", "name": "Gowdia Mutt", "city": "CHENNAI"}, "geometry": {"type": "Point", "coordinates": [80.2624711696119, 13.050875887052834]}}, {"type": "Feature", "properties": {"route_name": "5C", "stop_id": "rlRRFZPO", "name": "Royapettah Police Station", "city": "CHENNAI"}, "geometry": {"type": "Point", "coordinates": [80.26374885555231, 13.05238860597544]}}, {"type": "Feature", "properties": {"route_name": "5C", "stop_id": "eYoPTdNP", "name": "Royapettah Hospital", "city": "CHENNAI"}, "geometry": {"type": "Point", "coordinates": [80.26414354148699, 13.054358778176564]}}, {"type": "Feature", "properties": {"route_name": "5C", "stop_id": "ZpgoacOO", "name": "Westly School", "city": "CHENNAI"}, "geometry": {"type": "Point", "coordinates": [80.26472775658692, 13.057252695297384]}}, {"type": "Feature", "properties": {"route_name": "5C", "stop_id": "lctVuVOk", "name": "Shanthi Theatre", "city": "CHENNAI"}, "geometry": {"type": "Point", "coordinates": [80.2689268934987, 13.067733478670458]}}, {"type": "Feature", "properties": {"route_name": "5C", "stop_id": "iPNesxKP", "name": "Simson Or Periyar Bridge", "city": "CHENNAI"}, "geometry": {"type": "Point", "coordinates": [80.27400513, 13.07108876]}}, {"type": "Feature", "properties": {"route_name": "5C", "stop_id": "NQaaFyOm", "name": "Pallavan Salai", "city": "CHENNAI"}, "geometry": {"type": "Point", "coordinates": [80.27618439, 13.0754805]}}, {"type": "Feature", "properties": {"route_name": "5C", "stop_id": "gzZgDndk", "name": "MGR Central Station", "city": "CHENNAI"}, "geometry": {"type": "Point", "coordinates": [80.27560345417622, 13.082012529953504]}}, {"type": "Feature", "properties": {"route_name": "5C", "stop_id": "KwaxxmSs", "name": "Nurse Quarters", "city": "CHENNAI"}, "geometry": {"type": "Point", "coordinates": [80.27896059391605, 13.082298318772699]}}, {"type": "Feature", "properties": {"route_name": "5C", "stop_id": "neNWquOh", "name": "Central Dental College", "city": "CHENNAI"}, "geometry": {"type": "Point", "coordinates": [80.28199470667641, 13.08298870082699]}}, {"type": "Feature", "properties": {"route_name": "5C", "stop_id": "QHFmFyLR", "name": "High Court ", "city": "CHENNAI"}, "geometry": {"type": "Point", "coordinates": [80.28344657999999, 13.085009446858479]}}, {"type": "Feature", "properties": {"route_name": "5C", "stop_id": "EkWBPXmr", "name": "Broadway", "city": "CHENNAI"}, "geometry": {"type": "Point", "coordinates": [80.28388983, 13.08820568]}}, {"type": "Feature", "properties": {"name": "5C"}, "geometry": {"type": "LineString", "coordinates": [[80.24064, 12.9854], [80.24094, 12.98569], [80.241, 12.98579], [80.24104, 12.98588], [80.24106, 12.98599], [80.24105, 12.98631], [80.24112, 12.9863], [80.24123, 12.98632], [80.24131, 12.98633], [80.24191, 12.98633], [80.24303, 12.98632], [80.24605, 12.98632], [80.24651, 12.98631], [80.24988, 12.98631], [80.25054, 12.98632], [80.25135, 12.98634], [80.25147, 12.98641], [80.25153, 12.98645], [80.25156, 12.98652], [80.25158, 12.98657], [80.25134, 12.98741], [80.25126, 12.98761], [80.25111, 12.98778], [80.25104, 12.98779], [80.25088, 12.98788], [80.25083, 12.98796], [80.25084, 12.98809], [80.25096, 12.98834], [80.25096, 12.9885], [80.25093, 12.98863], [80.25087, 12.9888], [80.25084, 12.98892], [80.25085, 12.98901], [80.25084, 12.98919], [80.25074, 12.98964], [80.25066, 12.99003], [80.25058, 12.99034], [80.25029, 12.99149], [80.25018, 12.99192], [80.2503, 12.99193], [80.25004, 12.99299], [80.24978, 12.99392], [80.24956, 12.99484], [80.24924, 12.99606], [80.24911, 12.99658], [80.24891, 12.9974], [80.24882, 12.99738], [80.24889, 12.99708], [80.24895, 12.99679], [80.24882, 12.99738], [80.24849, 12.99872], [80.24823, 12.99976], [80.24802, 13.00064], [80.24767, 13.00198], [80.24748, 13.00278], [80.24734, 13.00358], [80.24719, 13.00478], [80.24717, 13.00511], [80.24722, 13.00522], [80.24713, 13.00544], [80.24705, 13.00592], [80.24691, 13.00616], [80.24674, 13.00635], [80.24654, 13.00648], [80.24625, 13.0066], [80.24621, 13.00661], [80.24599, 13.00666], [80.24538, 13.00664], [80.24455, 13.00663], [80.24297, 13.00662], [80.24215, 13.0066], [80.24162, 13.0066], [80.24108, 13.00665], [80.24029, 13.00676], [80.24019, 13.00678], [80.24021, 13.00692], [80.24033, 13.0077], [80.24038, 13.00814], [80.24043, 13.00967], [80.24042, 13.01014], [80.24039, 13.01062], [80.24037, 13.01215], [80.24034, 13.01276], [80.24035, 13.01348], [80.24034, 13.01386], [80.24039, 13.01453], [80.24046, 13.01519], [80.24056, 13.01595], [80.24066, 13.01651], [80.24087, 13.01747], [80.24094, 13.01778], [80.24105, 13.01812], [80.24128, 13.01877], [80.24179, 13.02042], [80.24252, 13.02259], [80.24267, 13.0231], [80.24266, 13.0231], [80.24324, 13.02482], [80.24368, 13.02616], [80.24406, 13.02715], [80.24416, 13.02728], [80.24428, 13.02737], [80.24445, 13.02745], [80.24487, 13.02757], [80.24521, 13.02766], [80.24536, 13.02774], [80.24545, 13.02785], [80.24551, 13.02796], [80.2456, 13.02871], [80.24563, 13.02955], [80.24563, 13.02963], [80.24569, 13.02963], [80.24592, 13.02961], [80.24684, 13.02948], [80.24779, 13.02934], [80.24824, 13.02927], [80.24855, 13.02919], [80.24935, 13.029], [80.24966, 13.0289], [80.24978, 13.02884], [80.24998, 13.02915], [80.25021, 13.02943], [80.25067, 13.03], [80.25134, 13.03092], [80.25174, 13.03152], [80.25245, 13.03246], [80.25328, 13.03353], [80.25353, 13.03389], [80.25425, 13.03482], [80.2544, 13.03504], [80.25406, 13.03512], [80.25379, 13.03515], [80.2535, 13.03516], [80.25359, 13.0362], [80.25362, 13.03669], [80.25378, 13.03669], [80.2556, 13.03674], [80.2567, 13.03827], [80.25749, 13.03932], [80.2575, 13.03932], [80.25763, 13.03951], [80.25794, 13.04011], [80.25838, 13.04086], [80.25884, 13.04169], [80.25914, 13.04222], [80.25934, 13.04262], [80.25944, 13.04301], [80.25949, 13.04327], [80.25954, 13.04373], [80.25968, 13.04483], [80.25979, 13.04545], [80.2598, 13.04552], [80.25991, 13.04563], [80.2604, 13.04641], [80.2606, 13.0467], [80.26095, 13.04723], [80.26123, 13.04756], [80.26161, 13.04819], [80.26177, 13.04856], [80.26197, 13.04907], [80.26219, 13.04978], [80.26227, 13.05022], [80.2623, 13.05038], [80.26244, 13.05069], [80.26251, 13.05081], [80.26253, 13.05085], [80.26268, 13.0511], [80.26324, 13.05175], [80.26371, 13.05231], [80.26377, 13.05235], [80.26378, 13.0524], [80.26383, 13.05286], [80.26388, 13.05333], [80.26392, 13.05355], [80.26397, 13.05382], [80.26409, 13.05411], [80.26416, 13.05435], [80.26439, 13.05538], [80.26453, 13.05647], [80.2646, 13.05677], [80.26467, 13.057], [80.26479, 13.05722], [80.26478, 13.05723], [80.26481, 13.05729], [80.2651, 13.05789], [80.26527, 13.05817], [80.26533, 13.05835], [80.2654, 13.05846], [80.26551, 13.05922], [80.26557, 13.05956], [80.26559, 13.0598], [80.26556, 13.0601], [80.26554, 13.06019], [80.26519, 13.06086], [80.26516, 13.06092], [80.26517, 13.06107], [80.26519, 13.06116], [80.26524, 13.06124], [80.26617, 13.06198], [80.26687, 13.06255], [80.26706, 13.06273], [80.26716, 13.06289], [80.26725, 13.06335], [80.26745, 13.06455], [80.26764, 13.06551], [80.26764, 13.06559], [80.2676, 13.06566], [80.26746, 13.06582], [80.26781, 13.06609], [80.26814, 13.06631], [80.26817, 13.06636], [80.26823, 13.06648], [80.26837, 13.0667], [80.26841, 13.06682], [80.2686, 13.06711], [80.2689, 13.06756], [80.26898, 13.06771], [80.2693, 13.06829], [80.26945, 13.0683], [80.26988, 13.06823], [80.27032, 13.06821], [80.27085, 13.06819], [80.27125, 13.06816], [80.27169, 13.06846], [80.27179, 13.06857], [80.27187, 13.06874], [80.2721, 13.0692], [80.27224, 13.06939], [80.27235, 13.06952], [80.27278, 13.06986], [80.27391, 13.07078], [80.27403, 13.07108], [80.27435, 13.07177], [80.27459, 13.07208], [80.27497, 13.07243], [80.27636, 13.07371], [80.27632, 13.07398], [80.27623, 13.07516], [80.27622, 13.07548], [80.27612, 13.07789], [80.27608, 13.07801], [80.27601, 13.07809], [80.27588, 13.07815], [80.27556, 13.07825], [80.27533, 13.07835], [80.27518, 13.07851], [80.27514, 13.07859], [80.2751, 13.07872], [80.2751, 13.07889], [80.27516, 13.0792], [80.27524, 13.07962], [80.27527, 13.07988], [80.27527, 13.08001], [80.27519, 13.0813], [80.27516, 13.08164], [80.27516, 13.08172], [80.27525, 13.08186], [80.27527, 13.0819], [80.27533, 13.08193], [80.27553, 13.08198], [80.27561, 13.08199], [80.27585, 13.08202], [80.27592, 13.08202], [80.27601, 13.08186], [80.27603, 13.08179], [80.27624, 13.08183], [80.27657, 13.08188], [80.27843, 13.08213], [80.27897, 13.08218], [80.28088, 13.08236], [80.28122, 13.08238], [80.28166, 13.08237], [80.28177, 13.08254], [80.28205, 13.08296], [80.28253, 13.08375], [80.28303, 13.08448], [80.28334, 13.08483], [80.2835, 13.08495], [80.28407, 13.08533], [80.2843, 13.08545], [80.28452, 13.08553], [80.28499, 13.08744], [80.28522, 13.08839], [80.28479, 13.08839], [80.28416, 13.08837], [80.28388, 13.08836]]}}]}