{"type": "FeatureCollection", "features": [{"type": "Feature", "properties": {"route_name": "114D", "stop_id": "BpAiVnps", "name": "CMBT Koyembedu Bus Depot", "city": "CHENNAI"}, "geometry": {"type": "Point", "coordinates": [80.20518932458458, 13.068981607807045]}}, {"type": "Feature", "properties": {"route_name": "114D", "stop_id": "RVGhYAxc", "name": "Koyambedu Chathiram", "city": "CHENNAI"}, "geometry": {"type": "Point", "coordinates": [80.19986513405274, 13.074022468293892]}}, {"type": "Feature", "properties": {"route_name": "114D", "stop_id": "tDDddUJb", "name": "CPWD Quarters", "city": "CHENNAI"}, "geometry": {"type": "Point", "coordinates": [80.19837966049488, 13.082223517801985]}}, {"type": "Feature", "properties": {"route_name": "114D", "stop_id": "lmZJehpq", "name": "Thirumangalam", "city": "CHENNAI"}, "geometry": {"type": "Point", "coordinates": [80.19845386988084, 13.090937421165162]}}, {"type": "Feature", "properties": {"route_name": "114D", "stop_id": "EmkugZPX", "name": "Anna Nagar West Depot", "city": "CHENNAI"}, "geometry": {"type": "Point", "coordinates": [80.1984805710307, 13.093776863124802]}}, {"type": "Feature", "properties": {"route_name": "114D", "stop_id": "xTOrUJFO", "name": "Kovarthanagiri", "city": "CHENNAI"}, "geometry": {"type": "Point", "coordinates": [80.19695999999999, 13.098490776245674]}}, {"type": "Feature", "properties": {"route_name": "114D", "stop_id": "KjgVoxgR", "name": "Wheels India Road Junction", "city": "CHENNAI"}, "geometry": {"type": "Point", "coordinates": [80.19431607624301, 13.101426887338741]}}, {"type": "Feature", "properties": {"route_name": "114D", "stop_id": "HFYkXdPG", "name": "Agrakaram", "city": "CHENNAI"}, "geometry": {"type": "Point", "coordinates": [80.19847503158019, 13.119017937025482]}}, {"type": "Feature", "properties": {"route_name": "114D", "stop_id": "TvGyfQSI", "name": "Senthil Nagar", "city": "CHENNAI"}, "geometry": {"type": "Point", "coordinates": [80.20203456394643, 13.12364430854919]}}, {"type": "Feature", "properties": {"route_name": "114D", "stop_id": "NGAodVTg", "name": "Ambedkar Nagar", "city": "CHENNAI"}, "geometry": {"type": "Point", "coordinates": [80.20702228039602, 13.12643119141678]}}, {"type": "Feature", "properties": {"route_name": "114D", "stop_id": "mXwfazRz", "name": "Retteri Junction", "city": "CHENNAI"}, "geometry": {"type": "Point", "coordinates": [80.21316637742791, 13.129989359538518]}}, {"type": "Feature", "properties": {"route_name": "114D", "stop_id": "fJdABIlw", "name": "RTO Or Kolathur Shastri Nagar", "city": "CHENNAI"}, "geometry": {"type": "Point", "coordinates": [80.21634011439858, 13.136140683154789]}}, {"type": "Feature", "properties": {"route_name": "114D", "stop_id": "oUmVLfUX", "name": "Madhavaram Bypass", "city": "CHENNAI"}, "geometry": {"type": "Point", "coordinates": [80.2184871321432, 13.141271690381386]}}, {"type": "Feature", "properties": {"route_name": "114D", "stop_id": "pzcCDVmZ", "name": "Madhavaram Rountana", "city": "CHENNAI"}, "geometry": {"type": "Point", "coordinates": [80.21932189565132, 13.145031360715578]}}, {"type": "Feature", "properties": {"route_name": "114D", "stop_id": "TCBUGaZf", "name": "Kathirvedu Bypass", "city": "CHENNAI"}, "geometry": {"type": "Point", "coordinates": [80.20824812807405, 13.15314502790998]}}, {"type": "Feature", "properties": {"route_name": "114D", "stop_id": "BlnSxBAr", "name": "Puzhal Camp", "city": "CHENNAI"}, "geometry": {"type": "Point", "coordinates": [80.20369329197862, 13.158264608508265]}}, {"type": "Feature", "properties": {"route_name": "114D", "stop_id": "KcvPUxQg", "name": "Puzhal Jail", "city": "CHENNAI"}, "geometry": {"type": "Point", "coordinates": [80.20231012198508, 13.164298644421198]}}, {"type": "Feature", "properties": {"route_name": "114D", "stop_id": "ePrpofUw", "name": "Kavangarai", "city": "CHENNAI"}, "geometry": {"type": "Point", "coordinates": [80.19922652488333, 13.17045830880621]}}, {"type": "Feature", "properties": {"route_name": "114D", "stop_id": "VCQdmIoF", "name": "Thandal Kazhani", "city": "CHENNAI"}, "geometry": {"type": "Point", "coordinates": [80.19615803010544, 13.176000864407136]}}, {"type": "Feature", "properties": {"route_name": "114D", "stop_id": "NFInfBeu", "name": "Sri Nallaghu Polytechnic College", "city": "CHENNAI"}, "geometry": {"type": "Point", "coordinates": [80.19478615461617, 13.17837926129572]}}, {"type": "Feature", "properties": {"route_name": "114D", "stop_id": "kKKRBhFF", "name": "Ayurveda Ashramam", "city": "CHENNAI"}, "geometry": {"type": "Point", "coordinates": [80.19141192703125, 13.184649591138788]}}, {"type": "Feature", "properties": {"route_name": "114D", "stop_id": "WdOwNGhj", "name": "Redhills Market", "city": "CHENNAI"}, "geometry": {"type": "Point", "coordinates": [80.18765184553399, 13.18925264696911]}}, {"type": "Feature", "properties": {"route_name": "114D", "stop_id": "xfbmoJHP", "name": "Redhills Bus Terminus", "city": "CHENNAI"}, "geometry": {"type": "Point", "coordinates": [80.18435172804377, 13.192823904116457]}}, {"type": "Feature", "properties": {"route_name": "114D", "stop_id": "NCSBLEus", "name": "Mondiyaman Nagar", "city": "CHENNAI"}, "geometry": {"type": "Point", "coordinates": [80.17901412594404, 13.198778307964428]}}, {"type": "Feature", "properties": {"route_name": "114D", "stop_id": "AJLJQqsT", "name": "Padianallur", "city": "CHENNAI"}, "geometry": {"type": "Point", "coordinates": [80.17473004885483, 13.204504536655083]}}, {"type": "Feature", "properties": {"route_name": "114D", "stop_id": "zqZasXpA", "name": "Redhills RTO Office", "city": "CHENNAI"}, "geometry": {"type": "Point", "coordinates": [80.17008864408778, 13.21460399271362]}}, {"type": "Feature", "properties": {"route_name": "114D", "stop_id": "AUrIxxcC", "name": "Semilivaram Or Nallur Toll Plaza", "city": "CHENNAI"}, "geometry": {"type": "Point", "coordinates": [80.16907050148939, 13.217271625606102]}}, {"type": "Feature", "properties": {"route_name": "114D", "stop_id": "illGQStO", "name": "Vijaya Nallur", "city": "CHENNAI"}, "geometry": {"type": "Point", "coordinates": [80.16753244267011, 13.221330232863748]}}, {"type": "Feature", "properties": {"route_name": "114D", "stop_id": "yTictHOU", "name": "Sengalamman Koil Or Sholavaram 4", "city": "CHENNAI"}, "geometry": {"type": "Point", "coordinates": [80.16460517831138, 13.229697217913404]}}, {"type": "Feature", "properties": {"route_name": "114D", "stop_id": "UVDfwOgc", "name": "Sholavaram High School Or BDO Office", "city": "CHENNAI"}, "geometry": {"type": "Point", "coordinates": [80.15962456480474, 13.242802346903405]}}, {"type": "Feature", "properties": {"route_name": "114D", "stop_id": "rxrORjnb", "name": "Karanodai", "city": "CHENNAI"}, "geometry": {"type": "Point", "coordinates": [80.15753891866461, 13.246990251356396]}}, {"type": "Feature", "properties": {"route_name": "114D", "stop_id": "xunvufHj", "name": "Don Bosco Matriculation School Karanodai", "city": "CHENNAI"}, "geometry": {"type": "Point", "coordinates": [80.15531185640748, 13.252917300155165]}}, {"type": "Feature", "properties": {"route_name": "114D", "stop_id": "nJRQzVZQ", "name": "Janapanchatram Koot Road Junction", "city": "CHENNAI"}, "geometry": {"type": "Point", "coordinates": [80.15486977608202, 13.262029986300082]}}, {"type": "Feature", "properties": {"route_name": "114D", "stop_id": "vkWqgNph", "name": "Alinjivakkam", "city": "CHENNAI"}, "geometry": {"type": "Point", "coordinates": [80.15310641398924, 13.268324337818777]}}, {"type": "Feature", "properties": {"route_name": "114D", "stop_id": "EonJeQKz", "name": "Athipedu", "city": "CHENNAI"}, "geometry": {"type": "Point", "coordinates": [80.15105700907407, 13.274533527856164]}}, {"type": "Feature", "properties": {"route_name": "114D", "stop_id": "eymgjBxV", "name": "Panchetti", "city": "CHENNAI"}, "geometry": {"type": "Point", "coordinates": [80.14878290192974, 13.28648231519846]}}, {"type": "Feature", "properties": {"route_name": "114D", "stop_id": "qqDoWQdv", "name": "Thachur Koot Road Junction", "city": "CHENNAI"}, "geometry": {"type": "Point", "coordinates": [80.14756970518795, 13.296605965000186]}}, {"type": "Feature", "properties": {"route_name": "114D", "stop_id": "spmlaYUs", "name": "Peravallur", "city": "CHENNAI"}, "geometry": {"type": "Point", "coordinates": [80.14561342659681, 13.314626584331808]}}, {"type": "Feature", "properties": {"route_name": "114D", "stop_id": "qIuTLVvj", "name": "Puduvoyal Road Or New Road", "city": "CHENNAI"}, "geometry": {"type": "Point", "coordinates": [80.14506559312258, 13.319586174322783]}}, {"type": "Feature", "properties": {"route_name": "114D", "stop_id": "NALyFlzQ", "name": "Durainallur Or Chinnambedu", "city": "CHENNAI"}, "geometry": {"type": "Point", "coordinates": [80.13285352187643, 13.320567242087488]}}, {"type": "Feature", "properties": {"route_name": "114D", "stop_id": "RobpRsZS", "name": "Siruvapuri Temple", "city": "CHENNAI"}, "geometry": {"type": "Point", "coordinates": [80.12003382468436, 13.32090826255479]}}, {"type": "Feature", "properties": {"route_name": "114D", "stop_id": "ABXRUWWW", "name": "Ayyanar Medu", "city": "CHENNAI"}, "geometry": {"type": "Point", "coordinates": [80.11899247652082, 13.323196834273425]}}, {"type": "Feature", "properties": {"route_name": "114D", "stop_id": "eYRPTRrW", "name": "Agaram", "city": "CHENNAI"}, "geometry": {"type": "Point", "coordinates": [80.11203099612908, 13.334237381883867]}}, {"type": "Feature", "properties": {"route_name": "114D", "stop_id": "ttlZXoMn", "name": "Chinnambedu Lake", "city": "CHENNAI"}, "geometry": {"type": "Point", "coordinates": [80.10352641109102, 13.33461355735883]}}, {"type": "Feature", "properties": {"route_name": "114D", "stop_id": "aHGuzSTo", "name": "Palavakkam", "city": "CHENNAI"}, "geometry": {"type": "Point", "coordinates": [80.09646265306708, 13.333421343419692]}}, {"type": "Feature", "properties": {"route_name": "114D", "stop_id": "KAhfQHTl", "name": "Arani", "city": "CHENNAI"}, "geometry": {"type": "Point", "coordinates": [80.08470484120994, 13.33048683677961]}}, {"type": "Feature", "properties": {"name": "114D"}, "geometry": {"type": "LineString", "coordinates": [[80.20516, 13.06892], [80.20476, 13.06912], [80.20477, 13.06941], [80.2048, 13.0696], [80.20489, 13.06979], [80.20477, 13.06987], [80.20455, 13.07003], [80.20434, 13.07019], [80.20408, 13.07038], [80.20367, 13.07069], [80.20342, 13.07093], [80.2028, 13.07145], [80.2016, 13.0725], [80.19988, 13.07404], [80.19991, 13.07407], [80.19988, 13.07404], [80.1997, 13.07421], [80.19944, 13.07446], [80.19929, 13.07466], [80.1992, 13.07481], [80.19908, 13.07516], [80.19906, 13.07532], [80.19902, 13.07543], [80.19905, 13.07592], [80.19902, 13.07646], [80.19893, 13.07739], [80.19851, 13.08055], [80.19848, 13.08103], [80.19848, 13.08151], [80.1985, 13.08221], [80.1985, 13.08397], [80.19849, 13.08485], [80.19847, 13.08563], [80.1985, 13.08743], [80.19855, 13.08958], [80.19858, 13.09024], [80.19857, 13.09038], [80.19854, 13.09048], [80.19855, 13.09094], [80.19854, 13.09378], [80.19855, 13.09491], [80.19855, 13.09705], [80.19852, 13.09733], [80.19843, 13.09758], [80.1983, 13.09784], [80.19808, 13.09808], [80.19789, 13.09824], [80.19776, 13.09832], [80.1975, 13.09841], [80.19711, 13.0985], [80.19698, 13.09854], [80.19635, 13.09874], [80.19596, 13.0989], [80.19561, 13.0991], [80.19534, 13.09932], [80.19514, 13.09952], [80.19489, 13.09984], [80.19475, 13.10005], [80.19456, 13.10044], [80.19446, 13.10073], [80.19437, 13.10115], [80.19434, 13.10143], [80.1943, 13.10197], [80.19439, 13.10291], [80.19443, 13.10361], [80.19457, 13.10548], [80.19464, 13.10581], [80.19471, 13.10603], [80.19506, 13.10682], [80.19539, 13.1074], [80.1959, 13.10829], [80.19657, 13.10957], [80.19681, 13.11019], [80.19691, 13.11078], [80.19707, 13.11213], [80.19738, 13.11451], [80.19769, 13.117], [80.19782, 13.11751], [80.19802, 13.11805], [80.19834, 13.11874], [80.1985, 13.11901], [80.19914, 13.12003], [80.19922, 13.12018], [80.19969, 13.12116], [80.20004, 13.12179], [80.20017, 13.12199], [80.20039, 13.12226], [80.20065, 13.12255], [80.20071, 13.12261], [80.20062, 13.12271], [80.20103, 13.12302], [80.2015, 13.12332], [80.20204, 13.12364], [80.20208, 13.12356], [80.20299, 13.12407], [80.20437, 13.12485], [80.20577, 13.1256], [80.20709, 13.12636], [80.20858, 13.12717], [80.21022, 13.12822], [80.21111, 13.12881], [80.21192, 13.12926], [80.21264, 13.12966], [80.21317, 13.12999], [80.21362, 13.13029], [80.21421, 13.13116], [80.2145, 13.13204], [80.21491, 13.13295], [80.21543, 13.134], [80.21572, 13.13438], [80.21642, 13.13612], [80.21646, 13.13613], [80.21701, 13.13738], [80.21753, 13.13858], [80.21827, 13.14029], [80.21859, 13.14128], [80.21859, 13.14123], [80.21968, 13.1439], [80.21973, 13.14415], [80.21972, 13.14423], [80.21969, 13.14432], [80.21964, 13.14443], [80.21963, 13.14449], [80.21954, 13.1447], [80.21938, 13.14501], [80.21934, 13.14505], [80.2181, 13.14593], [80.21532, 13.14795], [80.21444, 13.14859], [80.2132, 13.14952], [80.21123, 13.15102], [80.20981, 13.1521], [80.20965, 13.15221], [80.20961, 13.1522], [80.20953, 13.15224], [80.20917, 13.15245], [80.209, 13.15259], [80.20888, 13.15269], [80.20832, 13.15312], [80.20826, 13.15316], [80.20687, 13.15421], [80.20597, 13.15496], [80.20549, 13.15543], [80.20497, 13.156], [80.20506, 13.15606], [80.20491, 13.15623], [80.20475, 13.15641], [80.20456, 13.15668], [80.20434, 13.15702], [80.20412, 13.15742], [80.20399, 13.15767], [80.20371, 13.15827], [80.20361, 13.15852], [80.20334, 13.15943], [80.20288, 13.16199], [80.20267, 13.16308], [80.20233, 13.1643], [80.20197, 13.16551], [80.20184, 13.16583], [80.20154, 13.16648], [80.20074, 13.16791], [80.2003, 13.16873], [80.20016, 13.16867], [80.19995, 13.16911], [80.19939, 13.17016], [80.19924, 13.17046], [80.19901, 13.17087], [80.19861, 13.17161], [80.198, 13.17268], [80.19734, 13.17387], [80.1968, 13.17481], [80.19635, 13.17568], [80.19617, 13.17601], [80.19532, 13.17743], [80.19487, 13.17829], [80.19481, 13.17839], [80.19432, 13.17924], [80.1933, 13.18105], [80.19256, 13.18237], [80.19231, 13.18287], [80.19194, 13.18368], [80.19181, 13.18396], [80.1918, 13.18415], [80.19174, 13.18417], [80.19169, 13.1842], [80.19165, 13.18427], [80.19143, 13.18466], [80.1911, 13.18514], [80.19086, 13.18547], [80.19069, 13.18565], [80.19029, 13.18601], [80.19016, 13.18613], [80.19005, 13.18625], [80.1898, 13.18675], [80.18955, 13.18736], [80.18946, 13.1875], [80.18918, 13.18778], [80.1891, 13.1879], [80.18901, 13.18796], [80.18848, 13.18843], [80.18818, 13.18874], [80.18796, 13.18899], [80.1879, 13.18902], [80.18766, 13.18927], [80.18599, 13.19114], [80.18445, 13.19277], [80.18414, 13.19313], [80.18387, 13.19341], [80.18365, 13.19369], [80.18324, 13.19411], [80.18286, 13.19453], [80.18249, 13.19493], [80.18142, 13.19609], [80.18113, 13.19642], [80.18112, 13.19642], [80.18111, 13.19642], [80.1811, 13.19643], [80.18108, 13.19644], [80.18107, 13.19647], [80.18107, 13.19649], [80.18089, 13.1967], [80.18008, 13.19746], [80.17973, 13.19787], [80.17904, 13.1988], [80.17559, 13.20338], [80.17474, 13.20451], [80.17475, 13.20452], [80.1748, 13.20444], [80.17485, 13.20449], [80.17454, 13.20497], [80.17352, 13.20656], [80.17313, 13.20724], [80.17275, 13.20798], [80.17251, 13.20846], [80.17213, 13.2093], [80.17109, 13.21202], [80.17076, 13.2129], [80.17045, 13.21377], [80.17012, 13.21462], [80.16954, 13.21608], [80.1691, 13.21726], [80.16835, 13.21946], [80.16818, 13.21989], [80.16789, 13.22047], [80.16769, 13.2209], [80.16755, 13.22133], [80.16695, 13.22295], [80.16705, 13.223], [80.16676, 13.2238], [80.16646, 13.22458], [80.16629, 13.22495], [80.16594, 13.22559], [80.1655, 13.22618], [80.16533, 13.22638], [80.16499, 13.22671], [80.1652, 13.22689], [80.16536, 13.22692], [80.16549, 13.22698], [80.16556, 13.22704], [80.16559, 13.22719], [80.16553, 13.22747], [80.16527, 13.22819], [80.16465, 13.22972], [80.16367, 13.23215], [80.16292, 13.23396], [80.16216, 13.23579], [80.16151, 13.23738], [80.16132, 13.23797], [80.16108, 13.23877], [80.16088, 13.23945], [80.16072, 13.24004], [80.16054, 13.2406], [80.16004, 13.24194], [80.15967, 13.24282], [80.15966, 13.24284], [80.15907, 13.24419], [80.15788, 13.24638], [80.15756, 13.247], [80.15638, 13.24933], [80.15579, 13.25052], [80.1555, 13.25134], [80.15538, 13.25234], [80.15534, 13.25292], [80.15531, 13.25345], [80.15528, 13.25359], [80.15524, 13.25371], [80.15498, 13.25402], [80.15484, 13.25412], [80.15494, 13.2544], [80.155, 13.25471], [80.15502, 13.25526], [80.15511, 13.25579], [80.15521, 13.25686], [80.1553, 13.25778], [80.15537, 13.25847], [80.15548, 13.25959], [80.15546, 13.25996], [80.15541, 13.26024], [80.15494, 13.26175], [80.15489, 13.26203], [80.15485, 13.26231], [80.15473, 13.26279], [80.15435, 13.26414], [80.15394, 13.26554], [80.15358, 13.2669], [80.15332, 13.2678], [80.15316, 13.26834], [80.15263, 13.27013], [80.15215, 13.27154], [80.15194, 13.27217], [80.1517, 13.27278], [80.15109, 13.27454], [80.15039, 13.27648], [80.15021, 13.2771], [80.15016, 13.27737], [80.14981, 13.27972], [80.1496, 13.28116], [80.14885, 13.28649], [80.14883, 13.28668], [80.14874, 13.28672], [80.14867, 13.28689], [80.14846, 13.28885], [80.14816, 13.29153], [80.14774, 13.29534], [80.1476, 13.29661], [80.14749, 13.29722], [80.14729, 13.2993], [80.14708, 13.30129], [80.1467, 13.30456], [80.1468, 13.30457], [80.14668, 13.306], [80.14651, 13.30747], [80.14624, 13.30998], [80.146, 13.31213], [80.14589, 13.31319], [80.14579, 13.31313], [80.14563, 13.31463], [80.14525, 13.31816], [80.14508, 13.31959], [80.14505, 13.31984], [80.14474, 13.31983], [80.14322, 13.31989], [80.14204, 13.31996], [80.14152, 13.32004], [80.14122, 13.32005], [80.13991, 13.31997], [80.1395, 13.31995], [80.13914, 13.31996], [80.13865, 13.31999], [80.13807, 13.31997], [80.13759, 13.31995], [80.13735, 13.31995], [80.13686, 13.32009], [80.13605, 13.32022], [80.13537, 13.32028], [80.13418, 13.32045], [80.1333, 13.32057], [80.13285, 13.32057], [80.13221, 13.32052], [80.13158, 13.32037], [80.13136, 13.32035], [80.13103, 13.32036], [80.13053, 13.3203], [80.13, 13.3203], [80.12975, 13.32027], [80.12961, 13.32029], [80.12946, 13.32036], [80.1293, 13.32047], [80.129, 13.32061], [80.12885, 13.32064], [80.12863, 13.32064], [80.12825, 13.32058], [80.12772, 13.32054], [80.12707, 13.32054], [80.12637, 13.3204], [80.12627, 13.32039], [80.12604, 13.3204], [80.12566, 13.32046], [80.12528, 13.32057], [80.12513, 13.32061], [80.12499, 13.32061], [80.12485, 13.32059], [80.12445, 13.32046], [80.12399, 13.3203], [80.12385, 13.32021], [80.12363, 13.32001], [80.12339, 13.31986], [80.12317, 13.31979], [80.12287, 13.31976], [80.12261, 13.31981], [80.12229, 13.32002], [80.12197, 13.32006], [80.12178, 13.32007], [80.12146, 13.32012], [80.12141, 13.32014], [80.12142, 13.32022], [80.12144, 13.32035], [80.12145, 13.32043], [80.12143, 13.32048], [80.1214, 13.3205], [80.12133, 13.32051], [80.12096, 13.32053], [80.12064, 13.32052], [80.1205, 13.3205], [80.12041, 13.32053], [80.12034, 13.32059], [80.12021, 13.32075], [80.12011, 13.32094], [80.12005, 13.32103], [80.11999, 13.32108], [80.11952, 13.3212], [80.11944, 13.32124], [80.11933, 13.3215], [80.11921, 13.32176], [80.11917, 13.32191], [80.11914, 13.3223], [80.1191, 13.32292], [80.11905, 13.32321], [80.11903, 13.32328], [80.11893, 13.32345], [80.11853, 13.32383], [80.11837, 13.32405], [80.11825, 13.32425], [80.11806, 13.32449], [80.11797, 13.32454], [80.11784, 13.32456], [80.11713, 13.32445], [80.1169, 13.32443], [80.11682, 13.32444], [80.1165, 13.3245], [80.11617, 13.32451], [80.11582, 13.32449], [80.11561, 13.32452], [80.11531, 13.32467], [80.11511, 13.32484], [80.1149, 13.32507], [80.11478, 13.32524], [80.11457, 13.3256], [80.11449, 13.32582], [80.11441, 13.32616], [80.11422, 13.32692], [80.11422, 13.32706], [80.11425, 13.32716], [80.11435, 13.32735], [80.11439, 13.32748], [80.11437, 13.32767], [80.11429, 13.32789], [80.11416, 13.32833], [80.11388, 13.32877], [80.11326, 13.32993], [80.11309, 13.33032], [80.11302, 13.3306], [80.11289, 13.3311], [80.11277, 13.33169], [80.11257, 13.33248], [80.11245, 13.33286], [80.11228, 13.33331], [80.11218, 13.33356], [80.11211, 13.334], [80.11209, 13.33424], [80.11205, 13.33471], [80.11131, 13.33467], [80.10957, 13.33459], [80.10766, 13.33453], [80.10567, 13.33457], [80.10353, 13.33463], [80.10283, 13.33462], [80.10218, 13.33456], [80.10171, 13.3345], [80.10097, 13.33435], [80.09935, 13.33402], [80.09646, 13.33345], [80.09549, 13.33328], [80.09303, 13.33278], [80.09192, 13.33256], [80.08915, 13.33194], [80.08833, 13.33176], [80.08804, 13.33167], [80.08783, 13.33156], [80.08682, 13.33097], [80.08621, 13.3306], [80.08611, 13.33057], [80.0859, 13.33056], [80.08547, 13.33051], [80.08499, 13.33051], [80.08471, 13.33051]]}}]}