{"type": "FeatureCollection", "features": [{"type": "Feature", "properties": {"route_name": "91V", "stop_id": "YvwuVYMF", "name": "Guduvancheri Bus Terminus", "city": "CHENNAI"}, "geometry": {"type": "Point", "coordinates": [80.06156057583712, 12.845099416050214]}}, {"type": "Feature", "properties": {"route_name": "91V", "stop_id": "FjwhCXAK", "name": "Guduvancheri EB Office", "city": "CHENNAI"}, "geometry": {"type": "Point", "coordinates": [80.06558996746355, 12.851403231827987]}}, {"type": "Feature", "properties": {"route_name": "91V", "stop_id": "XsKXZwOQ", "name": "Urapakkam Or Ananthavalli School", "city": "CHENNAI"}, "geometry": {"type": "Point", "coordinates": [80.07325294731947, 12.86211786473156]}}, {"type": "Feature", "properties": {"route_name": "91V", "stop_id": "TAPXcjBe", "name": "Urappakam", "city": "CHENNAI"}, "geometry": {"type": "Point", "coordinates": [80.07557993931857, 12.868076925681574]}}, {"type": "Feature", "properties": {"route_name": "91V", "stop_id": "CbcrfuAf", "name": "Vandalur Zoo", "city": "CHENNAI"}, "geometry": {"type": "Point", "coordinates": [80.08058627698756, 12.88094584155778]}}, {"type": "Feature", "properties": {"route_name": "91V", "stop_id": "gGkadTNm", "name": "Vandalur Gate", "city": "CHENNAI"}, "geometry": {"type": "Point", "coordinates": [80.0861980335012, 12.89323631083488]}}, {"type": "Feature", "properties": {"route_name": "91V", "stop_id": "RyPegcUV", "name": "Iraniyamman Koil", "city": "CHENNAI"}, "geometry": {"type": "Point", "coordinates": [80.08932019596341, 12.897432906791021]}}, {"type": "Feature", "properties": {"route_name": "91V", "stop_id": "qPtpgxic", "name": "Perungalattur", "city": "CHENNAI"}, "geometry": {"type": "Point", "coordinates": [80.09617808374855, 12.906468063975968]}}, {"type": "Feature", "properties": {"route_name": "91V", "stop_id": "KzCxlBoL", "name": "Perungalatgur Lake View Stop", "city": "CHENNAI"}, "geometry": {"type": "Point", "coordinates": [80.09829410933969, 12.909055141933235]}}, {"type": "Feature", "properties": {"route_name": "91V", "stop_id": "SEVBrkvc", "name": "Irumbuliyur", "city": "CHENNAI"}, "geometry": {"type": "Point", "coordinates": [80.1058340174651, 12.916500866623101]}}, {"type": "Feature", "properties": {"route_name": "91V", "stop_id": "RTafItqF", "name": "MR Theatre", "city": "CHENNAI"}, "geometry": {"type": "Point", "coordinates": [80.11544138339764, 12.92464802406884]}}, {"type": "Feature", "properties": {"route_name": "91V", "stop_id": "ojqTFFWy", "name": "Tambaram West Bus Stand", "city": "CHENNAI"}, "geometry": {"type": "Point", "coordinates": [80.11862628452741, 12.927652178598898]}}, {"type": "Feature", "properties": {"route_name": "91V", "stop_id": "zjKsBdNQ", "name": "Kadaperi", "city": "CHENNAI"}, "geometry": {"type": "Point", "coordinates": [80.12406423758796, 12.933095319064629]}}, {"type": "Feature", "properties": {"route_name": "91V", "stop_id": "puwcRgFs", "name": "Tambaram Sanatorium Bus Stand", "city": "CHENNAI"}, "geometry": {"type": "Point", "coordinates": [80.12748203125693, 12.937217648869067]}}, {"type": "Feature", "properties": {"route_name": "91V", "stop_id": "vyojaKRU", "name": "TB Hospital", "city": "CHENNAI"}, "geometry": {"type": "Point", "coordinates": [80.13450000658327, 12.944099170682174]}}, {"type": "Feature", "properties": {"route_name": "91V", "stop_id": "fzSWURzx", "name": "MIT Gate", "city": "CHENNAI"}, "geometry": {"type": "Point", "coordinates": [80.1374050176471, 12.947988238425095]}}, {"type": "Feature", "properties": {"route_name": "91V", "stop_id": "XiXLaJEL", "name": "Chromepet", "city": "CHENNAI"}, "geometry": {"type": "Point", "coordinates": [80.14007744716844, 12.95149481497275]}}, {"type": "Feature", "properties": {"route_name": "91V", "stop_id": "OyAyNkqZ", "name": "Saravana Store Chromepet", "city": "CHENNAI"}, "geometry": {"type": "Point", "coordinates": [80.14328253738302, 12.956911513898792]}}, {"type": "Feature", "properties": {"route_name": "91V", "stop_id": "SapgsLPr", "name": "Pallavaram New Bridge", "city": "CHENNAI"}, "geometry": {"type": "Point", "coordinates": [80.15034651322378, 12.958679855376774]}}, {"type": "Feature", "properties": {"route_name": "91V", "stop_id": "JPWycazw", "name": "Ganapathy Nagar", "city": "CHENNAI"}, "geometry": {"type": "Point", "coordinates": [80.15378461370764, 12.955670143952261]}}, {"type": "Feature", "properties": {"route_name": "91V", "stop_id": "wHHoYczm", "name": "Vels University", "city": "CHENNAI"}, "geometry": {"type": "Point", "coordinates": [80.15935878819391, 12.95450864037494]}}, {"type": "Feature", "properties": {"route_name": "91V", "stop_id": "wbJSAzcX", "name": "Pallava Garden Bus Stop or DJ Met School", "city": "CHENNAI"}, "geometry": {"type": "Point", "coordinates": [80.1714844152873, 12.951901317027213]}}, {"type": "Feature", "properties": {"route_name": "91V", "stop_id": "NNeqXfIi", "name": "Perumal Nagar", "city": "CHENNAI"}, "geometry": {"type": "Point", "coordinates": [80.1741832542375, 12.951420070899044]}}, {"type": "Feature", "properties": {"route_name": "91V", "stop_id": "FoqpqGcp", "name": "Eachangadu Junction", "city": "CHENNAI"}, "geometry": {"type": "Point", "coordinates": [80.18392044748953, 12.949354961716137]}}, {"type": "Feature", "properties": {"route_name": "91V", "stop_id": "QhiYKyAt", "name": "Sunnambu Kolathur", "city": "CHENNAI"}, "geometry": {"type": "Point", "coordinates": [80.19523072351524, 12.948686109529122]}}, {"type": "Feature", "properties": {"route_name": "91V", "stop_id": "ezYUwAMR", "name": "Puliyamaram Sunnambu Kolathur", "city": "CHENNAI"}, "geometry": {"type": "Point", "coordinates": [80.19920110796932, 12.948663791741216]}}, {"type": "Feature", "properties": {"route_name": "91V", "stop_id": "TvsHOuao", "name": "Sri Nagar", "city": "CHENNAI"}, "geometry": {"type": "Point", "coordinates": [80.20326653097698, 12.94876144403044]}}, {"type": "Feature", "properties": {"route_name": "91V", "stop_id": "EzNIKkYA", "name": "Kamatchi Hospital", "city": "CHENNAI"}, "geometry": {"type": "Point", "coordinates": [80.20970568267535, 12.948699239198694]}}, {"type": "Feature", "properties": {"route_name": "91V", "stop_id": "BTtHvEzM", "name": "Thoraipakkam Check Post 230 K V Tower", "city": "CHENNAI"}, "geometry": {"type": "Point", "coordinates": [80.22121476220241, 12.949479391919674]}}, {"type": "Feature", "properties": {"route_name": "91V", "stop_id": "wMslsCeS", "name": "Chennai One IT SEZ", "city": "CHENNAI"}, "geometry": {"type": "Point", "coordinates": [80.23286035276126, 12.950127434596833]}}, {"type": "Feature", "properties": {"route_name": "91V", "stop_id": "FaHpkwNs", "name": "Seevaram", "city": "CHENNAI"}, "geometry": {"type": "Point", "coordinates": [80.24123143189831, 12.951040325394723]}}, {"type": "Feature", "properties": {"route_name": "91V", "stop_id": "DpeufCiu", "name": "Perungudi", "city": "CHENNAI"}, "geometry": {"type": "Point", "coordinates": [80.24428318538433, 12.958837152218576]}}, {"type": "Feature", "properties": {"route_name": "91V", "stop_id": "SGVPbDEb", "name": "Kandanchavadi", "city": "CHENNAI"}, "geometry": {"type": "Point", "coordinates": [80.24782736363784, 12.96693486906636]}}, {"type": "Feature", "properties": {"route_name": "91V", "stop_id": "MtINPaKl", "name": "I G P", "city": "CHENNAI"}, "geometry": {"type": "Point", "coordinates": [80.25036841247538, 12.974300093869873]}}, {"type": "Feature", "properties": {"route_name": "91V", "stop_id": "RuAJZyMI", "name": "SRP Tools", "city": "CHENNAI"}, "geometry": {"type": "Point", "coordinates": [80.25223488499046, 12.978552510802254]}}, {"type": "Feature", "properties": {"route_name": "91V", "stop_id": "WRVBvtIE", "name": "Tidel Park", "city": "CHENNAI"}, "geometry": {"type": "Point", "coordinates": [80.25237359661696, 12.988092020112994]}}, {"type": "Feature", "properties": {"route_name": "91V", "stop_id": "aWeSqqrV", "name": "Jayanthi Theatre", "city": "CHENNAI"}, "geometry": {"type": "Point", "coordinates": [80.25624227705453, 12.987714488977852]}}, {"type": "Feature", "properties": {"route_name": "91V", "stop_id": "gyQqEnFq", "name": "Thiruvanmiyur Depot", "city": "CHENNAI"}, "geometry": {"type": "Point", "coordinates": [80.2592892551454, 12.98684992620367]}}, {"type": "Feature", "properties": {"name": "91V"}, "geometry": {"type": "LineString", "coordinates": [[80.06164, 12.84515], [80.06148, 12.8454], [80.06147, 12.84538], [80.06084, 12.84474], [80.06058, 12.84449], [80.05979, 12.84383], [80.05964, 12.84398], [80.06035, 12.84463], [80.06132, 12.8456], [80.06191, 12.84627], [80.06284, 12.84749], [80.06371, 12.84866], [80.06461, 12.84991], [80.06565, 12.85136], [80.06665, 12.85282], [80.06824, 12.85493], [80.06999, 12.85724], [80.07073, 12.85815], [80.07155, 12.85923], [80.07158, 12.85939], [80.07203, 12.86009], [80.07231, 12.8605], [80.07284, 12.8613], [80.07328, 12.86211], [80.07341, 12.86237], [80.0738, 12.86331], [80.0745, 12.86518], [80.07514, 12.86691], [80.0755, 12.86776], [80.07561, 12.86807], [80.07558, 12.86808], [80.07561, 12.86807], [80.07567, 12.86829], [80.07575, 12.86848], [80.07581, 12.86858], [80.07589, 12.86862], [80.07605, 12.86909], [80.07632, 12.86971], [80.07636, 12.86982], [80.07691, 12.87122], [80.07868, 12.87576], [80.07873, 12.87603], [80.07897, 12.87667], [80.07954, 12.87824], [80.07993, 12.87919], [80.08034, 12.88027], [80.08054, 12.88081], [80.08058, 12.88095], [80.08062, 12.88094], [80.08075, 12.88127], [80.08085, 12.88141], [80.08105, 12.8817], [80.08128, 12.88226], [80.08151, 12.88288], [80.08218, 12.88456], [80.08279, 12.88596], [80.08351, 12.88769], [80.08459, 12.89039], [80.08494, 12.89116], [80.0852, 12.89167], [80.08566, 12.89247], [80.08582, 12.89269], [80.08623, 12.89322], [80.08686, 12.89408], [80.08933, 12.89738], [80.08935, 12.89741], [80.09299, 12.90224], [80.09363, 12.9031], [80.09455, 12.90427], [80.09536, 12.90537], [80.0959, 12.90607], [80.0962, 12.90645], [80.09738, 12.90803], [80.0979, 12.90866], [80.09822, 12.90892], [80.09833, 12.90901], [80.09875, 12.90932], [80.09972, 12.9099], [80.10035, 12.91027], [80.10062, 12.91048], [80.10084, 12.9107], [80.10103, 12.91099], [80.10117, 12.91127], [80.10123, 12.91151], [80.10132, 12.91205], [80.10141, 12.91295], [80.10148, 12.91356], [80.1015, 12.91384], [80.10154, 12.91398], [80.10166, 12.91436], [80.10181, 12.91467], [80.10204, 12.91499], [80.10231, 12.91524], [80.10265, 12.91547], [80.1029, 12.91557], [80.10339, 12.91568], [80.10417, 12.91577], [80.10446, 12.91584], [80.10449, 12.91587], [80.10487, 12.91596], [80.10513, 12.91606], [80.10578, 12.91639], [80.10587, 12.91644], [80.10714, 12.91709], [80.1077, 12.91744], [80.10831, 12.91793], [80.10923, 12.91866], [80.10963, 12.919], [80.11048, 12.91963], [80.11101, 12.92007], [80.1123, 12.9213], [80.11312, 12.92212], [80.11392, 12.92287], [80.11423, 12.9232], [80.11555, 12.92452], [80.11537, 12.92457], [80.11545, 12.92464], [80.11537, 12.92457], [80.11555, 12.92452], [80.11738, 12.9263], [80.11793, 12.92692], [80.11867, 12.92761], [80.11907, 12.92803], [80.11957, 12.92853], [80.12033, 12.92931], [80.12111, 12.93006], [80.12135, 12.9303], [80.12214, 12.93113], [80.12285, 12.93182], [80.12337, 12.93233], [80.12412, 12.93304], [80.12551, 12.93443], [80.12584, 12.93478], [80.1265, 12.93554], [80.12754, 12.93671], [80.12778, 12.93699], [80.12873, 12.9381], [80.12931, 12.93876], [80.1303, 12.93996], [80.13064, 12.94032], [80.13296, 12.94251], [80.13382, 12.94335], [80.13426, 12.94379], [80.13451, 12.94409], [80.13475, 12.94441], [80.13492, 12.94465], [80.13629, 12.94636], [80.13662, 12.94679], [80.13674, 12.94694], [80.13694, 12.94721], [80.13719, 12.94754], [80.13745, 12.94796], [80.13762, 12.94822], [80.13827, 12.94913], [80.13879, 12.94973], [80.13904, 12.95007], [80.13944, 12.95054], [80.13964, 12.9508], [80.14015, 12.95144], [80.14063, 12.95207], [80.14072, 12.95216], [80.14124, 12.95282], [80.1415, 12.95323], [80.14169, 12.9536], [80.14217, 12.95452], [80.14316, 12.95644], [80.14339, 12.95686], [80.14408, 12.95812], [80.14419, 12.95831], [80.14418, 12.95848], [80.14429, 12.95871], [80.14493, 12.95999], [80.14513, 12.96038], [80.14519, 12.96043], [80.1452, 12.96049], [80.14523, 12.96054], [80.14533, 12.9606], [80.14544, 12.96059], [80.14553, 12.96052], [80.14555, 12.96047], [80.14555, 12.96044], [80.14573, 12.96037], [80.14649, 12.96018], [80.14716, 12.96004], [80.14863, 12.95975], [80.14923, 12.95962], [80.14947, 12.95953], [80.14967, 12.95941], [80.14986, 12.95924], [80.15034, 12.95865], [80.15031, 12.95862], [80.15169, 12.95695], [80.15208, 12.95651], [80.15226, 12.95634], [80.1524, 12.95623], [80.15266, 12.95605], [80.15313, 12.95585], [80.15378, 12.95565], [80.15449, 12.95546], [80.15617, 12.9551], [80.15935, 12.95445], [80.16135, 12.95403], [80.16329, 12.95361], [80.16565, 12.95311], [80.1668, 12.95284], [80.16809, 12.95249], [80.16871, 12.95234], [80.16913, 12.95227], [80.16967, 12.95217], [80.17148, 12.95187], [80.17226, 12.95172], [80.17313, 12.95159], [80.17396, 12.95142], [80.17417, 12.95137], [80.1765, 12.95088], [80.17941, 12.95009], [80.18024, 12.94992], [80.18157, 12.94969], [80.18332, 12.94938], [80.18391, 12.94931], [80.18537, 12.94917], [80.18659, 12.94911], [80.18752, 12.94904], [80.18946, 12.94885], [80.19142, 12.9487], [80.19427, 12.94862], [80.19523, 12.94861], [80.19653, 12.9486], [80.19744, 12.94858], [80.19833, 12.94859], [80.1992, 12.94862], [80.20327, 12.94874], [80.20365, 12.94877], [80.20509, 12.94877], [80.20633, 12.94883], [80.20764, 12.94876], [80.20837, 12.9487], [80.20913, 12.94863], [80.20969, 12.94857], [80.2097, 12.94856], [80.21002, 12.94852], [80.21063, 12.94849], [80.21159, 12.94849], [80.21231, 12.94852], [80.21317, 12.94858], [80.21708, 12.94897], [80.22122, 12.94938], [80.22122, 12.94939], [80.22325, 12.94952], [80.22703, 12.94972], [80.22956, 12.94984], [80.23111, 12.94996], [80.23227, 12.95003], [80.23286, 12.95008], [80.234, 12.95013], [80.23473, 12.95007], [80.23501, 12.95006], [80.23587, 12.94994], [80.23789, 12.94963], [80.23837, 12.94958], [80.23852, 12.94964], [80.23857, 12.94965], [80.23879, 12.94962], [80.23983, 12.94939], [80.24036, 12.94927], [80.2406, 12.94923], [80.24066, 12.94924], [80.24089, 12.94997], [80.2412, 12.95105], [80.24124, 12.95104], [80.24142, 12.9516], [80.2415, 12.95157], [80.24167, 12.95209], [80.24187, 12.9526], [80.24207, 12.95316], [80.24241, 12.95397], [80.24278, 12.95499], [80.24334, 12.95638], [80.24381, 12.95749], [80.24402, 12.95797], [80.24399, 12.95805], [80.24398, 12.95808], [80.24403, 12.95823], [80.24429, 12.95882], [80.24452, 12.95939], [80.24527, 12.96102], [80.24596, 12.96245], [80.24602, 12.96239], [80.24647, 12.9633], [80.24656, 12.96347], [80.2468, 12.96398], [80.24737, 12.96554], [80.24753, 12.96593], [80.24772, 12.96639], [80.24788, 12.96678], [80.24779, 12.9668], [80.24785, 12.96693], [80.24779, 12.9668], [80.24788, 12.96678], [80.24797, 12.96699], [80.24813, 12.96733], [80.24848, 12.96812], [80.24885, 12.96899], [80.2493, 12.97015], [80.24959, 12.97105], [80.25008, 12.97279], [80.25022, 12.97333], [80.25015, 12.97334], [80.25037, 12.97421], [80.25039, 12.97429], [80.25122, 12.9772], [80.25133, 12.97742], [80.25145, 12.97757], [80.25162, 12.97774], [80.25186, 12.97799], [80.25216, 12.9784], [80.25225, 12.97855], [80.25186, 12.97799], [80.25149, 12.97762], [80.25127, 12.97732], [80.25114, 12.97693], [80.25086, 12.97594], [80.25044, 12.97448], [80.25019, 12.9735], [80.25015, 12.97334], [80.25022, 12.97333], [80.25046, 12.97419], [80.25076, 12.97522], [80.25106, 12.97632], [80.2512, 12.97684], [80.25139, 12.97732], [80.25155, 12.97759], [80.25163, 12.97771], [80.25196, 12.97805], [80.25221, 12.97834], [80.2524, 12.97868], [80.25253, 12.97916], [80.25257, 12.97936], [80.25257, 12.97953], [80.25261, 12.97998], [80.2526, 12.98044], [80.25254, 12.98257], [80.25249, 12.98321], [80.25244, 12.98355], [80.25199, 12.98528], [80.25171, 12.98639], [80.25165, 12.98667], [80.25142, 12.98735], [80.2513, 12.98789], [80.25177, 12.988], [80.25209, 12.98806], [80.25231, 12.98807], [80.25237, 12.98807], [80.25408, 12.9879], [80.25573, 12.98775], [80.25624, 12.98769], [80.25645, 12.98766], [80.25677, 12.98762], [80.25699, 12.9876], [80.25728, 12.98758], [80.25741, 12.98757], [80.25762, 12.98755], [80.25804, 12.98752], [80.25835, 12.9875], [80.25851, 12.98749], [80.2588, 12.98746], [80.25907, 12.98744], [80.25922, 12.98741], [80.2592, 12.98717]]}}]}