{"type": "FeatureCollection", "features": [{"type": "Feature", "properties": {"route_name": "593CT", "stop_id": "xfbmoJHP", "name": "Redhills Bus Terminus", "city": "CHENNAI"}, "geometry": {"type": "Point", "coordinates": [80.18435172804377, 13.192823904116457]}}, {"type": "Feature", "properties": {"route_name": "593CT", "stop_id": "NCSBLEus", "name": "Mondiyaman Nagar", "city": "CHENNAI"}, "geometry": {"type": "Point", "coordinates": [80.17901412594404, 13.198778307964428]}}, {"type": "Feature", "properties": {"route_name": "593CT", "stop_id": "AJLJQqsT", "name": "Padianallur", "city": "CHENNAI"}, "geometry": {"type": "Point", "coordinates": [80.17473004885483, 13.204504536655083]}}, {"type": "Feature", "properties": {"route_name": "593CT", "stop_id": "zqZasXpA", "name": "Redhills RTO Office", "city": "CHENNAI"}, "geometry": {"type": "Point", "coordinates": [80.17008864408778, 13.21460399271362]}}, {"type": "Feature", "properties": {"route_name": "593CT", "stop_id": "illGQStO", "name": "Vijaya Nallur", "city": "CHENNAI"}, "geometry": {"type": "Point", "coordinates": [80.16753244267011, 13.221330232863748]}}, {"type": "Feature", "properties": {"route_name": "593CT", "stop_id": "sTaleXyI", "name": "Sembilivaram Or Nallur Road Junction", "city": "CHENNAI"}, "geometry": {"type": "Point", "coordinates": [80.16555271413688, 13.227161105736025]}}, {"type": "Feature", "properties": {"route_name": "593CT", "stop_id": "yTictHOU", "name": "Sengalamman Koil Or Sholavaram 4", "city": "CHENNAI"}, "geometry": {"type": "Point", "coordinates": [80.16460517831138, 13.229697217913404]}}, {"type": "Feature", "properties": {"route_name": "593CT", "stop_id": "rxrORjnb", "name": "Karanodai", "city": "CHENNAI"}, "geometry": {"type": "Point", "coordinates": [80.15753891866461, 13.246990251356396]}}, {"type": "Feature", "properties": {"route_name": "593CT", "stop_id": "nLuZmKFz", "name": "Siddhi Vinayagar Temple", "city": "CHENNAI"}, "geometry": {"type": "Point", "coordinates": [80.14350963798245, 13.26333082718131]}}, {"type": "Feature", "properties": {"route_name": "593CT", "stop_id": "UlmLxwtK", "name": "Pandikavanur", "city": "CHENNAI"}, "geometry": {"type": "Point", "coordinates": [80.13490510962538, 13.262901477478223]}}, {"type": "Feature", "properties": {"route_name": "593CT", "stop_id": "NfMyQHAw", "name": "Manjankarani", "city": "CHENNAI"}, "geometry": {"type": "Point", "coordinates": [80.1143032490645, 13.266860768830854]}}, {"type": "Feature", "properties": {"route_name": "593CT", "stop_id": "DDFCohxX", "name": "JNN Engineering College", "city": "CHENNAI"}, "geometry": {"type": "Point", "coordinates": [80.10924661098409, 13.269664072957848]}}, {"type": "Feature", "properties": {"route_name": "593CT", "stop_id": "BmBzVYhd", "name": "Kannigaipair Bazar", "city": "CHENNAI"}, "geometry": {"type": "Point", "coordinates": [80.0949330363892, 13.27446426037334]}}, {"type": "Feature", "properties": {"route_name": "593CT", "stop_id": "CkiKkxJQ", "name": "Maduravoyal Rettai Kinaru", "city": "CHENNAI"}, "geometry": {"type": "Point", "coordinates": [80.07827020744651, 13.280318656498176]}}, {"type": "Feature", "properties": {"route_name": "593CT", "stop_id": "lGJIVvqE", "name": "Jayapuram Oil Mill", "city": "CHENNAI"}, "geometry": {"type": "Point", "coordinates": [80.06996535440555, 13.285269419254162]}}, {"type": "Feature", "properties": {"route_name": "593CT", "stop_id": "qLlyWzVq", "name": "Panapakkam", "city": "CHENNAI"}, "geometry": {"type": "Point", "coordinates": [80.05769793562536, 13.290750098210683]}}, {"type": "Feature", "properties": {"route_name": "593CT", "stop_id": "pVHZNTmW", "name": "MTC Nagar", "city": "CHENNAI"}, "geometry": {"type": "Point", "coordinates": [80.0523885629608, 13.29400974707096]}}, {"type": "Feature", "properties": {"route_name": "593CT", "stop_id": "cyLrdsLq", "name": "Avadi Road Junction", "city": "CHENNAI"}, "geometry": {"type": "Point", "coordinates": [80.04882034416721, 13.298776291908618]}}, {"type": "Feature", "properties": {"route_name": "593CT", "stop_id": "AlpXiRiW", "name": "Periyapalayam Bus stand", "city": "CHENNAI"}, "geometry": {"type": "Point", "coordinates": [80.04628915569356, 13.308079284883911]}}, {"type": "Feature", "properties": {"route_name": "593CT", "stop_id": "YtTJoBxm", "name": "Periyapalayam Koil", "city": "CHENNAI"}, "geometry": {"type": "Point", "coordinates": [80.04286067077487, 13.309840215031478]}}, {"type": "Feature", "properties": {"route_name": "593CT", "stop_id": "hfbFGrBz", "name": "Ariyapakkam", "city": "CHENNAI"}, "geometry": {"type": "Point", "coordinates": [80.03329312244819, 13.311661428090614]}}, {"type": "Feature", "properties": {"route_name": "593CT", "stop_id": "NJsqxdTd", "name": "Athupakkam", "city": "CHENNAI"}, "geometry": {"type": "Point", "coordinates": [80.0262073504714, 13.312257136343513]}}, {"type": "Feature", "properties": {"route_name": "593CT", "stop_id": "HsmdKMgN", "name": "Thandalam", "city": "CHENNAI"}, "geometry": {"type": "Point", "coordinates": [80.00465585077791, 13.310672382469585]}}, {"type": "Feature", "properties": {"route_name": "593CT", "stop_id": "MrQhdzGM", "name": "Karumbu Noor Kandigai", "city": "CHENNAI"}, "geometry": {"type": "Point", "coordinates": [79.99194241108569, 13.312661020747635]}}, {"type": "Feature", "properties": {"route_name": "593CT", "stop_id": "yMrMMnQF", "name": "Soolaimeni", "city": "CHENNAI"}, "geometry": {"type": "Point", "coordinates": [79.98348810647053, 13.314028415210215]}}, {"type": "Feature", "properties": {"route_name": "593CT", "stop_id": "hUQezMGZ", "name": "Chennang Karanai", "city": "CHENNAI"}, "geometry": {"type": "Point", "coordinates": [79.98396941863643, 13.336728251869548]}}, {"type": "Feature", "properties": {"name": "593CT"}, "geometry": {"type": "LineString", "coordinates": [[80.18414, 13.19313], [80.18387, 13.19341], [80.18365, 13.19369], [80.18324, 13.19411], [80.18286, 13.19453], [80.18249, 13.19493], [80.18142, 13.19609], [80.18113, 13.19642], [80.18112, 13.19642], [80.18111, 13.19642], [80.1811, 13.19643], [80.18108, 13.19644], [80.18107, 13.19647], [80.18107, 13.19649], [80.18089, 13.1967], [80.18008, 13.19746], [80.17973, 13.19787], [80.17904, 13.1988], [80.17559, 13.20338], [80.17474, 13.20451], [80.17475, 13.20452], [80.1734, 13.20662], [80.17284, 13.20758], [80.1725, 13.20833], [80.17251, 13.20846], [80.17213, 13.2093], [80.17126, 13.21156], [80.17076, 13.2129], [80.17045, 13.21377], [80.17012, 13.21462], [80.16954, 13.21608], [80.16901, 13.2175], [80.16835, 13.21946], [80.16813, 13.22006], [80.16802, 13.22017], [80.16787, 13.22048], [80.16767, 13.22094], [80.16755, 13.22133], [80.16695, 13.22295], [80.16705, 13.223], [80.16676, 13.2238], [80.16646, 13.22458], [80.16629, 13.22495], [80.16594, 13.22559], [80.1655, 13.22618], [80.16533, 13.22638], [80.16499, 13.22671], [80.1652, 13.22689], [80.16536, 13.22692], [80.16549, 13.22698], [80.16556, 13.22704], [80.16558, 13.22716], [80.16558, 13.22731], [80.16544, 13.22773], [80.16465, 13.22972], [80.16367, 13.23215], [80.16292, 13.23396], [80.16216, 13.23579], [80.16151, 13.23738], [80.16132, 13.23797], [80.16108, 13.23877], [80.16088, 13.23945], [80.16072, 13.24004], [80.16054, 13.2406], [80.16004, 13.24194], [80.15929, 13.24371], [80.15894, 13.24442], [80.15827, 13.24566], [80.15786, 13.2464], [80.15756, 13.247], [80.15638, 13.24933], [80.15579, 13.25052], [80.1555, 13.25134], [80.15538, 13.25234], [80.15532, 13.2532], [80.15528, 13.25359], [80.15524, 13.25371], [80.15498, 13.25402], [80.15484, 13.25412], [80.15494, 13.2544], [80.155, 13.25471], [80.15502, 13.25526], [80.15511, 13.25579], [80.15521, 13.25686], [80.1553, 13.25778], [80.15537, 13.25847], [80.15548, 13.25959], [80.15546, 13.25996], [80.15541, 13.26024], [80.15517, 13.26097], [80.15494, 13.26175], [80.15486, 13.26221], [80.15477, 13.26222], [80.15292, 13.26249], [80.15092, 13.26277], [80.14952, 13.26297], [80.14743, 13.2632], [80.14504, 13.26335], [80.14363, 13.26335], [80.14351, 13.26335], [80.13935, 13.26321], [80.13742, 13.26313], [80.1349, 13.26292], [80.13327, 13.2628], [80.13162, 13.26265], [80.12931, 13.26246], [80.12694, 13.2623], [80.12516, 13.26215], [80.12457, 13.26212], [80.1242, 13.26213], [80.12384, 13.26217], [80.12341, 13.2623], [80.1231, 13.26243], [80.12238, 13.26279], [80.12102, 13.26349], [80.12022, 13.26385], [80.11952, 13.26405], [80.11888, 13.26426], [80.11762, 13.26477], [80.11714, 13.265], [80.11645, 13.26539], [80.11542, 13.26607], [80.11471, 13.26658], [80.11431, 13.26688], [80.11349, 13.26746], [80.1133, 13.26758], [80.11171, 13.26839], [80.11025, 13.26917], [80.10926, 13.26968], [80.10755, 13.27064], [80.10696, 13.27099], [80.10523, 13.27193], [80.1036, 13.27287], [80.10309, 13.27313], [80.10241, 13.27337], [80.10141, 13.27365], [80.10063, 13.27387], [80.09935, 13.27421], [80.09834, 13.27441], [80.0978, 13.27448], [80.09733, 13.27451], [80.09681, 13.27449], [80.09569, 13.2745], [80.09495, 13.27449], [80.09428, 13.27449], [80.09394, 13.27453], [80.09332, 13.27455], [80.09284, 13.2745], [80.09255, 13.27451], [80.0924, 13.27453], [80.09201, 13.27465], [80.09127, 13.27509], [80.09004, 13.27599], [80.08968, 13.27627], [80.08945, 13.27647], [80.08919, 13.27663], [80.08904, 13.2767], [80.08884, 13.27677], [80.08845, 13.27683], [80.08731, 13.27695], [80.08641, 13.27708], [80.08473, 13.27737], [80.08444, 13.27743], [80.08422, 13.2775], [80.08384, 13.27767], [80.08311, 13.27802], [80.08118, 13.27901], [80.08089, 13.27916], [80.08001, 13.27957], [80.07856, 13.28022], [80.07829, 13.28036], [80.07763, 13.28074], [80.07512, 13.28226], [80.07311, 13.28348], [80.07174, 13.28428], [80.06998, 13.2853], [80.0666, 13.28723], [80.06605, 13.28753], [80.06539, 13.28785], [80.06311, 13.28877], [80.06163, 13.28936], [80.0605, 13.28975], [80.05839, 13.29048], [80.05771, 13.29078], [80.05538, 13.29187], [80.05381, 13.29259], [80.05352, 13.2928], [80.05318, 13.29311], [80.05278, 13.29357], [80.05241, 13.29402], [80.05199, 13.29452], [80.0516, 13.29502], [80.05125, 13.29543], [80.05083, 13.29599], [80.05049, 13.29648], [80.04975, 13.29753], [80.04928, 13.2982], [80.04884, 13.29879], [80.04848, 13.29931], [80.04802, 13.30023], [80.04747, 13.30151], [80.04726, 13.3021], [80.04726, 13.3022], [80.04686, 13.30346], [80.04649, 13.3047], [80.04634, 13.3052], [80.04622, 13.30579], [80.04618, 13.30653], [80.04626, 13.30715], [80.04639, 13.30806], [80.04641, 13.30821], [80.04647, 13.30873], [80.04635, 13.30877], [80.04612, 13.30885], [80.04553, 13.30905], [80.04457, 13.30942], [80.04352, 13.30977], [80.04288, 13.30992], [80.04085, 13.31037], [80.03903, 13.31079], [80.03688, 13.31124], [80.03623, 13.31136], [80.03476, 13.31155], [80.03459, 13.31157], [80.0345, 13.31154], [80.03331, 13.3117], [80.0333, 13.3117], [80.03043, 13.31226], [80.02735, 13.31287], [80.027, 13.31288], [80.02684, 13.31284], [80.02672, 13.31278], [80.02657, 13.31266], [80.02619, 13.31227], [80.02517, 13.31122], [80.02482, 13.31089], [80.02342, 13.30958], [80.02299, 13.30924], [80.02278, 13.30915], [80.02266, 13.30914], [80.02233, 13.30914], [80.01835, 13.30951], [80.01569, 13.30974], [80.01301, 13.31002], [80.00934, 13.31031], [80.00882, 13.31035], [80.00581, 13.3106], [80.00517, 13.31068], [80.00479, 13.31071], [80.00466, 13.31072], [80.0043, 13.31072], [80.00302, 13.31084], [79.99824, 13.31121], [79.99581, 13.3114], [79.99452, 13.31156], [79.99426, 13.31161], [79.99386, 13.31175], [79.99315, 13.31204], [79.99224, 13.3125], [79.99197, 13.31266], [79.99195, 13.31267], [79.9914, 13.31294], [79.99119, 13.31301], [79.99063, 13.31316], [79.98677, 13.31364], [79.98533, 13.31381], [79.98521, 13.31385], [79.98492, 13.3139], [79.98428, 13.31401], [79.9835, 13.3141], [79.9817, 13.3143], [79.98247, 13.31682], [79.98274, 13.31766], [79.98297, 13.31853], [79.9831, 13.31917], [79.98328, 13.31989], [79.98354, 13.32103], [79.98374, 13.32169], [79.98389, 13.32202], [79.9841, 13.32245], [79.98436, 13.32287], [79.98448, 13.32328], [79.98467, 13.32376], [79.98487, 13.32432], [79.9851, 13.32506], [79.98528, 13.32566], [79.98543, 13.32626], [79.98547, 13.32645], [79.98547, 13.32668], [79.98544, 13.32722], [79.9854, 13.328], [79.98544, 13.32854], [79.9855, 13.33006], [79.98551, 13.33045], [79.98558, 13.33065], [79.98564, 13.3314], [79.98566, 13.33158], [79.98566, 13.33239], [79.98565, 13.33282], [79.98565, 13.33347], [79.98562, 13.3337], [79.98555, 13.33403], [79.98541, 13.33435], [79.98532, 13.33447], [79.98475, 13.33633], [79.98398, 13.33674]]}}]}