{"type": "FeatureCollection", "features": [{"type": "Feature", "properties": {"route_name": "V51", "stop_id": "ejMjPdTH", "name": "Tambaram West Bus Stand", "city": "CHENNAI"}, "geometry": {"type": "Point", "coordinates": [80.118864, 12.92758911]}}, {"type": "Feature", "properties": {"route_name": "V51", "stop_id": "pPKqPUVW", "name": "East Tambaram Convent", "city": "CHENNAI"}, "geometry": {"type": "Point", "coordinates": [80.13077968753532, 12.922863534282508]}}, {"type": "Feature", "properties": {"route_name": "V51", "stop_id": "pwpCkicC", "name": "Camp Road Junction Selaiyur", "city": "CHENNAI"}, "geometry": {"type": "Point", "coordinates": [80.14384125454421, 12.922601831927487]}}, {"type": "Feature", "properties": {"route_name": "V51", "stop_id": "LhQSpAzy", "name": "Mahalakshmi Nagar", "city": "CHENNAI"}, "geometry": {"type": "Point", "coordinates": [80.14726512966445, 12.922705274965574]}}, {"type": "Feature", "properties": {"route_name": "V51", "stop_id": "HajxumVd", "name": "Kamarajapuram Camp Road", "city": "CHENNAI"}, "geometry": {"type": "Point", "coordinates": [80.15405773809823, 12.923332477027662]}}, {"type": "Feature", "properties": {"route_name": "V51", "stop_id": "sZNeRfOC", "name": "Sembakkam", "city": "CHENNAI"}, "geometry": {"type": "Point", "coordinates": [80.16004625996175, 12.923417138112672]}}, {"type": "Feature", "properties": {"route_name": "V51", "stop_id": "ZFFevgPB", "name": "Sivet", "city": "CHENNAI"}, "geometry": {"type": "Point", "coordinates": [80.16784668159437, 12.920947546908874]}}, {"type": "Feature", "properties": {"route_name": "V51", "stop_id": "qehlKNkR", "name": "Santhosapuram", "city": "CHENNAI"}, "geometry": {"type": "Point", "coordinates": [80.1712862414247, 12.919902030044325]}}, {"type": "Feature", "properties": {"route_name": "V51", "stop_id": "NnzcSqlk", "name": "Medavakkam Koot Road", "city": "CHENNAI"}, "geometry": {"type": "Point", "coordinates": [80.18382742441258, 12.920350638203914]}}, {"type": "Feature", "properties": {"route_name": "V51", "stop_id": "vCxCuCVD", "name": "Vellaikal", "city": "CHENNAI"}, "geometry": {"type": "Point", "coordinates": [80.18150693472114, 12.93160235630512]}}, {"type": "Feature", "properties": {"route_name": "V51", "stop_id": "qOusBBOu", "name": "Kovilambakkam", "city": "CHENNAI"}, "geometry": {"type": "Point", "coordinates": [80.18234107997591, 12.939135447577806]}}, {"type": "Feature", "properties": {"route_name": "V51", "stop_id": "qXMrbZDt", "name": "Veeramani Nagar", "city": "CHENNAI"}, "geometry": {"type": "Point", "coordinates": [80.18289689402445, 12.944786570502494]}}, {"type": "Feature", "properties": {"route_name": "V51", "stop_id": "aQxdJxqw", "name": "Kilkattalai", "city": "CHENNAI"}, "geometry": {"type": "Point", "coordinates": [80.18681145175447, 12.956129051605334]}}, {"type": "Feature", "properties": {"route_name": "V51", "stop_id": "NajoDNFv", "name": "Ganesh Nagar", "city": "CHENNAI"}, "geometry": {"type": "Point", "coordinates": [80.1872861843708, 12.961775145018628]}}, {"type": "Feature", "properties": {"route_name": "V51", "stop_id": "TxpOiGNK", "name": "UTI Bank Or Madipakkam Road Junction", "city": "CHENNAI"}, "geometry": {"type": "Point", "coordinates": [80.18855291688942, 12.96601369819122]}}, {"type": "Feature", "properties": {"route_name": "V51", "stop_id": "AsOznvtO", "name": "Sadasivam Nagar", "city": "CHENNAI"}, "geometry": {"type": "Point", "coordinates": [80.20417397114636, 12.965721191339533]}}, {"type": "Feature", "properties": {"route_name": "V51", "stop_id": "oPiGTUNA", "name": "Raam Nagar", "city": "CHENNAI"}, "geometry": {"type": "Point", "coordinates": [80.20676225763236, 12.965349510310698]}}, {"type": "Feature", "properties": {"route_name": "V51", "stop_id": "EsFyleAW", "name": "AV Construction Or Srinivasa Nagar", "city": "CHENNAI"}, "geometry": {"type": "Point", "coordinates": [80.21117288121923, 12.964677994705452]}}, {"type": "Feature", "properties": {"route_name": "V51", "stop_id": "PgJqeYYy", "name": "Kaiveli", "city": "CHENNAI"}, "geometry": {"type": "Point", "coordinates": [80.21591235581968, 12.96401873134727]}}, {"type": "Feature", "properties": {"route_name": "V51", "stop_id": "okaePkJr", "name": "Velachery Railway Station", "city": "CHENNAI"}, "geometry": {"type": "Point", "coordinates": [80.21892251518966, 12.971216371539123]}}, {"type": "Feature", "properties": {"route_name": "V51", "stop_id": "zUgDRwiy", "name": "Velachery", "city": "CHENNAI"}, "geometry": {"type": "Point", "coordinates": [80.22108513, 12.97596647]}}, {"type": "Feature", "properties": {"route_name": "V51", "stop_id": "YhQOzAWJ", "name": "Dhandeeswaran Nagar", "city": "CHENNAI"}, "geometry": {"type": "Point", "coordinates": [80.22324888678247, 12.985457208036678]}}, {"type": "Feature", "properties": {"route_name": "V51", "stop_id": "elmHqfIN", "name": "Gandhi Road", "city": "CHENNAI"}, "geometry": {"type": "Point", "coordinates": [80.22303390078515, 12.987755332503719]}}, {"type": "Feature", "properties": {"route_name": "V51", "stop_id": "jTofnsvB", "name": "Guru Nanak College", "city": "CHENNAI"}, "geometry": {"type": "Point", "coordinates": [80.22030116160157, 12.990508514696524]}}, {"type": "Feature", "properties": {"route_name": "V51", "stop_id": "gLCWwgiT", "name": "Vellacherry Check Post", "city": "CHENNAI"}, "geometry": {"type": "Point", "coordinates": [80.21638975753103, 12.997158396569079]}}, {"type": "Feature", "properties": {"route_name": "V51", "stop_id": "ZYYdVixc", "name": "Maduvankarai", "city": "CHENNAI"}, "geometry": {"type": "Point", "coordinates": [80.21221783141004, 13.00458883208835]}}, {"type": "Feature", "properties": {"route_name": "V51", "stop_id": "VfTFpfzB", "name": "Guindy Railway Station", "city": "CHENNAI"}, "geometry": {"type": "Point", "coordinates": [80.2130116686618, 13.007933383833016]}}, {"type": "Feature", "properties": {"route_name": "V51", "stop_id": "WOOyqinT", "name": "Chellammal College", "city": "CHENNAI"}, "geometry": {"type": "Point", "coordinates": [80.22076239073908, 13.012293483983404]}}, {"type": "Feature", "properties": {"route_name": "V51", "stop_id": "FyoAuDvn", "name": "Little Mount ", "city": "CHENNAI"}, "geometry": {"type": "Point", "coordinates": [80.2250649963828, 13.015597546918361]}}, {"type": "Feature", "properties": {"route_name": "V51", "stop_id": "NXLrCKMp", "name": "Panagal Maligai Or Saiadapet Bridge", "city": "CHENNAI"}, "geometry": {"type": "Point", "coordinates": [80.2243533022414, 13.019119618356324]}}, {"type": "Feature", "properties": {"route_name": "V51", "stop_id": "xiTGCYEl", "name": "Saidapet", "city": "CHENNAI"}, "geometry": {"type": "Point", "coordinates": [80.22645189784225, 13.02237471448576]}}, {"type": "Feature", "properties": {"route_name": "V51", "stop_id": "yNIUaSyZ", "name": "Thadandar Nagar", "city": "CHENNAI"}, "geometry": {"type": "Point", "coordinates": [80.22842398188516, 13.024420523467967]}}, {"type": "Feature", "properties": {"route_name": "V51", "stop_id": "bZroqIhX", "name": "CIT Nagar", "city": "CHENNAI"}, "geometry": {"type": "Point", "coordinates": [80.23073054407075, 13.02925281559845]}}, {"type": "Feature", "properties": {"route_name": "V51", "stop_id": "eTJQHplR", "name": "Thiyagaraya Nagar Bus Depot", "city": "CHENNAI"}, "geometry": {"type": "Point", "coordinates": [80.23005108, 13.03449501]}}, {"type": "Feature", "properties": {"name": "V51"}, "geometry": {"type": "LineString", "coordinates": [[80.11884, 12.92761], [80.1177, 12.92646], [80.1174, 12.92617], [80.11738, 12.92608], [80.11727, 12.9259], [80.11692, 12.92555], [80.11642, 12.92508], [80.11577, 12.92444], [80.11555, 12.92425], [80.11574, 12.92411], [80.1159, 12.92404], [80.11632, 12.92393], [80.11707, 12.92376], [80.11798, 12.92355], [80.11856, 12.92347], [80.11961, 12.92344], [80.12014, 12.92337], [80.12086, 12.92331], [80.12441, 12.92314], [80.12516, 12.92312], [80.12744, 12.923], [80.12797, 12.92296], [80.12811, 12.92292], [80.12822, 12.92291], [80.12943, 12.92284], [80.12985, 12.92283], [80.13044, 12.9228], [80.1306, 12.92283], [80.13078, 12.92283], [80.13257, 12.92277], [80.13442, 12.92269], [80.13647, 12.92258], [80.13748, 12.92255], [80.13837, 12.9225], [80.13932, 12.92244], [80.14113, 12.92249], [80.14201, 12.92249], [80.14284, 12.92254], [80.14364, 12.92256], [80.14384, 12.92257], [80.14592, 12.92265], [80.14727, 12.92268], [80.14824, 12.92267], [80.14859, 12.92266], [80.14907, 12.92269], [80.14935, 12.92271], [80.15023, 12.92274], [80.15181, 12.92279], [80.15262, 12.92293], [80.15383, 12.92322], [80.15407, 12.92328], [80.15587, 12.92373], [80.15602, 12.92374], [80.15776, 12.9236], [80.15969, 12.92342], [80.16004, 12.92337], [80.16053, 12.92324], [80.16269, 12.92254], [80.16457, 12.92195], [80.16784, 12.92091], [80.16943, 12.9204], [80.17127, 12.91985], [80.1742, 12.91904], [80.17567, 12.91869], [80.17598, 12.91859], [80.17657, 12.91847], [80.17739, 12.91832], [80.17763, 12.91829], [80.1778, 12.9183], [80.17801, 12.91835], [80.17818, 12.91845], [80.17886, 12.91896], [80.17911, 12.9191], [80.17923, 12.91914], [80.17941, 12.9192], [80.17965, 12.91925], [80.18081, 12.91951], [80.182, 12.91978], [80.18306, 12.92001], [80.18366, 12.92018], [80.18387, 12.9203], [80.18399, 12.92041], [80.1839, 12.92064], [80.18365, 12.92134], [80.18341, 12.92193], [80.18313, 12.92271], [80.18307, 12.923], [80.18297, 12.92366], [80.18278, 12.92459], [80.18265, 12.92547], [80.18256, 12.92606], [80.18243, 12.92663], [80.18168, 12.92983], [80.1816, 12.93018], [80.18155, 12.93027], [80.18146, 12.93064], [80.18145, 12.93105], [80.18154, 12.9316], [80.18161, 12.93204], [80.18171, 12.93255], [80.18182, 12.93312], [80.18217, 12.93457], [80.18228, 12.93506], [80.18232, 12.93544], [80.18218, 12.93673], [80.18218, 12.93776], [80.1822, 12.93818], [80.1823, 12.93883], [80.18236, 12.93911], [80.18237, 12.93913], [80.1825, 12.93962], [80.18264, 12.9401], [80.1827, 12.94053], [80.18269, 12.94096], [80.18269, 12.94134], [80.18283, 12.94222], [80.18288, 12.94272], [80.1829, 12.94379], [80.18295, 12.94478], [80.18298, 12.94538], [80.183, 12.9455], [80.18306, 12.94565], [80.18338, 12.94606], [80.18368, 12.94638], [80.18385, 12.94668], [80.18421, 12.94714], [80.18483, 12.94797], [80.1849, 12.94809], [80.18508, 12.94856], [80.18548, 12.94981], [80.18586, 12.95101], [80.18615, 12.95184], [80.18639, 12.95264], [80.18646, 12.95296], [80.18661, 12.95408], [80.18668, 12.95457], [80.18674, 12.95511], [80.18678, 12.95564], [80.18685, 12.95612], [80.18693, 12.95692], [80.18698, 12.95769], [80.187, 12.95813], [80.18699, 12.95851], [80.18698, 12.95896], [80.187, 12.95916], [80.18712, 12.96032], [80.18718, 12.96078], [80.18726, 12.96135], [80.18732, 12.96177], [80.18744, 12.96241], [80.18752, 12.96274], [80.1876, 12.96311], [80.18763, 12.96334], [80.18769, 12.96356], [80.1878, 12.96394], [80.18786, 12.96416], [80.18797, 12.96447], [80.18806, 12.9647], [80.18816, 12.96491], [80.18825, 12.96517], [80.18844, 12.96565], [80.18857, 12.96598], [80.19041, 12.96562], [80.19167, 12.96534], [80.19254, 12.96513], [80.19288, 12.96507], [80.19346, 12.96508], [80.19398, 12.96498], [80.19465, 12.9648], [80.19483, 12.96478], [80.19503, 12.96481], [80.19511, 12.96481], [80.19525, 12.96478], [80.19569, 12.9647], [80.19611, 12.96465], [80.19615, 12.96484], [80.19667, 12.96483], [80.19712, 12.96483], [80.19798, 12.96479], [80.19842, 12.96486], [80.1985, 12.96488], [80.19908, 12.96483], [80.19921, 12.96483], [80.19934, 12.96489], [80.19949, 12.96497], [80.19962, 12.965], [80.19993, 12.96498], [80.2, 12.96504], [80.20003, 12.96511], [80.20011, 12.96556], [80.20026, 12.96554], [80.2006, 12.96549], [80.20145, 12.96534], [80.20157, 12.96535], [80.20168, 12.9654], [80.20173, 12.96552], [80.20179, 12.96581], [80.20182, 12.96583], [80.20227, 12.96583], [80.20322, 12.96582], [80.20393, 12.96572], [80.20417, 12.96568], [80.2042, 12.96567], [80.20596, 12.96536], [80.20625, 12.96535], [80.2065, 12.96535], [80.20676, 12.96531], [80.20705, 12.96529], [80.20754, 12.96522], [80.20886, 12.96499], [80.21082, 12.96473], [80.21116, 12.96464], [80.21116, 12.96465], [80.21123, 12.9646], [80.21137, 12.9645], [80.21152, 12.96444], [80.21322, 12.96411], [80.21458, 12.96387], [80.21571, 12.96363], [80.21588, 12.96358], [80.21605, 12.96396], [80.21662, 12.96537], [80.21714, 12.96671], [80.21748, 12.96764], [80.21808, 12.96909], [80.21868, 12.97052], [80.21898, 12.97119], [80.21915, 12.97172], [80.21928, 12.97223], [80.21965, 12.97312], [80.21989, 12.97377], [80.22028, 12.97465], [80.22046, 12.97507], [80.22073, 12.97545], [80.22089, 12.97573], [80.22105, 12.97594], [80.22108, 12.97597], [80.2213, 12.97615], [80.22125, 12.97621], [80.22121, 12.97631], [80.22121, 12.97654], [80.22123, 12.97698], [80.22122, 12.97752], [80.22119, 12.97785], [80.22121, 12.97823], [80.22115, 12.979], [80.22111, 12.97959], [80.22109, 12.97976], [80.22103, 12.98011], [80.22097, 12.98069], [80.22099, 12.98088], [80.22105, 12.98107], [80.22112, 12.98128], [80.2212, 12.98145], [80.22165, 12.98215], [80.22173, 12.98232], [80.22182, 12.98261], [80.22192, 12.98285], [80.22203, 12.98307], [80.22249, 12.98384], [80.22269, 12.98415], [80.22297, 12.98461], [80.22312, 12.98487], [80.22328, 12.98523], [80.22329, 12.98535], [80.22327, 12.98546], [80.22324, 12.9855], [80.22313, 12.98561], [80.22303, 12.98575], [80.223, 12.98582], [80.22297, 12.98597], [80.22297, 12.98616], [80.22296, 12.9864], [80.22296, 12.98663], [80.22304, 12.98708], [80.22307, 12.98736], [80.22307, 12.98759], [80.22306, 12.98774], [80.22303, 12.98784], [80.22279, 12.98818], [80.22256, 12.98847], [80.22229, 12.98875], [80.22172, 12.98925], [80.22128, 12.98959], [80.22093, 12.98988], [80.22086, 12.9899], [80.22065, 12.9901], [80.22022, 12.99065], [80.21955, 12.99146], [80.21861, 12.99277], [80.21771, 12.99403], [80.21706, 12.99495], [80.21681, 12.99536], [80.21671, 12.99563], [80.21658, 12.99612], [80.21652, 12.99637], [80.21647, 12.99676], [80.21645, 12.99716], [80.21645, 12.99728], [80.21618, 12.99752], [80.21582, 12.99784], [80.21521, 12.99858], [80.21415, 12.99985], [80.2131, 13.00102], [80.21277, 13.00145], [80.2124, 13.00195], [80.21216, 13.00239], [80.21209, 13.00258], [80.21206, 13.00313], [80.21202, 13.00365], [80.21201, 13.00378], [80.21209, 13.00411], [80.2122, 13.00445], [80.21226, 13.00457], [80.2124, 13.00484], [80.21274, 13.00538], [80.21283, 13.00553], [80.21285, 13.00566], [80.2129, 13.00583], [80.2129, 13.00588], [80.21289, 13.00602], [80.21272, 13.00642], [80.21268, 13.00664], [80.21268, 13.0069], [80.21271, 13.00708], [80.21283, 13.00761], [80.21304, 13.00791], [80.21316, 13.00806], [80.2133, 13.00839], [80.21333, 13.00845], [80.21337, 13.00851], [80.21365, 13.00878], [80.21485, 13.00966], [80.2155, 13.01011], [80.21564, 13.01023], [80.21584, 13.01045], [80.21607, 13.0106], [80.21633, 13.0107], [80.21655, 13.01077], [80.21692, 13.01088], [80.21745, 13.01116], [80.21795, 13.01135], [80.21838, 13.01149], [80.21928, 13.01181], [80.22023, 13.0121], [80.22075, 13.01228], [80.22119, 13.01241], [80.22128, 13.01246], [80.22155, 13.01261], [80.22304, 13.01385], [80.22317, 13.01387], [80.22424, 13.01475], [80.22462, 13.01504], [80.2247, 13.0151], [80.22476, 13.01521], [80.22485, 13.01534], [80.22504, 13.01554], [80.22508, 13.01558], [80.22505, 13.01561], [80.22523, 13.01581], [80.2253, 13.01593], [80.22534, 13.01605], [80.22536, 13.01614], [80.22535, 13.01627], [80.22527, 13.01662], [80.22509, 13.01709], [80.22441, 13.01877], [80.22436, 13.0191], [80.22436, 13.01912], [80.2244, 13.01942], [80.22451, 13.0197], [80.22462, 13.01991], [80.22491, 13.02035], [80.22625, 13.02209], [80.22648, 13.02235], [80.22751, 13.02351], [80.22762, 13.02362], [80.22776, 13.0237], [80.22805, 13.02391], [80.22818, 13.02404], [80.22835, 13.02428], [80.22845, 13.02439], [80.22846, 13.02437], [80.22975, 13.02534], [80.22998, 13.02552], [80.23026, 13.02571], [80.23051, 13.02583], [80.23083, 13.02593], [80.23138, 13.0261], [80.23124, 13.02644], [80.23111, 13.027], [80.23098, 13.02754], [80.23097, 13.02764], [80.23079, 13.02926], [80.23075, 13.02969], [80.23073, 13.0302], [80.23065, 13.03078], [80.23058, 13.03198], [80.23042, 13.03402], [80.23038, 13.0342], [80.23002, 13.03423], [80.23002, 13.0345]]}}]}