{"type": "FeatureCollection", "features": [{"type": "Feature", "properties": {"route_name": "52G", "stop_id": "RKdbrPDM", "name": "Cowl Bazar Ration Shop", "city": "CHENNAI"}, "geometry": {"type": "Point", "coordinates": [80.15077674892368, 12.98893228034626]}}, {"type": "Feature", "properties": {"route_name": "52G", "stop_id": "xSMEiFJx", "name": "Canara Bank", "city": "CHENNAI"}, "geometry": {"type": "Point", "coordinates": [80.15153757545234, 12.98772555069385]}}, {"type": "Feature", "properties": {"route_name": "52G", "stop_id": "sCBLGZRh", "name": "Munneswaram Kovil", "city": "CHENNAI"}, "geometry": {"type": "Point", "coordinates": [80.14901501782627, 12.986629557375412]}}, {"type": "Feature", "properties": {"route_name": "52G", "stop_id": "FGOFiShc", "name": "Dr A B J Abdulkalam Nagar", "city": "CHENNAI"}, "geometry": {"type": "Point", "coordinates": [80.14812173270069, 12.984243137076605]}}, {"type": "Feature", "properties": {"route_name": "52G", "stop_id": "GVBerjzO", "name": "Moovar Nagar", "city": "CHENNAI"}, "geometry": {"type": "Point", "coordinates": [80.14620699069597, 12.982816547079219]}}, {"type": "Feature", "properties": {"route_name": "52G", "stop_id": "aKjQSLXQ", "name": "State Bank Colony", "city": "CHENNAI"}, "geometry": {"type": "Point", "coordinates": [80.14519627980839, 12.980320720511878]}}, {"type": "Feature", "properties": {"route_name": "52G", "stop_id": "OSgPLJoM", "name": "Kotandaramar Kovil", "city": "CHENNAI"}, "geometry": {"type": "Point", "coordinates": [80.14550125255496, 12.978073782467005]}}, {"type": "Feature", "properties": {"route_name": "52G", "stop_id": "kSVtcgQD", "name": "Tangarathinam Sweet Stall", "city": "CHENNAI"}, "geometry": {"type": "Point", "coordinates": [80.1451407633167, 12.976160063365263]}}, {"type": "Feature", "properties": {"route_name": "52G", "stop_id": "jqgSxfBI", "name": "Abdul Farook Sahib Street", "city": "CHENNAI"}, "geometry": {"type": "Point", "coordinates": [80.14626074125762, 12.974648527418484]}}, {"type": "Feature", "properties": {"route_name": "52G", "stop_id": "WwAFFlup", "name": "Booth S5 Pallavaram Police Station or Athithnar Ahirumanamadapam", "city": "CHENNAI"}, "geometry": {"type": "Point", "coordinates": [80.14706089648577, 12.973578730820433]}}, {"type": "Feature", "properties": {"route_name": "52G", "stop_id": "UMtqPoXD", "name": "Stephen Church", "city": "CHENNAI"}, "geometry": {"type": "Point", "coordinates": [80.14801240762108, 12.9725172732465]}}, {"type": "Feature", "properties": {"route_name": "52G", "stop_id": "oynLwMrX", "name": "Pallavaram Or English Electrical", "city": "CHENNAI"}, "geometry": {"type": "Point", "coordinates": [80.15295513672345, 12.973428089525743]}}, {"type": "Feature", "properties": {"route_name": "52G", "stop_id": "jaCrAUFK", "name": "Thirusoolam National Airport", "city": "CHENNAI"}, "geometry": {"type": "Point", "coordinates": [80.16624253999316, 12.98140932892296]}}, {"type": "Feature", "properties": {"route_name": "52G", "stop_id": "MlqbsUKu", "name": "Meeanambakkam Metro", "city": "CHENNAI"}, "geometry": {"type": "Point", "coordinates": [80.17596275118285, 12.987451127169622]}}, {"type": "Feature", "properties": {"route_name": "52G", "stop_id": "sEFLTPpt", "name": "Air Port Carco", "city": "CHENNAI"}, "geometry": {"type": "Point", "coordinates": [80.18235659068591, 12.992332279010753]}}, {"type": "Feature", "properties": {"route_name": "52G", "stop_id": "IdVewllq", "name": "Alandur Depot", "city": "CHENNAI"}, "geometry": {"type": "Point", "coordinates": [80.19045878655265, 12.997263997684392]}}, {"type": "Feature", "properties": {"route_name": "52G", "stop_id": "ntDOQspU", "name": "St Thomas Mount Head Post Office", "city": "CHENNAI"}, "geometry": {"type": "Point", "coordinates": [80.19613333882285, 13.001852214423991]}}, {"type": "Feature", "properties": {"route_name": "52G", "stop_id": "OpgRCgWV", "name": "Alandur Metro", "city": "CHENNAI"}, "geometry": {"type": "Point", "coordinates": [80.20073526, 13.0039722]}}, {"type": "Feature", "properties": {"route_name": "52G", "stop_id": "mnkgCFDT", "name": "Guindy Bus Terminus", "city": "CHENNAI"}, "geometry": {"type": "Point", "coordinates": [80.21114278309233, 13.009411553087547]}}, {"type": "Feature", "properties": {"route_name": "52G", "stop_id": "izhcStbR", "name": "MGR Medical University", "city": "CHENNAI"}, "geometry": {"type": "Point", "coordinates": [80.21683751137573, 13.010849250301476]}}, {"type": "Feature", "properties": {"route_name": "52G", "stop_id": "WOOyqinT", "name": "Chellammal College", "city": "CHENNAI"}, "geometry": {"type": "Point", "coordinates": [80.22076239073908, 13.012293483983404]}}, {"type": "Feature", "properties": {"route_name": "52G", "stop_id": "FyoAuDvn", "name": "Little Mount ", "city": "CHENNAI"}, "geometry": {"type": "Point", "coordinates": [80.2250649963828, 13.015597546918361]}}, {"type": "Feature", "properties": {"route_name": "52G", "stop_id": "QgKtWMoe", "name": "Saidapet Bridge", "city": "CHENNAI"}, "geometry": {"type": "Point", "coordinates": [80.22439996979813, 13.019674229253605]}}, {"type": "Feature", "properties": {"route_name": "52G", "stop_id": "xiTGCYEl", "name": "Saidapet", "city": "CHENNAI"}, "geometry": {"type": "Point", "coordinates": [80.22645189784225, 13.02237471448576]}}, {"type": "Feature", "properties": {"route_name": "52G", "stop_id": "yNIUaSyZ", "name": "Thadandar Nagar", "city": "CHENNAI"}, "geometry": {"type": "Point", "coordinates": [80.22842398188516, 13.024420523467967]}}, {"type": "Feature", "properties": {"route_name": "52G", "stop_id": "aKtupFtF", "name": "Munipillai Chathiram", "city": "CHENNAI"}, "geometry": {"type": "Point", "coordinates": [80.23126193406063, 13.026093648299357]}}, {"type": "Feature", "properties": {"route_name": "52G", "stop_id": "BPaRzKDq", "name": "SHB", "city": "CHENNAI"}, "geometry": {"type": "Point", "coordinates": [80.23732829872915, 13.029803742404757]}}, {"type": "Feature", "properties": {"route_name": "52G", "stop_id": "wtpxxaVe", "name": "Nandanam Military Quarters", "city": "CHENNAI"}, "geometry": {"type": "Point", "coordinates": [80.24271262104503, 13.03272548052786]}}, {"type": "Feature", "properties": {"route_name": "52G", "stop_id": "gXWkgHpG", "name": "Siet Gst", "city": "CHENNAI"}, "geometry": {"type": "Point", "coordinates": [80.24651753658839, 13.03784220281697]}}, {"type": "Feature", "properties": {"route_name": "52G", "stop_id": "HQVZivsH", "name": "Vanavil", "city": "CHENNAI"}, "geometry": {"type": "Point", "coordinates": [80.24704813596077, 13.040751202786833]}}, {"type": "Feature", "properties": {"route_name": "52G", "stop_id": "UTBcifAN", "name": "DMS", "city": "CHENNAI"}, "geometry": {"type": "Point", "coordinates": [80.24829534022649, 13.046974109023331]}}, {"type": "Feature", "properties": {"route_name": "52G", "stop_id": "wartKFZO", "name": "Thousand light Or U S Embassy", "city": "CHENNAI"}, "geometry": {"type": "Point", "coordinates": [80.25268171855373, 13.053663917222666]}}, {"type": "Feature", "properties": {"route_name": "52G", "stop_id": "suszCmcx", "name": "Anand Theatre or Thousand Light", "city": "CHENNAI"}, "geometry": {"type": "Point", "coordinates": [80.25671112714463, 13.056879507984267]}}, {"type": "Feature", "properties": {"route_name": "52G", "stop_id": "lwcIkPvE", "name": "Spensor Plaza TVS", "city": "CHENNAI"}, "geometry": {"type": "Point", "coordinates": [80.2612747814826, 13.06090035070302]}}, {"type": "Feature", "properties": {"route_name": "52G", "stop_id": "EocVuyzS", "name": "Lic", "city": "CHENNAI"}, "geometry": {"type": "Point", "coordinates": [80.26386382104317, 13.063008515983547]}}, {"type": "Feature", "properties": {"route_name": "52G", "stop_id": "lctVuVOk", "name": "Shanthi Theatre", "city": "CHENNAI"}, "geometry": {"type": "Point", "coordinates": [80.2689268934987, 13.067733478670458]}}, {"type": "Feature", "properties": {"route_name": "52G", "stop_id": "iPNesxKP", "name": "Simson Or Periyar Bridge", "city": "CHENNAI"}, "geometry": {"type": "Point", "coordinates": [80.27400513, 13.07108876]}}, {"type": "Feature", "properties": {"route_name": "52G", "stop_id": "NQaaFyOm", "name": "Pallavan Salai", "city": "CHENNAI"}, "geometry": {"type": "Point", "coordinates": [80.27618439, 13.0754805]}}, {"type": "Feature", "properties": {"route_name": "52G", "stop_id": "gzZgDndk", "name": "MGR Central Station", "city": "CHENNAI"}, "geometry": {"type": "Point", "coordinates": [80.27560345417622, 13.082012529953504]}}, {"type": "Feature", "properties": {"route_name": "52G", "stop_id": "KwaxxmSs", "name": "Nurse Quarters", "city": "CHENNAI"}, "geometry": {"type": "Point", "coordinates": [80.27896059391605, 13.082298318772699]}}, {"type": "Feature", "properties": {"route_name": "52G", "stop_id": "neNWquOh", "name": "Central Dental College", "city": "CHENNAI"}, "geometry": {"type": "Point", "coordinates": [80.28199470667641, 13.08298870082699]}}, {"type": "Feature", "properties": {"route_name": "52G", "stop_id": "EkWBPXmr", "name": "Broadway", "city": "CHENNAI"}, "geometry": {"type": "Point", "coordinates": [80.28388983, 13.08820568]}}, {"type": "Feature", "properties": {"name": "52G"}, "geometry": {"type": "LineString", "coordinates": [[80.15077, 12.98893], [80.15128, 12.98816], [80.15153, 12.98772], [80.15158, 12.9876], [80.1509, 12.98714], [80.15057, 12.98696], [80.15034, 12.98687], [80.14989, 12.98675], [80.1496, 12.9867], [80.149, 12.98667], [80.149, 12.98663], [80.14894, 12.98643], [80.14886, 12.98616], [80.14883, 12.98611], [80.14879, 12.98608], [80.14874, 12.98607], [80.14845, 12.98612], [80.14837, 12.98611], [80.14831, 12.98605], [80.14828, 12.98597], [80.14824, 12.98568], [80.14823, 12.98534], [80.14818, 12.98472], [80.14811, 12.98435], [80.14811, 12.98424], [80.14805, 12.98348], [80.14803, 12.98338], [80.14798, 12.98331], [80.14786, 12.98327], [80.14748, 12.98335], [80.14688, 12.98347], [80.14641, 12.98352], [80.14636, 12.98348], [80.14632, 12.98339], [80.14621, 12.98289], [80.14619, 12.98282], [80.1461, 12.9823], [80.14576, 12.98233], [80.14556, 12.98234], [80.1454, 12.98233], [80.14528, 12.9823], [80.14521, 12.98225], [80.14516, 12.98217], [80.14513, 12.98209], [80.14511, 12.98172], [80.14505, 12.9807], [80.145, 12.98033], [80.14519, 12.98031], [80.14587, 12.98022], [80.14581, 12.97978], [80.14574, 12.97944], [80.1455, 12.97812], [80.14549, 12.97808], [80.14526, 12.97692], [80.14511, 12.97619], [80.14513, 12.97615], [80.14527, 12.9758], [80.14555, 12.97562], [80.14574, 12.97541], [80.14604, 12.97491], [80.14625, 12.97464], [80.14706, 12.97358], [80.14751, 12.97297], [80.14779, 12.97262], [80.14791, 12.97255], [80.14798, 12.97249], [80.14845, 12.97205], [80.14875, 12.97175], [80.14941, 12.97082], [80.15056, 12.97163], [80.15117, 12.97203], [80.15118, 12.97203], [80.1512, 12.97202], [80.15126, 12.97216], [80.15139, 12.97232], [80.15201, 12.97277], [80.15297, 12.9734], [80.15423, 12.97422], [80.15565, 12.9752], [80.15711, 12.97617], [80.15787, 12.97667], [80.15844, 12.97703], [80.15851, 12.97713], [80.1586, 12.97723], [80.15993, 12.97813], [80.16023, 12.97833], [80.16107, 12.97895], [80.16182, 12.97946], [80.16225, 12.97976], [80.16259, 12.97993], [80.16277, 12.98003], [80.16398, 12.98032], [80.16455, 12.9805], [80.16483, 12.98061], [80.16538, 12.98088], [80.1657, 12.98106], [80.16626, 12.98138], [80.16705, 12.98183], [80.16803, 12.98241], [80.16899, 12.98299], [80.17017, 12.98368], [80.17121, 12.98429], [80.17136, 12.98436], [80.17152, 12.98438], [80.17294, 12.98532], [80.17376, 12.98591], [80.17483, 12.98663], [80.17598, 12.98743], [80.17601, 12.98745], [80.17885, 12.98958], [80.18036, 12.99073], [80.18095, 12.99121], [80.1824, 12.99227], [80.18269, 12.99253], [80.18296, 12.9927], [80.1854, 12.99404], [80.18692, 12.99485], [80.18854, 12.99567], [80.1891, 12.99602], [80.18941, 12.99626], [80.18957, 12.99638], [80.18982, 12.99662], [80.19034, 12.99712], [80.19049, 12.99723], [80.19097, 12.99759], [80.19139, 12.99794], [80.19198, 12.99844], [80.19244, 12.99879], [80.19422, 13.00017], [80.19505, 13.00082], [80.19579, 13.00144], [80.19619, 13.00178], [80.19649, 13.00199], [80.19671, 13.00212], [80.19706, 13.00219], [80.19743, 13.00217], [80.19825, 13.00203], [80.19894, 13.00188], [80.19929, 13.00183], [80.19963, 13.00187], [80.19992, 13.00197], [80.20014, 13.0021], [80.20033, 13.00229], [80.20046, 13.00248], [80.20052, 13.00261], [80.20071, 13.00325], [80.20087, 13.00394], [80.20097, 13.00432], [80.20112, 13.00476], [80.2012, 13.00493], [80.20124, 13.00502], [80.20135, 13.00515], [80.20155, 13.00538], [80.20177, 13.00559], [80.20206, 13.0058], [80.20233, 13.00593], [80.20256, 13.00605], [80.20269, 13.00613], [80.2028, 13.00623], [80.20305, 13.00649], [80.20319, 13.00667], [80.20339, 13.00701], [80.20353, 13.00735], [80.20361, 13.00766], [80.20366, 13.00801], [80.20366, 13.00816], [80.20361, 13.00825], [80.20348, 13.00839], [80.20332, 13.00846], [80.20321, 13.00846], [80.20296, 13.00841], [80.20286, 13.00833], [80.20274, 13.00815], [80.20272, 13.00799], [80.20277, 13.00782], [80.20284, 13.00773], [80.20298, 13.00764], [80.20307, 13.00761], [80.20327, 13.0076], [80.2039, 13.00766], [80.20428, 13.00769], [80.20541, 13.00768], [80.20553, 13.00773], [80.20582, 13.00773], [80.20603, 13.00775], [80.20615, 13.00779], [80.20699, 13.00793], [80.20863, 13.00811], [80.2094, 13.00827], [80.20984, 13.00838], [80.21034, 13.00854], [80.21103, 13.00944], [80.21111, 13.00937], [80.21142, 13.00912], [80.2115, 13.00908], [80.21171, 13.00905], [80.21202, 13.00917], [80.21236, 13.00926], [80.21301, 13.0095], [80.21447, 13.0101], [80.2146, 13.01015], [80.21487, 13.01018], [80.21549, 13.01027], [80.21567, 13.01031], [80.21585, 13.01038], [80.21671, 13.01077], [80.21684, 13.01084], [80.21745, 13.01116], [80.21795, 13.01135], [80.21865, 13.01159], [80.21928, 13.01181], [80.21987, 13.01199], [80.22078, 13.01227], [80.22127, 13.01248], [80.22154, 13.01262], [80.2219, 13.0129], [80.22301, 13.01383], [80.22317, 13.01387], [80.22395, 13.01453], [80.22468, 13.01514], [80.22472, 13.01525], [80.22503, 13.0156], [80.22505, 13.01561], [80.22523, 13.01581], [80.2253, 13.01593], [80.22534, 13.01605], [80.22536, 13.01614], [80.22535, 13.01627], [80.22527, 13.01662], [80.22509, 13.01709], [80.22441, 13.01877], [80.22436, 13.0191], [80.2244, 13.01942], [80.22449, 13.01964], [80.22465, 13.01996], [80.22491, 13.02035], [80.22576, 13.02146], [80.22625, 13.02209], [80.22648, 13.02235], [80.22732, 13.02333], [80.22785, 13.02386], [80.22846, 13.02437], [80.22848, 13.02439], [80.22975, 13.02534], [80.22998, 13.02552], [80.23026, 13.02571], [80.23051, 13.02583], [80.23083, 13.02593], [80.23127, 13.02607], [80.23172, 13.02619], [80.23215, 13.02629], [80.23238, 13.02637], [80.2328, 13.02654], [80.23305, 13.02669], [80.23332, 13.02681], [80.23453, 13.02752], [80.23532, 13.02797], [80.2354, 13.02801], [80.23593, 13.02846], [80.23618, 13.02868], [80.23664, 13.02914], [80.23692, 13.02937], [80.23739, 13.02971], [80.23732, 13.02979], [80.23739, 13.02971], [80.23784, 13.02999], [80.23842, 13.03035], [80.23973, 13.0311], [80.24065, 13.03158], [80.24192, 13.03216], [80.24269, 13.03262], [80.24275, 13.03266], [80.24314, 13.03292], [80.24332, 13.03307], [80.24339, 13.03317], [80.24356, 13.03331], [80.24443, 13.03397], [80.24486, 13.0343], [80.24554, 13.0348], [80.24577, 13.03502], [80.24586, 13.03514], [80.24592, 13.03527], [80.24617, 13.03626], [80.24639, 13.03713], [80.24653, 13.03784], [80.24661, 13.03823], [80.24684, 13.03911], [80.24692, 13.03949], [80.24715, 13.04073], [80.2473, 13.04156], [80.24739, 13.04195], [80.24752, 13.04254], [80.24808, 13.04542], [80.24834, 13.04682], [80.24837, 13.04695], [80.24844, 13.04719], [80.24852, 13.04735], [80.24885, 13.04772], [80.24929, 13.04819], [80.24955, 13.04855], [80.24962, 13.04879], [80.24973, 13.0494], [80.24977, 13.04982], [80.25003, 13.0511], [80.25009, 13.05128], [80.25024, 13.05159], [80.25052, 13.05202], [80.25065, 13.05214], [80.25098, 13.05241], [80.25168, 13.0529], [80.2527, 13.05365], [80.2538, 13.05448], [80.25428, 13.05485], [80.25492, 13.05532], [80.25563, 13.05584], [80.25618, 13.05625], [80.25646, 13.05649], [80.25666, 13.0567], [80.25672, 13.05677], [80.25682, 13.0569], [80.25677, 13.05694], [80.25672, 13.05687], [80.25677, 13.05694], [80.25682, 13.0569], [80.25707, 13.05717], [80.2575, 13.05763], [80.25811, 13.05813], [80.25879, 13.05864], [80.25925, 13.05906], [80.25967, 13.0594], [80.26022, 13.05986], [80.26095, 13.06047], [80.26134, 13.06078], [80.26137, 13.06087], [80.26134, 13.06078], [80.26152, 13.06091], [80.26261, 13.06185], [80.26297, 13.06215], [80.26346, 13.06254], [80.26395, 13.06291], [80.26536, 13.06405], [80.2657, 13.06439], [80.2664, 13.06496], [80.26734, 13.06569], [80.26817, 13.06631], [80.26831, 13.06654], [80.26841, 13.06682], [80.26898, 13.06771], [80.2693, 13.06829], [80.26945, 13.0683], [80.26988, 13.06823], [80.27032, 13.06821], [80.27085, 13.06819], [80.27125, 13.06816], [80.27169, 13.06846], [80.27179, 13.06857], [80.27187, 13.06874], [80.2721, 13.0692], [80.27224, 13.06939], [80.27235, 13.06952], [80.27278, 13.06986], [80.27391, 13.07078], [80.27403, 13.07108], [80.27435, 13.07177], [80.27459, 13.07208], [80.27497, 13.07243], [80.27636, 13.07371], [80.27632, 13.07398], [80.27623, 13.07516], [80.27622, 13.07548], [80.27622, 13.0771], [80.27617, 13.0779], [80.27614, 13.07801], [80.27607, 13.07809], [80.27593, 13.07815], [80.27561, 13.07825], [80.27538, 13.07835], [80.27523, 13.0785], [80.27519, 13.07858], [80.27515, 13.07871], [80.27515, 13.07888], [80.27521, 13.07918], [80.27529, 13.07958], [80.27532, 13.07976], [80.27532, 13.07986], [80.27516, 13.08159], [80.27516, 13.08171], [80.27522, 13.08188], [80.27524, 13.08193], [80.27531, 13.08195], [80.27552, 13.082], [80.2756, 13.08201], [80.27584, 13.08203], [80.27592, 13.08202], [80.276, 13.08189], [80.27602, 13.08185], [80.27627, 13.08188], [80.2766, 13.08194], [80.27788, 13.08206], [80.27844, 13.08213], [80.27897, 13.08218], [80.28088, 13.08236], [80.28122, 13.08238], [80.28166, 13.08237], [80.28177, 13.08254], [80.28205, 13.08296], [80.28253, 13.08375], [80.28303, 13.08448], [80.28334, 13.08483], [80.28366, 13.08506], [80.28407, 13.08533], [80.2843, 13.08545], [80.28452, 13.08553], [80.28474, 13.08648], [80.28509, 13.08786], [80.28522, 13.08839], [80.28479, 13.08839], [80.28416, 13.08837], [80.28388, 13.08836]]}}]}