{"type": "FeatureCollection", "features": [{"type": "Feature", "properties": {"route_name": "57D", "stop_id": "AmGPOhem", "name": "Poochi Athipet", "city": "CHENNAI"}, "geometry": {"type": "Point", "coordinates": [80.08736454410769, 13.212670547295794]}}, {"type": "Feature", "properties": {"route_name": "57D", "stop_id": "IMzgpfjO", "name": "Vanianchathiram", "city": "CHENNAI"}, "geometry": {"type": "Point", "coordinates": [80.09328301158689, 13.211796570362175]}}, {"type": "Feature", "properties": {"route_name": "57D", "stop_id": "BsiptQCD", "name": "Alamathi Sub Station", "city": "CHENNAI"}, "geometry": {"type": "Point", "coordinates": [80.09945942082413, 13.210363662787994]}}, {"type": "Feature", "properties": {"route_name": "57D", "stop_id": "LroBKvWh", "name": "Alamathi", "city": "CHENNAI"}, "geometry": {"type": "Point", "coordinates": [80.1094000366495, 13.207912605813373]}}, {"type": "Feature", "properties": {"route_name": "57D", "stop_id": "AjvyZYOZ", "name": "Alamathi Cattle Farm", "city": "CHENNAI"}, "geometry": {"type": "Point", "coordinates": [80.11723585388302, 13.20595511691199]}}, {"type": "Feature", "properties": {"route_name": "57D", "stop_id": "HKxWWoBG", "name": "Eswaran Temple", "city": "CHENNAI"}, "geometry": {"type": "Point", "coordinates": [80.13049290266838, 13.20280660575017]}}, {"type": "Feature", "properties": {"route_name": "57D", "stop_id": "xRIuSSHV", "name": "Edapalayam", "city": "CHENNAI"}, "geometry": {"type": "Point", "coordinates": [80.13885473773018, 13.202476217580296]}}, {"type": "Feature", "properties": {"route_name": "57D", "stop_id": "lqTAOmVV", "name": "Jeeva Nagar", "city": "CHENNAI"}, "geometry": {"type": "Point", "coordinates": [80.14318012941021, 13.201269456540507]}}, {"type": "Feature", "properties": {"route_name": "57D", "stop_id": "WwbQwfXi", "name": "Rajakalam", "city": "CHENNAI"}, "geometry": {"type": "Point", "coordinates": [80.15404134447658, 13.198287662522288]}}, {"type": "Feature", "properties": {"route_name": "57D", "stop_id": "aHDoehBY", "name": "Gandhi Nagar West", "city": "CHENNAI"}, "geometry": {"type": "Point", "coordinates": [80.16095321359546, 13.196720672446993]}}, {"type": "Feature", "properties": {"route_name": "57D", "stop_id": "vPrJwoLq", "name": "Bammedukulam", "city": "CHENNAI"}, "geometry": {"type": "Point", "coordinates": [80.16357577004749, 13.196171120698684]}}, {"type": "Feature", "properties": {"route_name": "57D", "stop_id": "jUExBSiR", "name": "Gandhi Nagar Redhills", "city": "CHENNAI"}, "geometry": {"type": "Point", "coordinates": [80.16822268498458, 13.195207707634777]}}, {"type": "Feature", "properties": {"route_name": "57D", "stop_id": "FltmFbyo", "name": "Alamaram Red Hills", "city": "CHENNAI"}, "geometry": {"type": "Point", "coordinates": [80.17456578024917, 13.194392251286814]}}, {"type": "Feature", "properties": {"route_name": "57D", "stop_id": "AFcMAvOI", "name": "Elite Matriculation Higher Secondary", "city": "CHENNAI"}, "geometry": {"type": "Point", "coordinates": [80.17704170852721, 13.195163022384492]}}, {"type": "Feature", "properties": {"route_name": "57D", "stop_id": "dfrJZjmW", "name": "Red Hills Thiruvallur Road Junction", "city": "CHENNAI"}, "geometry": {"type": "Point", "coordinates": [80.1809494600792, 13.196380695698698]}}, {"type": "Feature", "properties": {"route_name": "57D", "stop_id": "NjRgIRup", "name": "Redhills Bus Terminus", "city": "CHENNAI"}, "geometry": {"type": "Point", "coordinates": [80.18436916240239, 13.193055667425153]}}, {"type": "Feature", "properties": {"route_name": "57D", "stop_id": "twlwLPZj", "name": "Redhills Market", "city": "CHENNAI"}, "geometry": {"type": "Point", "coordinates": [80.18746140869393, 13.189656443166843]}}, {"type": "Feature", "properties": {"route_name": "57D", "stop_id": "oXDhDxhT", "name": "Ayurveda Ashramam", "city": "CHENNAI"}, "geometry": {"type": "Point", "coordinates": [80.19163019178984, 13.184532073335602]}}, {"type": "Feature", "properties": {"route_name": "57D", "stop_id": "AKEMZMhk", "name": "Sri Nallaghu Polytechnic College", "city": "CHENNAI"}, "geometry": {"type": "Point", "coordinates": [80.19489143132, 13.178770017600861]}}, {"type": "Feature", "properties": {"route_name": "57D", "stop_id": "IWuAfYeM", "name": "Thandal Kazhani", "city": "CHENNAI"}, "geometry": {"type": "Point", "coordinates": [80.1963990238952, 13.176024187726195]}}, {"type": "Feature", "properties": {"route_name": "57D", "stop_id": "aCcokpIU", "name": "Kavangarai", "city": "CHENNAI"}, "geometry": {"type": "Point", "coordinates": [80.19951553290468, 13.170491280980686]}}, {"type": "Feature", "properties": {"route_name": "57D", "stop_id": "hTBkjNzq", "name": "Puzhal Jail", "city": "CHENNAI"}, "geometry": {"type": "Point", "coordinates": [80.2026735613066, 13.163860200988898]}}, {"type": "Feature", "properties": {"route_name": "57D", "stop_id": "MyzUerZz", "name": "Puzhal Camp", "city": "CHENNAI"}, "geometry": {"type": "Point", "coordinates": [80.2039709006117, 13.158033138726143]}}, {"type": "Feature", "properties": {"route_name": "57D", "stop_id": "WlkKexEs", "name": "Kathirvedu Bypass or Cycgle Shop", "city": "CHENNAI"}, "geometry": {"type": "Point", "coordinates": [80.20837754, 13.15341405]}}, {"type": "Feature", "properties": {"route_name": "57D", "stop_id": "WKWTpoqQ", "name": "MMBT", "city": "CHENNAI"}, "geometry": {"type": "Point", "coordinates": [80.221506, 13.145276]}}, {"type": "Feature", "properties": {"route_name": "57D", "stop_id": "HEshVETB", "name": "Madhavaram Rountana", "city": "CHENNAI"}, "geometry": {"type": "Point", "coordinates": [80.2210846887445, 13.144021064037789]}}, {"type": "Feature", "properties": {"route_name": "57D", "stop_id": "udKeccMr", "name": "ACT", "city": "CHENNAI"}, "geometry": {"type": "Point", "coordinates": [80.22507576877467, 13.141159760811275]}}, {"type": "Feature", "properties": {"route_name": "57D", "stop_id": "XiRzIewe", "name": "Kalpana Lamps", "city": "CHENNAI"}, "geometry": {"type": "Point", "coordinates": [80.22790465024332, 13.138967850490712]}}, {"type": "Feature", "properties": {"route_name": "57D", "stop_id": "MjMnNBLG", "name": "Kanagachathiram", "city": "CHENNAI"}, "geometry": {"type": "Point", "coordinates": [80.23066447021176, 13.136911983395075]}}, {"type": "Feature", "properties": {"route_name": "57D", "stop_id": "DzkWADkh", "name": "Madhavaram Bus Depot", "city": "CHENNAI"}, "geometry": {"type": "Point", "coordinates": [80.2368966773438, 13.132365607900088]}}, {"type": "Feature", "properties": {"route_name": "57D", "stop_id": "gmiMCrrb", "name": "Moolakadai", "city": "CHENNAI"}, "geometry": {"type": "Point", "coordinates": [80.24219409350441, 13.12866686138104]}}, {"type": "Feature", "properties": {"route_name": "57D", "stop_id": "EdJUuxct", "name": "Erukancherry", "city": "CHENNAI"}, "geometry": {"type": "Point", "coordinates": [80.24720438512168, 13.124645096457845]}}, {"type": "Feature", "properties": {"route_name": "57D", "stop_id": "tWpVdCtj", "name": "Erukkancheri Toll Gate", "city": "CHENNAI"}, "geometry": {"type": "Point", "coordinates": [80.25120870835246, 13.122133843123352]}}, {"type": "Feature", "properties": {"route_name": "57D", "stop_id": "ArHpJhVJ", "name": "Sharma Nagar", "city": "CHENNAI"}, "geometry": {"type": "Point", "coordinates": [80.25477967688948, 13.120392800128268]}}, {"type": "Feature", "properties": {"route_name": "57D", "stop_id": "tBNXSyMW", "name": "Ambedkar College Vyasarpadi", "city": "CHENNAI"}, "geometry": {"type": "Point", "coordinates": [80.25941807837467, 13.118546041090246]}}, {"type": "Feature", "properties": {"route_name": "57D", "stop_id": "mwLqHxae", "name": "M K B Nagar", "city": "CHENNAI"}, "geometry": {"type": "Point", "coordinates": [80.2597728426275, 13.123029542520548]}}, {"type": "Feature", "properties": {"route_name": "57D", "stop_id": "cMinRgYB", "name": "Mullai Nagar Bus Stand", "city": "CHENNAI"}, "geometry": {"type": "Point", "coordinates": [80.26585474294815, 13.12235573493373]}}, {"type": "Feature", "properties": {"route_name": "57D", "stop_id": "ZBkAAevT", "name": "Vyasarpadi Sathiyamoorthy Nagar", "city": "CHENNAI"}, "geometry": {"type": "Point", "coordinates": [80.26580970574355, 13.119531819599631]}}, {"type": "Feature", "properties": {"route_name": "57D", "stop_id": "kZdBhxvo", "name": "Vyasarpadi Ashok Pillar", "city": "CHENNAI"}, "geometry": {"type": "Point", "coordinates": [80.26574993496206, 13.115407047727002]}}, {"type": "Feature", "properties": {"route_name": "57D", "stop_id": "awOEKaEj", "name": "Ramalingapuram Toll", "city": "CHENNAI"}, "geometry": {"type": "Point", "coordinates": [80.26735193234299, 13.10905860209348]}}, {"type": "Feature", "properties": {"route_name": "57D", "stop_id": "qdrjbHYS", "name": "Vallalar Nagar Bus Depot", "city": "CHENNAI"}, "geometry": {"type": "Point", "coordinates": [80.27580342110537, 13.1045538453887]}}, {"type": "Feature", "properties": {"route_name": "57D", "stop_id": "ozAxYCwR", "name": "Mint Bus Terminal Or Vallalar Nagar", "city": "CHENNAI"}, "geometry": {"type": "Point", "coordinates": [80.28041600750136, 13.105781404477456]}}, {"type": "Feature", "properties": {"route_name": "57D", "stop_id": "yolIeCeg", "name": "Stanley Hospital", "city": "CHENNAI"}, "geometry": {"type": "Point", "coordinates": [80.28438249586668, 13.105075135976971]}}, {"type": "Feature", "properties": {"route_name": "57D", "stop_id": "GXHjZCTL", "name": "Bharathi Arts College", "city": "CHENNAI"}, "geometry": {"type": "Point", "coordinates": [80.28767037, 13.10411462]}}, {"type": "Feature", "properties": {"route_name": "57D", "stop_id": "DeduXMzE", "name": "Thambu Chetty Street", "city": "CHENNAI"}, "geometry": {"type": "Point", "coordinates": [80.29015798103785, 13.103022730539406]}}, {"type": "Feature", "properties": {"route_name": "57D", "stop_id": "udlIzhJE", "name": "Clive Battery", "city": "CHENNAI"}, "geometry": {"type": "Point", "coordinates": [80.29398430861647, 13.099302796304345]}}, {"type": "Feature", "properties": {"route_name": "57D", "stop_id": "OsBkWRQx", "name": "Beach Station", "city": "CHENNAI"}, "geometry": {"type": "Point", "coordinates": [80.29227074, 13.09407689]}}, {"type": "Feature", "properties": {"route_name": "57D", "stop_id": "TsaeiIGv", "name": "Parrys Corner", "city": "CHENNAI"}, "geometry": {"type": "Point", "coordinates": [80.29078394, 13.08959104]}}, {"type": "Feature", "properties": {"route_name": "57D", "stop_id": "EkWBPXmr", "name": "Broadway", "city": "CHENNAI"}, "geometry": {"type": "Point", "coordinates": [80.28388983, 13.08820568]}}, {"type": "Feature", "properties": {"name": "57D"}, "geometry": {"type": "LineString", "coordinates": [[80.08836, 13.21263], [80.08972, 13.21247], [80.09061, 13.21231], [80.09211, 13.21203], [80.09325, 13.21176], [80.09337, 13.21171], [80.09328, 13.21177], [80.09524, 13.21135], [80.09654, 13.21104], [80.09825, 13.21061], [80.09945, 13.21032], [80.10236, 13.2096], [80.1038, 13.20925], [80.10527, 13.20886], [80.10594, 13.20871], [80.10687, 13.20846], [80.10799, 13.20819], [80.10939, 13.20788], [80.10967, 13.2078], [80.11091, 13.20753], [80.11209, 13.20722], [80.1124, 13.20712], [80.11476, 13.20652], [80.11717, 13.2059], [80.11722, 13.20589], [80.12496, 13.204], [80.1269, 13.2035], [80.12895, 13.20304], [80.12959, 13.20291], [80.13049, 13.20279], [80.13452, 13.2026], [80.13686, 13.20252], [80.13884, 13.20244], [80.13885, 13.20244], [80.13904, 13.20242], [80.13937, 13.20234], [80.14178, 13.20163], [80.14317, 13.20123], [80.14443, 13.20089], [80.14663, 13.20026], [80.14789, 13.19991], [80.14963, 13.19944], [80.15114, 13.19902], [80.1523, 13.19871], [80.15401, 13.19827], [80.15403, 13.19826], [80.15671, 13.1976], [80.15826, 13.19729], [80.16015, 13.19686], [80.16079, 13.19672], [80.16095, 13.1967], [80.1617, 13.19655], [80.16262, 13.19637], [80.16305, 13.19626], [80.16357, 13.19615], [80.1636, 13.19614], [80.1649, 13.19585], [80.16625, 13.19557], [80.16813, 13.19514], [80.16816, 13.19523], [80.1682, 13.19513], [80.16931, 13.19493], [80.17055, 13.19467], [80.17102, 13.19453], [80.17151, 13.19442], [80.17239, 13.19415], [80.17298, 13.19396], [80.17335, 13.19389], [80.17357, 13.19391], [80.17383, 13.19401], [80.174, 13.1941], [80.17434, 13.1943], [80.17449, 13.19435], [80.17457, 13.19437], [80.17551, 13.19463], [80.17604, 13.19483], [80.17704, 13.19516], [80.17828, 13.19553], [80.17914, 13.19576], [80.17998, 13.19603], [80.18096, 13.19636], [80.18102, 13.19641], [80.18107, 13.19647], [80.18106, 13.19648], [80.18107, 13.19649], [80.18108, 13.19652], [80.18112, 13.19654], [80.18117, 13.19653], [80.18119, 13.19651], [80.18119, 13.1965], [80.18119, 13.19647], [80.18138, 13.19626], [80.18215, 13.1954], [80.18253, 13.19499], [80.18293, 13.19455], [80.18332, 13.19417], [80.18434, 13.19303], [80.18436, 13.19301], [80.18546, 13.19185], [80.18631, 13.19087], [80.18743, 13.18963], [80.18794, 13.18905], [80.18796, 13.18899], [80.18818, 13.18874], [80.18848, 13.18843], [80.18889, 13.18806], [80.1891, 13.1879], [80.18922, 13.18786], [80.18926, 13.18783], [80.18938, 13.18773], [80.18953, 13.18756], [80.18962, 13.18741], [80.18992, 13.18668], [80.19006, 13.18636], [80.19016, 13.18622], [80.19026, 13.18611], [80.19055, 13.18586], [80.19072, 13.18571], [80.1909, 13.18552], [80.19115, 13.18518], [80.19135, 13.1849], [80.1915, 13.18466], [80.19159, 13.18451], [80.1917, 13.18431], [80.19177, 13.18425], [80.19181, 13.18423], [80.19203, 13.18421], [80.19224, 13.18411], [80.19228, 13.18403], [80.19239, 13.18354], [80.19264, 13.18283], [80.19286, 13.18236], [80.1931, 13.1819], [80.19355, 13.18114], [80.19441, 13.17959], [80.19487, 13.17876], [80.19639, 13.17602], [80.19787, 13.17338], [80.19949, 13.17048], [80.20021, 13.16918], [80.2005, 13.16869], [80.20077, 13.16817], [80.2012, 13.16745], [80.20157, 13.16678], [80.20175, 13.16647], [80.20205, 13.16583], [80.20225, 13.16531], [80.20258, 13.16412], [80.20264, 13.16385], [80.20275, 13.16343], [80.20295, 13.16259], [80.20304, 13.16211], [80.20312, 13.1616], [80.20334, 13.16044], [80.20341, 13.15996], [80.2035, 13.15957], [80.20376, 13.15871], [80.20375, 13.15866], [80.20371, 13.1586], [80.20374, 13.15855], [80.20381, 13.15834], [80.20394, 13.15802], [80.20395, 13.15802], [80.20423, 13.15744], [80.2044, 13.15715], [80.20449, 13.1571], [80.20455, 13.15705], [80.20498, 13.15643], [80.20521, 13.15613], [80.20568, 13.1556], [80.20593, 13.15534], [80.2066, 13.15473], [80.20807, 13.15362], [80.20836, 13.15339], [80.20888, 13.15301], [80.20928, 13.15269], [80.20925, 13.15263], [80.20955, 13.1524], [80.20983, 13.15219], [80.21106, 13.15127], [80.21232, 13.15031], [80.21453, 13.14864], [80.21638, 13.14732], [80.21773, 13.14637], [80.21821, 13.146], [80.21928, 13.14522], [80.21949, 13.14512], [80.21966, 13.14505], [80.21989, 13.14502], [80.21997, 13.14506], [80.22006, 13.14507], [80.22023, 13.14506], [80.22038, 13.14499], [80.2205, 13.14488], [80.22059, 13.14474], [80.22061, 13.14463], [80.22086, 13.14413], [80.22125, 13.14382], [80.22238, 13.14296], [80.22299, 13.1444], [80.22276, 13.14452], [80.22207, 13.14479], [80.22179, 13.1449], [80.22207, 13.14479], [80.22215, 13.14506], [80.22297, 13.14697], [80.22152, 13.14755], [80.22091, 13.14607], [80.2206, 13.14528], [80.22059, 13.14509], [80.2206, 13.14472], [80.22061, 13.14466], [80.2208, 13.14423], [80.22086, 13.14413], [80.22105, 13.14397], [80.22198, 13.14327], [80.22238, 13.14296], [80.2228, 13.14267], [80.2232, 13.14238], [80.22487, 13.14115], [80.225, 13.14106], [80.22788, 13.13894], [80.22933, 13.13788], [80.23064, 13.13688], [80.23193, 13.13593], [80.2339, 13.1345], [80.23432, 13.13415], [80.23566, 13.13319], [80.23686, 13.13232], [80.23771, 13.13177], [80.23851, 13.1312], [80.23908, 13.13077], [80.23939, 13.13062], [80.23969, 13.1304], [80.24142, 13.12914], [80.24217, 13.12864], [80.24261, 13.12831], [80.24278, 13.12823], [80.24386, 13.12741], [80.244, 13.12727], [80.24404, 13.1272], [80.24469, 13.12671], [80.24636, 13.12542], [80.24696, 13.12482], [80.24718, 13.12462], [80.24763, 13.12419], [80.24836, 13.12357], [80.24885, 13.12318], [80.24909, 13.123], [80.24929, 13.1229], [80.24959, 13.12279], [80.25018, 13.12255], [80.2512, 13.12211], [80.25178, 13.12188], [80.25234, 13.12172], [80.25287, 13.1216], [80.25316, 13.12151], [80.25347, 13.1214], [80.25368, 13.12131], [80.25393, 13.12114], [80.25425, 13.12085], [80.25469, 13.12045], [80.25475, 13.12037], [80.25502, 13.12008], [80.25559, 13.11969], [80.25623, 13.11934], [80.25681, 13.11905], [80.25708, 13.11894], [80.25787, 13.11875], [80.25869, 13.11857], [80.25942, 13.11844], [80.25943, 13.11855], [80.25927, 13.12145], [80.25922, 13.12301], [80.25977, 13.123], [80.2598, 13.123], [80.26343, 13.12291], [80.26526, 13.12289], [80.26575, 13.12288], [80.26578, 13.12266], [80.26576, 13.12232], [80.26585, 13.12232], [80.26585, 13.12216], [80.26578, 13.12137], [80.26574, 13.12053], [80.26571, 13.11996], [80.26567, 13.11987], [80.26581, 13.11945], [80.26574, 13.11953], [80.26573, 13.11819], [80.26569, 13.11654], [80.26573, 13.11541], [80.26572, 13.11484], [80.26566, 13.11413], [80.26563, 13.11368], [80.26563, 13.11227], [80.26562, 13.11166], [80.26564, 13.11115], [80.26571, 13.11096], [80.26641, 13.11009], [80.26665, 13.1098], [80.26736, 13.10906], [80.26779, 13.10862], [80.26872, 13.1077], [80.26909, 13.10736], [80.26975, 13.10668], [80.27076, 13.10568], [80.27086, 13.10554], [80.27099, 13.10528], [80.27132, 13.10457], [80.27136, 13.10452], [80.27144, 13.10449], [80.27186, 13.10437], [80.27197, 13.1043], [80.27225, 13.10407], [80.2724, 13.10394], [80.2725, 13.10389], [80.2726, 13.10387], [80.2727, 13.10388], [80.27288, 13.1039], [80.27343, 13.10402], [80.27429, 13.10412], [80.27505, 13.10428], [80.27527, 13.10433], [80.27549, 13.10441], [80.27582, 13.10452], [80.27728, 13.10501], [80.27781, 13.10523], [80.27891, 13.10554], [80.27962, 13.10568], [80.27973, 13.10581], [80.27996, 13.10582], [80.28004, 13.10579], [80.28015, 13.1057], [80.28039, 13.10567], [80.28041, 13.10566], [80.28089, 13.10564], [80.2821, 13.10551], [80.28216, 13.10548], [80.28219, 13.10544], [80.28257, 13.10536], [80.28371, 13.10517], [80.28405, 13.10509], [80.28438, 13.10505], [80.28438, 13.10503], [80.28527, 13.10488], [80.28551, 13.10484], [80.28571, 13.10475], [80.28643, 13.10454], [80.28675, 13.10449], [80.28677, 13.1045], [80.28679, 13.1045], [80.28688, 13.10448], [80.28692, 13.10445], [80.28694, 13.1044], [80.28715, 13.10428], [80.28766, 13.10408], [80.28814, 13.10387], [80.28882, 13.10356], [80.28952, 13.10322], [80.28984, 13.10307], [80.28996, 13.10303], [80.29003, 13.10304], [80.29008, 13.10303], [80.29015, 13.103], [80.2904, 13.10291], [80.29051, 13.10292], [80.29056, 13.10294], [80.29061, 13.10299], [80.29066, 13.10308], [80.29079, 13.10353], [80.29089, 13.10424], [80.29089, 13.105], [80.29102, 13.10588], [80.29133, 13.10595], [80.29206, 13.10601], [80.29257, 13.10612], [80.29291, 13.10612], [80.29301, 13.10608], [80.29332, 13.10595], [80.29419, 13.10566], [80.2949, 13.10538], [80.29507, 13.10529], [80.29519, 13.10519], [80.29526, 13.1051], [80.2953, 13.10502], [80.29533, 13.10486], [80.29534, 13.10476], [80.29531, 13.10456], [80.29477, 13.10292], [80.29468, 13.10262], [80.29465, 13.10254], [80.29462, 13.10226], [80.2944, 13.10121], [80.29425, 13.10046], [80.29416, 13.09997], [80.29406, 13.09965], [80.29396, 13.09931], [80.29394, 13.09931], [80.29373, 13.09859], [80.29332, 13.09735], [80.29285, 13.096], [80.29267, 13.09546], [80.29258, 13.0951], [80.29224, 13.09409], [80.29161, 13.09214], [80.29083, 13.08977], [80.29076, 13.0896], [80.28998, 13.08772], [80.28946, 13.08597], [80.28926, 13.08569], [80.28898, 13.08554], [80.28857, 13.08528], [80.288, 13.08514], [80.28608, 13.08528], [80.28452, 13.08534], [80.2847, 13.08628], [80.28497, 13.08743], [80.28442, 13.08753], [80.28392, 13.08758]]}}]}