{"type": "FeatureCollection", "features": [{"type": "Feature", "properties": {"route_name": "7K", "stop_id": "xNZaRIgt", "name": "Padi Kuppam", "city": "CHENNAI"}, "geometry": {"type": "Point", "coordinates": [80.18849834893592, 13.076146348711413]}}, {"type": "Feature", "properties": {"route_name": "7K", "stop_id": "UGBZhghN", "name": "Annai Flats", "city": "CHENNAI"}, "geometry": {"type": "Point", "coordinates": [80.1922890789574, 13.08418160050331]}}, {"type": "Feature", "properties": {"route_name": "7K", "stop_id": "PIUpvPaY", "name": "Thirumangalam EB Office", "city": "CHENNAI"}, "geometry": {"type": "Point", "coordinates": [80.19756840067225, 13.087322925887744]}}, {"type": "Feature", "properties": {"route_name": "7K", "stop_id": "SfxDAXEq", "name": "Thirumangalam Or Sunguvarchattram", "city": "CHENNAI"}, "geometry": {"type": "Point", "coordinates": [80.19909876, 13.08546828]}}, {"type": "Feature", "properties": {"route_name": "7K", "stop_id": "GtaXwPrK", "name": "12th Main Road", "city": "CHENNAI"}, "geometry": {"type": "Point", "coordinates": [80.20464566132978, 13.085243349131467]}}, {"type": "Feature", "properties": {"route_name": "7K", "stop_id": "uSZbdBno", "name": "Blue Star", "city": "CHENNAI"}, "geometry": {"type": "Point", "coordinates": [80.21156534, 13.08502072]}}, {"type": "Feature", "properties": {"route_name": "7K", "stop_id": "VJibZvbS", "name": "Anna Nagar Roundtana", "city": "CHENNAI"}, "geometry": {"type": "Point", "coordinates": [80.21696497499067, 13.0847518506962]}}, {"type": "Feature", "properties": {"route_name": "7K", "stop_id": "bdIbpKdP", "name": "Anna Nagar East Metro Station", "city": "CHENNAI"}, "geometry": {"type": "Point", "coordinates": [80.21982796331599, 13.084684674531335]}}, {"type": "Feature", "properties": {"route_name": "7K", "stop_id": "pYVbvizw", "name": "Chinthamani", "city": "CHENNAI"}, "geometry": {"type": "Point", "coordinates": [80.22453681255024, 13.08461877766061]}}, {"type": "Feature", "properties": {"route_name": "7K", "stop_id": "qVoRAqeW", "name": "Bala Vihar", "city": "CHENNAI"}, "geometry": {"type": "Point", "coordinates": [80.22990074555184, 13.083189499097795]}}, {"type": "Feature", "properties": {"route_name": "7K", "stop_id": "NZGnRwVn", "name": "Kilpauk Garden", "city": "CHENNAI"}, "geometry": {"type": "Point", "coordinates": [80.23310077, 13.08352591]}}, {"type": "Feature", "properties": {"route_name": "7K", "stop_id": "MzWshIAL", "name": "Mummy Daddy", "city": "CHENNAI"}, "geometry": {"type": "Point", "coordinates": [80.24176788, 13.08307311]}}, {"type": "Feature", "properties": {"route_name": "7K", "stop_id": "SqxhBMol", "name": "Motcham Aysha Hospital Or Motcham Theatre", "city": "CHENNAI"}, "geometry": {"type": "Point", "coordinates": [80.25019329, 13.08489827]}}, {"type": "Feature", "properties": {"route_name": "7K", "stop_id": "qvujbmjR", "name": "Purasaivakkam Tank", "city": "CHENNAI"}, "geometry": {"type": "Point", "coordinates": [80.25375225, 13.08560766]}}, {"type": "Feature", "properties": {"route_name": "7K", "stop_id": "mKIQRbrs", "name": "Doveton", "city": "CHENNAI"}, "geometry": {"type": "Point", "coordinates": [80.25785369, 13.08699492]}}, {"type": "Feature", "properties": {"route_name": "7K", "stop_id": "aVjdmBcp", "name": "Madras Veterinary Hospital", "city": "CHENNAI"}, "geometry": {"type": "Point", "coordinates": [80.2668693276978, 13.0853011861328]}}, {"type": "Feature", "properties": {"route_name": "7K", "stop_id": "FDPmqphv", "name": "Periyamedu", "city": "CHENNAI"}, "geometry": {"type": "Point", "coordinates": [80.27067178719562, 13.083700316294573]}}, {"type": "Feature", "properties": {"route_name": "7K", "stop_id": "PSjGjQXK", "name": "Park Station", "city": "CHENNAI"}, "geometry": {"type": "Point", "coordinates": [80.27331973115014, 13.081535577598643]}}, {"type": "Feature", "properties": {"route_name": "7K", "stop_id": "KwaxxmSs", "name": "Nurse Quarters", "city": "CHENNAI"}, "geometry": {"type": "Point", "coordinates": [80.27896059391605, 13.082298318772699]}}, {"type": "Feature", "properties": {"route_name": "7K", "stop_id": "neNWquOh", "name": "Central Dental College", "city": "CHENNAI"}, "geometry": {"type": "Point", "coordinates": [80.28199470667641, 13.08298870082699]}}, {"type": "Feature", "properties": {"route_name": "7K", "stop_id": "QHFmFyLR", "name": "High Court ", "city": "CHENNAI"}, "geometry": {"type": "Point", "coordinates": [80.28344657999999, 13.085009446858479]}}, {"type": "Feature", "properties": {"route_name": "7K", "stop_id": "EkWBPXmr", "name": "Broadway", "city": "CHENNAI"}, "geometry": {"type": "Point", "coordinates": [80.28388983, 13.08820568]}}, {"type": "Feature", "properties": {"name": "7K"}, "geometry": {"type": "LineString", "coordinates": [[80.18853, 13.07614], [80.18863, 13.07661], [80.18865, 13.07684], [80.18865, 13.07753], [80.18866, 13.07776], [80.18876, 13.07827], [80.18895, 13.07864], [80.18961, 13.07959], [80.18988, 13.07988], [80.19034, 13.08046], [80.19092, 13.08109], [80.19138, 13.08161], [80.19166, 13.08194], [80.19175, 13.08213], [80.19201, 13.08311], [80.1922, 13.08365], [80.19232, 13.08418], [80.19254, 13.08533], [80.19262, 13.08598], [80.19265, 13.08683], [80.19268, 13.08723], [80.19278, 13.08743], [80.19319, 13.08741], [80.19543, 13.08735], [80.19757, 13.08729], [80.19845, 13.08727], [80.19868, 13.08726], [80.19867, 13.08712], [80.19864, 13.08582], [80.19865, 13.08543], [80.19888, 13.08542], [80.1991, 13.08542], [80.2005, 13.08538], [80.20341, 13.08527], [80.20464, 13.08521], [80.20684, 13.08513], [80.20834, 13.08508], [80.21156, 13.08495], [80.21696, 13.08474], [80.21769, 13.08471], [80.21778, 13.08473], [80.21784, 13.08478], [80.21793, 13.08478], [80.21801, 13.08474], [80.21804, 13.08471], [80.21834, 13.08467], [80.21982, 13.0846], [80.22097, 13.08456], [80.22245, 13.08451], [80.22283, 13.08453], [80.2229, 13.08454], [80.22305, 13.08461], [80.22394, 13.08521], [80.22403, 13.08526], [80.22407, 13.08522], [80.22437, 13.08481], [80.22452, 13.08461], [80.2254, 13.08344], [80.22541, 13.08344], [80.22544, 13.08344], [80.22548, 13.08342], [80.2255, 13.0834], [80.22565, 13.08334], [80.22647, 13.08325], [80.22792, 13.0831], [80.22854, 13.0831], [80.22941, 13.08313], [80.2299, 13.08315], [80.23064, 13.08319], [80.23107, 13.08322], [80.23181, 13.08324], [80.23215, 13.08323], [80.23235, 13.08326], [80.23275, 13.08333], [80.23312, 13.08344], [80.23361, 13.08354], [80.2342, 13.08364], [80.23488, 13.08369], [80.23575, 13.0837], [80.2361, 13.0837], [80.23682, 13.08367], [80.23786, 13.08352], [80.23816, 13.08349], [80.23852, 13.08349], [80.23905, 13.08362], [80.23939, 13.08369], [80.23965, 13.08369], [80.24007, 13.08362], [80.24036, 13.08356], [80.24062, 13.08345], [80.24077, 13.08335], [80.24106, 13.08311], [80.24123, 13.08298], [80.24132, 13.08294], [80.24148, 13.08291], [80.24179, 13.08299], [80.24225, 13.08313], [80.24276, 13.08325], [80.24334, 13.08339], [80.24407, 13.08349], [80.24411, 13.08347], [80.24413, 13.08342], [80.24412, 13.08332], [80.24384, 13.0827], [80.24373, 13.08244], [80.24378, 13.08234], [80.24385, 13.08225], [80.24403, 13.08211], [80.2446, 13.08198], [80.24528, 13.08179], [80.24568, 13.08172], [80.24599, 13.08168], [80.24658, 13.08162], [80.24728, 13.08156], [80.24849, 13.08152], [80.24903, 13.08151], [80.24934, 13.08146], [80.24947, 13.08144], [80.24969, 13.08201], [80.2498, 13.08242], [80.24989, 13.083], [80.25002, 13.08374], [80.25016, 13.08446], [80.25024, 13.08489], [80.25039, 13.0859], [80.25043, 13.08597], [80.25054, 13.08591], [80.25062, 13.0859], [80.25084, 13.08587], [80.25127, 13.08583], [80.2521, 13.08569], [80.25289, 13.08561], [80.25311, 13.08558], [80.25336, 13.08558], [80.25375, 13.08559], [80.25446, 13.08568], [80.25471, 13.08577], [80.25631, 13.08636], [80.25636, 13.08643], [80.25754, 13.08685], [80.25787, 13.08694], [80.25833, 13.08706], [80.25891, 13.08723], [80.26005, 13.08753], [80.26076, 13.08773], [80.2609, 13.08777], [80.26099, 13.08776], [80.2631, 13.0884], [80.26329, 13.08825], [80.26302, 13.08723], [80.26295, 13.08643], [80.26287, 13.08571], [80.26301, 13.0857], [80.26397, 13.08562], [80.26456, 13.08557], [80.26567, 13.08546], [80.26657, 13.08533], [80.26686, 13.08526], [80.26765, 13.08503], [80.2679, 13.08499], [80.26852, 13.08494], [80.26891, 13.0849], [80.2691, 13.08487], [80.26941, 13.08478], [80.26983, 13.08459], [80.27049, 13.08436], [80.27055, 13.08402], [80.27061, 13.08369], [80.27076, 13.08262], [80.27097, 13.08101], [80.27124, 13.08109], [80.27179, 13.08123], [80.27329, 13.0815], [80.27331, 13.08151], [80.27395, 13.08162], [80.27516, 13.08172], [80.27537, 13.08172], [80.27589, 13.08179], [80.27623, 13.08187], [80.27793, 13.08212], [80.27897, 13.08221], [80.27897, 13.0822], [80.28088, 13.08237], [80.28122, 13.08238], [80.28166, 13.08237], [80.28177, 13.08254], [80.28205, 13.08296], [80.28253, 13.08375], [80.28303, 13.08448], [80.28334, 13.08483], [80.2835, 13.08495], [80.28362, 13.08503], [80.28368, 13.08516], [80.28363, 13.08548], [80.28348, 13.08553], [80.2835, 13.08594], [80.28351, 13.08624], [80.28358, 13.08641], [80.28362, 13.08661], [80.28387, 13.08758], [80.28388, 13.08819]]}}]}