{"type": "FeatureCollection", "features": [{"type": "Feature", "properties": {"route_name": "515A", "stop_id": "uaUalZjh", "name": "Kovalam Bus Stand", "city": "CHENNAI"}, "geometry": {"type": "Point", "coordinates": [80.24981696737393, 12.78675363011011]}}, {"type": "Feature", "properties": {"route_name": "515A", "stop_id": "beniIHzL", "name": "Kovalam Kelambakam Road Junction", "city": "CHENNAI"}, "geometry": {"type": "Point", "coordinates": [80.245277891197, 12.784971555290847]}}, {"type": "Feature", "properties": {"route_name": "515A", "stop_id": "BNQPEsdW", "name": "Salt Office", "city": "CHENNAI"}, "geometry": {"type": "Point", "coordinates": [80.22945035900148, 12.782128164855616]}}, {"type": "Feature", "properties": {"route_name": "515A", "stop_id": "qKwvXMmm", "name": "Kelambakkam School", "city": "CHENNAI"}, "geometry": {"type": "Point", "coordinates": [80.22138518145971, 12.78571819801175]}}, {"type": "Feature", "properties": {"route_name": "515A", "stop_id": "uxBjVsKf", "name": "Kelambakkmm Police Station", "city": "CHENNAI"}, "geometry": {"type": "Point", "coordinates": [80.21990367384092, 12.785399610431222]}}, {"type": "Feature", "properties": {"route_name": "515A", "stop_id": "ngtiheSM", "name": "Kelambakkmm General Hospital", "city": "CHENNAI"}, "geometry": {"type": "Point", "coordinates": [80.22043933846362, 12.786694812130275]}}, {"type": "Feature", "properties": {"route_name": "515A", "stop_id": "rPcYYZtd", "name": "AP Super Market", "city": "CHENNAI"}, "geometry": {"type": "Point", "coordinates": [80.22132770552253, 12.789027384331868]}}, {"type": "Feature", "properties": {"route_name": "515A", "stop_id": "zBPHjWVd", "name": "Samiyar Pannai", "city": "CHENNAI"}, "geometry": {"type": "Point", "coordinates": [80.22083885104882, 12.79003563636055]}}, {"type": "Feature", "properties": {"route_name": "515A", "stop_id": "aNlaxeLS", "name": "Butterfly Company", "city": "CHENNAI"}, "geometry": {"type": "Point", "coordinates": [80.21738308935414, 12.79205911136289]}}, {"type": "Feature", "properties": {"route_name": "515A", "stop_id": "ZecyfkGE", "name": "Pudupakkam", "city": "CHENNAI"}, "geometry": {"type": "Point", "coordinates": [80.1978178323252, 12.799572651487257]}}, {"type": "Feature", "properties": {"route_name": "515A", "stop_id": "pFQacbfu", "name": "Anjaneyar Temple Pudupakkam", "city": "CHENNAI"}, "geometry": {"type": "Point", "coordinates": [80.18932639380637, 12.806008513614833]}}, {"type": "Feature", "properties": {"route_name": "515A", "stop_id": "AOtPxxNt", "name": "Military Camp Mambakkam", "city": "CHENNAI"}, "geometry": {"type": "Point", "coordinates": [80.18629871103985, 12.80859623287557]}}, {"type": "Feature", "properties": {"route_name": "515A", "stop_id": "pzScocJN", "name": "Mambakkam", "city": "CHENNAI"}, "geometry": {"type": "Point", "coordinates": [80.16493040472426, 12.827623874040325]}}, {"type": "Feature", "properties": {"route_name": "515A", "stop_id": "khOlLZay", "name": "Samathuvapuram", "city": "CHENNAI"}, "geometry": {"type": "Point", "coordinates": [80.15947302250481, 12.832542096449574]}}, {"type": "Feature", "properties": {"route_name": "515A", "stop_id": "CDXhVrrJ", "name": "Keelakottaiyur Or Malrosapuram", "city": "CHENNAI"}, "geometry": {"type": "Point", "coordinates": [80.15519815062589, 12.837350766407658]}}, {"type": "Feature", "properties": {"route_name": "515A", "stop_id": "YYKDBDRS", "name": "VIT University", "city": "CHENNAI"}, "geometry": {"type": "Point", "coordinates": [80.15279584850396, 12.840095119529478]}}, {"type": "Feature", "properties": {"route_name": "515A", "stop_id": "yHCBRtBd", "name": "Melakottaiyur", "city": "CHENNAI"}, "geometry": {"type": "Point", "coordinates": [80.1488387323277, 12.845664691060307]}}, {"type": "Feature", "properties": {"route_name": "515A", "stop_id": "xnXFAboh", "name": "Kandigai", "city": "CHENNAI"}, "geometry": {"type": "Point", "coordinates": [80.14014813888787, 12.851216081007852]}}, {"type": "Feature", "properties": {"route_name": "515A", "stop_id": "NTCwKKsF", "name": "Rathinamangalam", "city": "CHENNAI"}, "geometry": {"type": "Point", "coordinates": [80.13365248841797, 12.857924696847444]}}, {"type": "Feature", "properties": {"route_name": "515A", "stop_id": "JKUqFAhf", "name": "Tagore Engineering College Rathinamangalam", "city": "CHENNAI"}, "geometry": {"type": "Point", "coordinates": [80.13089720370908, 12.860797972628758]}}, {"type": "Feature", "properties": {"route_name": "515A", "stop_id": "tkWZZFES", "name": "Vengambakkam Road Junction", "city": "CHENNAI"}, "geometry": {"type": "Point", "coordinates": [80.12683210566877, 12.862697082803901]}}, {"type": "Feature", "properties": {"route_name": "515A", "stop_id": "UTnQirag", "name": "Ramanujar Engg College Or Balaji Plytechnic", "city": "CHENNAI"}, "geometry": {"type": "Point", "coordinates": [80.11550883663176, 12.86712163562261]}}, {"type": "Feature", "properties": {"route_name": "515A", "stop_id": "GpOUDfXM", "name": "Kolapakkam Junction", "city": "CHENNAI"}, "geometry": {"type": "Point", "coordinates": [80.10696539721903, 12.870413402356698]}}, {"type": "Feature", "properties": {"route_name": "515A", "stop_id": "lOyAoICg", "name": "Anna Nagar Colony", "city": "CHENNAI"}, "geometry": {"type": "Point", "coordinates": [80.10180777627977, 12.871382151064015]}}, {"type": "Feature", "properties": {"route_name": "515A", "stop_id": "CbcrfuAf", "name": "Vandalur Zoo", "city": "CHENNAI"}, "geometry": {"type": "Point", "coordinates": [80.08058627698756, 12.88094584155778]}}, {"type": "Feature", "properties": {"route_name": "515A", "stop_id": "gGkadTNm", "name": "Vandalur Gate", "city": "CHENNAI"}, "geometry": {"type": "Point", "coordinates": [80.0861980335012, 12.89323631083488]}}, {"type": "Feature", "properties": {"route_name": "515A", "stop_id": "RyPegcUV", "name": "Iraniyamman Koil", "city": "CHENNAI"}, "geometry": {"type": "Point", "coordinates": [80.08932019596341, 12.897432906791021]}}, {"type": "Feature", "properties": {"route_name": "515A", "stop_id": "qPtpgxic", "name": "Perungalattur", "city": "CHENNAI"}, "geometry": {"type": "Point", "coordinates": [80.09617808374855, 12.906468063975968]}}, {"type": "Feature", "properties": {"route_name": "515A", "stop_id": "KzCxlBoL", "name": "Perungalatgur Lake View Stop", "city": "CHENNAI"}, "geometry": {"type": "Point", "coordinates": [80.09829410933969, 12.909055141933235]}}, {"type": "Feature", "properties": {"route_name": "515A", "stop_id": "SEVBrkvc", "name": "Irumbuliyur", "city": "CHENNAI"}, "geometry": {"type": "Point", "coordinates": [80.1058340174651, 12.916500866623101]}}, {"type": "Feature", "properties": {"route_name": "515A", "stop_id": "ojqTFFWy", "name": "Tambaram West Bus Stand", "city": "CHENNAI"}, "geometry": {"type": "Point", "coordinates": [80.11862628452741, 12.927652178598898]}}, {"type": "Feature", "properties": {"name": "515A"}, "geometry": {"type": "LineString", "coordinates": [[80.24982, 12.78671], [80.24837, 12.78681], [80.24798, 12.78686], [80.24736, 12.78703], [80.24654, 12.78727], [80.24633, 12.78725], [80.24624, 12.7872], [80.24621, 12.78715], [80.2461, 12.78697], [80.2458, 12.78633], [80.24532, 12.78524], [80.24527, 12.78505], [80.24525, 12.78498], [80.2452, 12.78479], [80.24513, 12.78452], [80.24506, 12.7844], [80.24485, 12.78419], [80.24476, 12.78413], [80.24467, 12.78408], [80.24419, 12.78388], [80.24391, 12.78381], [80.24376, 12.78381], [80.24349, 12.78385], [80.24228, 12.78412], [80.24166, 12.78422], [80.24116, 12.78411], [80.2397, 12.78374], [80.23952, 12.78371], [80.23866, 12.78372], [80.23753, 12.78374], [80.23695, 12.78378], [80.2357, 12.78391], [80.23472, 12.78392], [80.23392, 12.78397], [80.23235, 12.78416], [80.23205, 12.78418], [80.23183, 12.78418], [80.23174, 12.78414], [80.23161, 12.78402], [80.23148, 12.78384], [80.23089, 12.78293], [80.23066, 12.78258], [80.23049, 12.78239], [80.23032, 12.78232], [80.23009, 12.78225], [80.22975, 12.78217], [80.22945, 12.78215], [80.22945, 12.78216], [80.22931, 12.78217], [80.22918, 12.78226], [80.22904, 12.78234], [80.22888, 12.78241], [80.22869, 12.78242], [80.22837, 12.78234], [80.22819, 12.78234], [80.22746, 12.78247], [80.22662, 12.78271], [80.22562, 12.78298], [80.22442, 12.78333], [80.22411, 12.78347], [80.22379, 12.7837], [80.22346, 12.78392], [80.22311, 12.78396], [80.22272, 12.78398], [80.2225, 12.78405], [80.22226, 12.78417], [80.2218, 12.78436], [80.22161, 12.78445], [80.22156, 12.78449], [80.22151, 12.78458], [80.22147, 12.78478], [80.22147, 12.78513], [80.22141, 12.78572], [80.22137, 12.78572], [80.22135, 12.78615], [80.22132, 12.7862], [80.22123, 12.78624], [80.22033, 12.78621], [80.22026, 12.78603], [80.22017, 12.78575], [80.21996, 12.78535], [80.21955, 12.78462], [80.21887, 12.78344], [80.2188, 12.78347], [80.21944, 12.78459], [80.21953, 12.78473], [80.21991, 12.78538], [80.22011, 12.78576], [80.2202, 12.78607], [80.22028, 12.78623], [80.22046, 12.78669], [80.22065, 12.78717], [80.22094, 12.78794], [80.22135, 12.78902], [80.22155, 12.78961], [80.22139, 12.78972], [80.22086, 12.79006], [80.21878, 12.79131], [80.21739, 12.79208], [80.21741, 12.79211], [80.21711, 12.79224], [80.21672, 12.79238], [80.21567, 12.79262], [80.21536, 12.79267], [80.21529, 12.79269], [80.21415, 12.79296], [80.21234, 12.79337], [80.21113, 12.79364], [80.21043, 12.79382], [80.20966, 12.79413], [80.20638, 12.79555], [80.20567, 12.79586], [80.20468, 12.79632], [80.20113, 12.79785], [80.19954, 12.79854], [80.19933, 12.79865], [80.1988, 12.79897], [80.19785, 12.79962], [80.197, 12.80024], [80.19511, 12.80156], [80.19195, 12.80378], [80.1912, 12.80434], [80.1895, 12.8059], [80.18935, 12.80604], [80.18751, 12.80761], [80.1863, 12.80863], [80.18161, 12.81263], [80.18064, 12.81346], [80.1799, 12.81413], [80.17832, 12.81555], [80.17315, 12.82023], [80.17003, 12.82307], [80.16671, 12.82606], [80.16496, 12.82765], [80.1616, 12.83069], [80.15949, 12.83256], [80.15837, 12.83356], [80.15717, 12.83466], [80.15582, 12.83589], [80.15549, 12.83624], [80.15539, 12.83642], [80.15533, 12.8366], [80.15527, 12.83698], [80.15522, 12.83735], [80.15513, 12.83761], [80.15504, 12.83779], [80.15485, 12.83805], [80.15422, 12.83872], [80.15293, 12.84008], [80.15286, 12.84015], [80.15239, 12.84064], [80.1516, 12.84148], [80.15115, 12.84197], [80.15024, 12.84296], [80.14995, 12.84327], [80.14974, 12.84352], [80.14962, 12.84371], [80.14951, 12.84394], [80.14946, 12.84406], [80.14932, 12.84437], [80.14911, 12.84495], [80.14887, 12.84567], [80.14876, 12.84588], [80.1486, 12.84601], [80.14844, 12.84608], [80.14819, 12.84616], [80.147, 12.84649], [80.14669, 12.84659], [80.14644, 12.8467], [80.14484, 12.84759], [80.1437, 12.84826], [80.14288, 12.84878], [80.14212, 12.84928], [80.14169, 12.84966], [80.14105, 12.85032], [80.14021, 12.85121], [80.14017, 12.85124], [80.13966, 12.85175], [80.13834, 12.8531], [80.13603, 12.8555], [80.13462, 12.85698], [80.13373, 12.8579], [80.13368, 12.85795], [80.13091, 12.86081], [80.13051, 12.86118], [80.1301, 12.86142], [80.1293, 12.86178], [80.12882, 12.86196], [80.12685, 12.86273], [80.11972, 12.8655], [80.1162, 12.86688], [80.11552, 12.86715], [80.11372, 12.86787], [80.11326, 12.86807], [80.11269, 12.86829], [80.11139, 12.86884], [80.11078, 12.86908], [80.10919, 12.86975], [80.10805, 12.8702], [80.1074, 12.87037], [80.10697, 12.87045], [80.10548, 12.87075], [80.10392, 12.87106], [80.10185, 12.8714], [80.10181, 12.8714], [80.10091, 12.87157], [80.09824, 12.87192], [80.09714, 12.87207], [80.09627, 12.87218], [80.09591, 12.8723], [80.09432, 12.87288], [80.09055, 12.87429], [80.08971, 12.8746], [80.08913, 12.87485], [80.08877, 12.87504], [80.08856, 12.87517], [80.08782, 12.87568], [80.08675, 12.87642], [80.08612, 12.87686], [80.08587, 12.87701], [80.08551, 12.87717], [80.08469, 12.8775], [80.08165, 12.87859], [80.08059, 12.87898], [80.08027, 12.87906], [80.07992, 12.8792], [80.08019, 12.87989], [80.08056, 12.88078], [80.08062, 12.88094], [80.08075, 12.88127], [80.08085, 12.88141], [80.08105, 12.8817], [80.08128, 12.88226], [80.08151, 12.88288], [80.08218, 12.88456], [80.08279, 12.88596], [80.08351, 12.88769], [80.08459, 12.89039], [80.08494, 12.89116], [80.0852, 12.89167], [80.08566, 12.89247], [80.08582, 12.89269], [80.08623, 12.89322], [80.08686, 12.89408], [80.08933, 12.89738], [80.08935, 12.89741], [80.09299, 12.90224], [80.09363, 12.9031], [80.09455, 12.90427], [80.09536, 12.90537], [80.0959, 12.90607], [80.0962, 12.90645], [80.09738, 12.90803], [80.0979, 12.90866], [80.09822, 12.90892], [80.09833, 12.90901], [80.09875, 12.90932], [80.09972, 12.9099], [80.10035, 12.91027], [80.10062, 12.91048], [80.10084, 12.9107], [80.10103, 12.91099], [80.10117, 12.91127], [80.10123, 12.91151], [80.10132, 12.91205], [80.10141, 12.91295], [80.10148, 12.91356], [80.1015, 12.91384], [80.10154, 12.91398], [80.10166, 12.91436], [80.10181, 12.91467], [80.10204, 12.91499], [80.10231, 12.91524], [80.10265, 12.91547], [80.1029, 12.91557], [80.10339, 12.91568], [80.10417, 12.91577], [80.10446, 12.91584], [80.10449, 12.91587], [80.10487, 12.91596], [80.10513, 12.91606], [80.10578, 12.91639], [80.10587, 12.91644], [80.10714, 12.91709], [80.1077, 12.91744], [80.10831, 12.91793], [80.10923, 12.91866], [80.10963, 12.919], [80.11048, 12.91963], [80.11101, 12.92007], [80.1123, 12.9213], [80.11312, 12.92212], [80.11392, 12.92287], [80.11423, 12.9232], [80.11555, 12.92452], [80.11736, 12.92628], [80.11742, 12.92636], [80.11778, 12.92677], [80.11805, 12.92704], [80.11867, 12.92761]]}}]}