{"type": "FeatureCollection", "features": [{"type": "Feature", "properties": {"route_name": "159", "stop_id": "jnDfAorM", "name": "Thiruverkadu Terminus", "city": "CHENNAI"}, "geometry": {"type": "Point", "coordinates": [80.1239847902782, 13.069351214248936]}}, {"type": "Feature", "properties": {"route_name": "159", "stop_id": "rcsEeYnc", "name": "Gurimedai", "city": "CHENNAI"}, "geometry": {"type": "Point", "coordinates": [80.12654825215122, 13.068292000155036]}}, {"type": "Feature", "properties": {"route_name": "159", "stop_id": "RSRIdzBF", "name": "Thiruverkadu MGR Nagar", "city": "CHENNAI"}, "geometry": {"type": "Point", "coordinates": [80.12951164308072, 13.067701832891391]}}, {"type": "Feature", "properties": {"route_name": "159", "stop_id": "nChZnrmr", "name": "Perumalagaram", "city": "CHENNAI"}, "geometry": {"type": "Point", "coordinates": [80.13582685709673, 13.066756958292295]}}, {"type": "Feature", "properties": {"route_name": "159", "stop_id": "buRRNGGe", "name": "Perumal Nagar Junction", "city": "CHENNAI"}, "geometry": {"type": "Point", "coordinates": [80.13770560593196, 13.065731815462355]}}, {"type": "Feature", "properties": {"route_name": "159", "stop_id": "CheNYOmP", "name": "Velappanchavadi", "city": "CHENNAI"}, "geometry": {"type": "Point", "coordinates": [80.13888028186238, 13.061401979827533]}}, {"type": "Feature", "properties": {"route_name": "159", "stop_id": "ocwJSpah", "name": "Kumar Theatre", "city": "CHENNAI"}, "geometry": {"type": "Point", "coordinates": [80.14978370694485, 13.062205700490738]}}, {"type": "Feature", "properties": {"route_name": "159", "stop_id": "VbpBVdde", "name": "Vaanagaram", "city": "CHENNAI"}, "geometry": {"type": "Point", "coordinates": [80.15520012113666, 13.060673625391631]}}, {"type": "Feature", "properties": {"route_name": "159", "stop_id": "VTHwomVj", "name": "Maduravoyal Yerikarai", "city": "CHENNAI"}, "geometry": {"type": "Point", "coordinates": [80.16446669395509, 13.061455729139213]}}, {"type": "Feature", "properties": {"route_name": "159", "stop_id": "bsQVAuyn", "name": "Maduravoyal", "city": "CHENNAI"}, "geometry": {"type": "Point", "coordinates": [80.16703854344019, 13.06335166693687]}}, {"type": "Feature", "properties": {"route_name": "159", "stop_id": "pygvGZaF", "name": "Maduravoyal Post Office", "city": "CHENNAI"}, "geometry": {"type": "Point", "coordinates": [80.17183820173886, 13.064818116291125]}}, {"type": "Feature", "properties": {"route_name": "159", "stop_id": "gnmwaIOJ", "name": "Maduravoyal Ration Shop", "city": "CHENNAI"}, "geometry": {"type": "Point", "coordinates": [80.17508584673715, 13.067056752749613]}}, {"type": "Feature", "properties": {"route_name": "159", "stop_id": "nCsqpnJo", "name": "Vengaya Mandi", "city": "CHENNAI"}, "geometry": {"type": "Point", "coordinates": [80.18155052810914, 13.07003714330579]}}, {"type": "Feature", "properties": {"route_name": "159", "stop_id": "owFNQNZv", "name": "Nerkundram", "city": "CHENNAI"}, "geometry": {"type": "Point", "coordinates": [80.18548770963264, 13.071513437160451]}}, {"type": "Feature", "properties": {"route_name": "159", "stop_id": "RjtzWJgw", "name": "Mettukulam", "city": "CHENNAI"}, "geometry": {"type": "Point", "coordinates": [80.1924946938658, 13.074318754396097]}}, {"type": "Feature", "properties": {"route_name": "159", "stop_id": "xiCfcAgb", "name": "Rohini Theatre", "city": "CHENNAI"}, "geometry": {"type": "Point", "coordinates": [80.19582407794906, 13.075332191278791]}}, {"type": "Feature", "properties": {"route_name": "159", "stop_id": "mdGitRQe", "name": "Arumbakkam Post Office", "city": "CHENNAI"}, "geometry": {"type": "Point", "coordinates": [80.21051820484536, 13.077240659521182]}}, {"type": "Feature", "properties": {"route_name": "159", "stop_id": "wHfmVQMh", "name": "DG Vaishnava College", "city": "CHENNAI"}, "geometry": {"type": "Point", "coordinates": [80.21332764, 13.07614229]}}, {"type": "Feature", "properties": {"route_name": "159", "stop_id": "cttUtMNm", "name": "NSK Nagar Arumbakkam", "city": "CHENNAI"}, "geometry": {"type": "Point", "coordinates": [80.21675219, 13.07518382]}}, {"type": "Feature", "properties": {"route_name": "159", "stop_id": "fkZFUNSd", "name": "Amaindhakarai", "city": "CHENNAI"}, "geometry": {"type": "Point", "coordinates": [80.22576752682767, 13.074007015982867]}}, {"type": "Feature", "properties": {"route_name": "159", "stop_id": "TrOiZJox", "name": "Aminjikarai Market", "city": "CHENNAI"}, "geometry": {"type": "Point", "coordinates": [80.23093553817785, 13.075005530498705]}}, {"type": "Feature", "properties": {"route_name": "159", "stop_id": "jFmPCmzM", "name": "Pachaiyappas College", "city": "CHENNAI"}, "geometry": {"type": "Point", "coordinates": [80.23465094093217, 13.076071157008514]}}, {"type": "Feature", "properties": {"route_name": "159", "stop_id": "AjJCgCBk", "name": "Taylors Road", "city": "CHENNAI"}, "geometry": {"type": "Point", "coordinates": [80.23737175, 13.07657683]}}, {"type": "Feature", "properties": {"route_name": "159", "stop_id": "SWnceHEw", "name": "EGA Theatre", "city": "CHENNAI"}, "geometry": {"type": "Point", "coordinates": [80.23952836758463, 13.077164671388793]}}, {"type": "Feature", "properties": {"route_name": "159", "stop_id": "nrKKniYe", "name": "KMC Hospital", "city": "CHENNAI"}, "geometry": {"type": "Point", "coordinates": [80.24411828837378, 13.077972939220746]}}, {"type": "Feature", "properties": {"route_name": "159", "stop_id": "SqxhBMol", "name": "Motcham Aysha Hospital Or Motcham Theatre", "city": "CHENNAI"}, "geometry": {"type": "Point", "coordinates": [80.25019329, 13.08489827]}}, {"type": "Feature", "properties": {"route_name": "159", "stop_id": "qvujbmjR", "name": "Purasaivakkam Tank", "city": "CHENNAI"}, "geometry": {"type": "Point", "coordinates": [80.25375225, 13.08560766]}}, {"type": "Feature", "properties": {"route_name": "159", "stop_id": "mKIQRbrs", "name": "Doveton", "city": "CHENNAI"}, "geometry": {"type": "Point", "coordinates": [80.25785369, 13.08699492]}}, {"type": "Feature", "properties": {"route_name": "159", "stop_id": "isVKhOXG", "name": "Doveton Or Vepery", "city": "CHENNAI"}, "geometry": {"type": "Point", "coordinates": [80.26242215, 13.08825998]}}, {"type": "Feature", "properties": {"route_name": "159", "stop_id": "hfsVeMMa", "name": "Choolai Post Office", "city": "CHENNAI"}, "geometry": {"type": "Point", "coordinates": [80.26533304002942, 13.090237781461314]}}, {"type": "Feature", "properties": {"route_name": "159", "stop_id": "zOQhKaAF", "name": "Choolai Rountana", "city": "CHENNAI"}, "geometry": {"type": "Point", "coordinates": [80.26930782820705, 13.091287428125854]}}, {"type": "Feature", "properties": {"route_name": "159", "stop_id": "eVGAINdZ", "name": "Natraj Theatre", "city": "CHENNAI"}, "geometry": {"type": "Point", "coordinates": [80.26872048783537, 13.093290785058151]}}, {"type": "Feature", "properties": {"route_name": "159", "stop_id": "jOxyxYyy", "name": "Power House Basin Bridge", "city": "CHENNAI"}, "geometry": {"type": "Point", "coordinates": [80.26840757363152, 13.098252023674124]}}, {"type": "Feature", "properties": {"route_name": "159", "stop_id": "fFHpEWYG", "name": "Basin Bridge Railway Station", "city": "CHENNAI"}, "geometry": {"type": "Point", "coordinates": [80.27046578961017, 13.101775131468846]}}, {"type": "Feature", "properties": {"route_name": "159", "stop_id": "FcOkCcps", "name": "Ramalingapuram Toll", "city": "CHENNAI"}, "geometry": {"type": "Point", "coordinates": [80.26712729733799, 13.109006355868484]}}, {"type": "Feature", "properties": {"route_name": "159", "stop_id": "TPFTQSyz", "name": "Moolakothalam", "city": "CHENNAI"}, "geometry": {"type": "Point", "coordinates": [80.27383789807436, 13.104101773364562]}}, {"type": "Feature", "properties": {"route_name": "159", "stop_id": "qdrjbHYS", "name": "Vallalar Nagar Bus Depot", "city": "CHENNAI"}, "geometry": {"type": "Point", "coordinates": [80.27580342110537, 13.1045538453887]}}, {"type": "Feature", "properties": {"route_name": "159", "stop_id": "jeadfqyj", "name": "Mint Bus Terminal Or Vallalar Nagar", "city": "CHENNAI"}, "geometry": {"type": "Point", "coordinates": [80.27987218962357, 13.106240523817197]}}, {"type": "Feature", "properties": {"route_name": "159", "stop_id": "iuOUwLky", "name": "Cemetery Road", "city": "CHENNAI"}, "geometry": {"type": "Point", "coordinates": [80.2811333731845, 13.110166184146781]}}, {"type": "Feature", "properties": {"route_name": "159", "stop_id": "XVbubuGa", "name": "Pandian Theatre", "city": "CHENNAI"}, "geometry": {"type": "Point", "coordinates": [80.281684543957, 13.112666128268456]}}, {"type": "Feature", "properties": {"route_name": "159", "stop_id": "OwpcAtJV", "name": "Theagaraya College", "city": "CHENNAI"}, "geometry": {"type": "Point", "coordinates": [80.28411200165647, 13.117138527021096]}}, {"type": "Feature", "properties": {"route_name": "159", "stop_id": "KnWWIWQx", "name": "Mani Koondu", "city": "CHENNAI"}, "geometry": {"type": "Point", "coordinates": [80.28687765306711, 13.122325306543965]}}, {"type": "Feature", "properties": {"route_name": "159", "stop_id": "peBgOXli", "name": "Agasthiya Theatre", "city": "CHENNAI"}, "geometry": {"type": "Point", "coordinates": [80.28824839879223, 13.124010317565054]}}, {"type": "Feature", "properties": {"route_name": "159", "stop_id": "yAqyhWkU", "name": "Apollo Or Cholera Hospital", "city": "CHENNAI"}, "geometry": {"type": "Point", "coordinates": [80.29051956610328, 13.128449481490392]}}, {"type": "Feature", "properties": {"route_name": "159", "stop_id": "GcGOdrPa", "name": "Tondiarpet Bus Depot", "city": "CHENNAI"}, "geometry": {"type": "Point", "coordinates": [80.29179334385788, 13.13168046492707]}}, {"type": "Feature", "properties": {"route_name": "159", "stop_id": "wWcBzuvM", "name": "Lakshmi Amman Koil", "city": "CHENNAI"}, "geometry": {"type": "Point", "coordinates": [80.29313387803404, 13.135129164535664]}}, {"type": "Feature", "properties": {"route_name": "159", "stop_id": "TAifzqok", "name": "Cross Road Toll Gate", "city": "CHENNAI"}, "geometry": {"type": "Point", "coordinates": [80.29448687757758, 13.138748981637347]}}, {"type": "Feature", "properties": {"route_name": "159", "stop_id": "RkbXqAIs", "name": "Thangal Toll Gate", "city": "CHENNAI"}, "geometry": {"type": "Point", "coordinates": [80.29684030730448, 13.144705317373964]}}, {"type": "Feature", "properties": {"route_name": "159", "stop_id": "MTAZIXBL", "name": "Thangal", "city": "CHENNAI"}, "geometry": {"type": "Point", "coordinates": [80.29819100667316, 13.147958707332322]}}, {"type": "Feature", "properties": {"route_name": "159", "stop_id": "jqriedgy", "name": "Raja Kaladi", "city": "CHENNAI"}, "geometry": {"type": "Point", "coordinates": [80.29953585122041, 13.151354020552063]}}, {"type": "Feature", "properties": {"route_name": "159", "stop_id": "EkCoFwMY", "name": "Thiruvottiyur Police Station", "city": "CHENNAI"}, "geometry": {"type": "Point", "coordinates": [80.30038153476903, 13.15386464570613]}}, {"type": "Feature", "properties": {"route_name": "159", "stop_id": "QRSRIbba", "name": "Ellaiamman Kovil", "city": "CHENNAI"}, "geometry": {"type": "Point", "coordinates": [80.30153490651719, 13.157477215423569]}}, {"type": "Feature", "properties": {"route_name": "159", "stop_id": "leJfirnk", "name": "Theradi", "city": "CHENNAI"}, "geometry": {"type": "Point", "coordinates": [80.30246556227792, 13.16064591539304]}}, {"type": "Feature", "properties": {"route_name": "159", "stop_id": "MrybjzSo", "name": "Thiruvottiyur Market", "city": "CHENNAI"}, "geometry": {"type": "Point", "coordinates": [80.30333938697788, 13.16405090016783]}}, {"type": "Feature", "properties": {"route_name": "159", "stop_id": "wuyFtExA", "name": "Vellayan Chettiyar School", "city": "CHENNAI"}, "geometry": {"type": "Point", "coordinates": [80.30416359769038, 13.16801353470768]}}, {"type": "Feature", "properties": {"route_name": "159", "stop_id": "EtvjcvTp", "name": "Thiruvottiyur Ajax Bus Depot", "city": "CHENNAI"}, "geometry": {"type": "Point", "coordinates": [80.3050609682216, 13.1721251291793]}}, {"type": "Feature", "properties": {"route_name": "159", "stop_id": "CKNrjFUU", "name": "Thiruvottiyur Bus Stand", "city": "CHENNAI"}, "geometry": {"type": "Point", "coordinates": [80.30608489118612, 13.175108753727507]}}, {"type": "Feature", "properties": {"name": "159"}, "geometry": {"type": "LineString", "coordinates": [[80.12389, 13.06919], [80.12412, 13.06905], [80.12414, 13.06888], [80.12426, 13.06881], [80.12459, 13.0687], [80.12513, 13.06856], [80.12569, 13.06842], [80.12654, 13.06826], [80.12743, 13.06808], [80.12753, 13.06806], [80.12837, 13.06791], [80.12949, 13.06766], [80.1295, 13.06765], [80.12979, 13.06765], [80.13016, 13.06766], [80.1305, 13.06767], [80.13073, 13.06765], [80.13123, 13.06756], [80.13162, 13.06747], [80.13191, 13.06738], [80.13269, 13.06711], [80.13342, 13.06698], [80.13417, 13.06686], [80.13463, 13.06679], [80.13555, 13.06675], [80.13578, 13.06672], [80.13582, 13.06672], [80.13638, 13.0666], [80.13646, 13.06657], [80.1365, 13.06653], [80.13651, 13.06644], [80.13644, 13.06601], [80.13647, 13.06592], [80.13651, 13.0659], [80.13662, 13.06588], [80.13746, 13.06591], [80.13759, 13.06588], [80.13765, 13.06586], [80.13767, 13.06573], [80.13768, 13.06565], [80.13753, 13.06463], [80.13753, 13.06439], [80.13754, 13.06436], [80.1376, 13.06431], [80.13771, 13.06426], [80.13789, 13.06424], [80.13815, 13.06424], [80.13824, 13.06422], [80.13828, 13.06421], [80.13829, 13.06416], [80.13828, 13.06407], [80.13818, 13.06355], [80.13818, 13.06336], [80.13821, 13.06325], [80.13845, 13.06294], [80.13851, 13.06279], [80.1385, 13.06265], [80.1384, 13.0619], [80.13837, 13.06156], [80.13838, 13.06136], [80.1384, 13.06128], [80.13888, 13.0613], [80.14054, 13.0614], [80.14394, 13.06167], [80.14616, 13.06194], [80.14653, 13.06199], [80.14692, 13.06204], [80.1475, 13.06207], [80.14959, 13.06211], [80.14964, 13.06211], [80.14965, 13.06214], [80.14967, 13.06216], [80.1497, 13.06217], [80.14978, 13.06217], [80.15002, 13.06216], [80.15042, 13.06211], [80.15091, 13.06189], [80.15153, 13.06161], [80.15149, 13.06153], [80.15195, 13.06129], [80.15248, 13.06105], [80.15295, 13.06092], [80.15365, 13.06078], [80.15432, 13.06066], [80.15479, 13.0606], [80.1552, 13.06062], [80.15571, 13.06073], [80.156, 13.06084], [80.15646, 13.06108], [80.15729, 13.06153], [80.15742, 13.06158], [80.1577, 13.06164], [80.15816, 13.06168], [80.15906, 13.06157], [80.15937, 13.06152], [80.1603, 13.0614], [80.16071, 13.06139], [80.1611, 13.06138], [80.16229, 13.06134], [80.16304, 13.06132], [80.16389, 13.06135], [80.16427, 13.06136], [80.16448, 13.06138], [80.16501, 13.0615], [80.1652, 13.06158], [80.16534, 13.06166], [80.16554, 13.06183], [80.16587, 13.06218], [80.16611, 13.06243], [80.16664, 13.06294], [80.16708, 13.0633], [80.16777, 13.06382], [80.16837, 13.06414], [80.16875, 13.06425], [80.169, 13.06428], [80.16994, 13.0643], [80.17057, 13.0643], [80.17106, 13.06434], [80.17119, 13.06437], [80.17156, 13.06451], [80.1719, 13.06474], [80.17295, 13.06546], [80.17347, 13.06584], [80.17428, 13.06638], [80.17513, 13.067], [80.17557, 13.06732], [80.17576, 13.06742], [80.17605, 13.06752], [80.17634, 13.06757], [80.17654, 13.06758], [80.17707, 13.0676], [80.17757, 13.0676], [80.17782, 13.06762], [80.17821, 13.06771], [80.17849, 13.06785], [80.17896, 13.06814], [80.17972, 13.06863], [80.18074, 13.06939], [80.18111, 13.06963], [80.18158, 13.06996], [80.1823, 13.07036], [80.18271, 13.07057], [80.18318, 13.07078], [80.18369, 13.07097], [80.18551, 13.07144], [80.18633, 13.07167], [80.18657, 13.07175], [80.18743, 13.0721], [80.18904, 13.07282], [80.18946, 13.07305], [80.18963, 13.07316], [80.19, 13.07344], [80.1905, 13.07392], [80.19079, 13.07415], [80.19106, 13.07427], [80.19139, 13.07432], [80.1917, 13.07428], [80.19196, 13.07425], [80.19242, 13.07421], [80.19249, 13.07421], [80.1936, 13.07419], [80.19378, 13.07422], [80.19412, 13.07433], [80.19433, 13.07446], [80.19456, 13.07462], [80.19473, 13.07477], [80.19504, 13.07502], [80.19523, 13.07511], [80.19553, 13.07522], [80.19583, 13.07532], [80.19621, 13.0754], [80.19643, 13.07547], [80.19653, 13.07547], [80.19703, 13.07561], [80.19805, 13.07589], [80.19844, 13.07602], [80.19909, 13.0762], [80.19987, 13.07637], [80.20046, 13.07644], [80.20077, 13.07644], [80.20132, 13.07638], [80.20168, 13.07632], [80.20218, 13.0763], [80.20258, 13.07632], [80.20289, 13.07638], [80.20388, 13.07661], [80.20454, 13.07677], [80.20531, 13.0769], [80.20688, 13.07712], [80.20756, 13.07714], [80.20843, 13.07719], [80.20885, 13.07723], [80.20907, 13.07727], [80.2095, 13.07729], [80.2099, 13.07727], [80.21051, 13.07721], [80.21051, 13.0772], [80.21138, 13.0771], [80.21167, 13.07706], [80.21196, 13.07696], [80.21221, 13.07683], [80.213, 13.07628], [80.21329, 13.07609], [80.21361, 13.07589], [80.214, 13.0757], [80.21433, 13.07557], [80.21481, 13.07541], [80.21524, 13.07534], [80.21594, 13.07524], [80.2167, 13.07517], [80.21675, 13.07517], [80.21709, 13.07512], [80.21783, 13.07503], [80.21818, 13.07497], [80.21948, 13.07473], [80.22059, 13.07454], [80.22153, 13.07441], [80.22271, 13.07427], [80.22457, 13.07409], [80.22562, 13.07398], [80.22576, 13.07397], [80.22576, 13.07398], [80.2258, 13.07397], [80.22618, 13.07397], [80.22663, 13.07399], [80.22836, 13.07414], [80.22912, 13.07426], [80.23004, 13.07459], [80.23094, 13.07499], [80.23208, 13.0754], [80.23304, 13.07571], [80.23388, 13.07591], [80.2346, 13.07604], [80.23466, 13.07605], [80.23578, 13.07629], [80.23669, 13.07641], [80.23738, 13.07656], [80.2387, 13.0769], [80.23954, 13.07709], [80.23954, 13.07711], [80.24055, 13.07735], [80.24162, 13.0776], [80.24194, 13.07766], [80.2426, 13.07777], [80.2437, 13.0779], [80.24412, 13.07795], [80.24416, 13.07795], [80.24433, 13.07794], [80.24441, 13.07858], [80.24443, 13.07885], [80.24445, 13.07935], [80.24459, 13.07934], [80.2452, 13.07934], [80.24557, 13.07947], [80.24585, 13.07959], [80.24616, 13.07976], [80.24673, 13.08016], [80.24689, 13.08025], [80.24755, 13.08049], [80.24792, 13.08059], [80.24856, 13.08084], [80.24918, 13.08113], [80.24932, 13.08122], [80.24945, 13.08135], [80.24969, 13.08201], [80.2498, 13.08242], [80.24989, 13.083], [80.25002, 13.08374], [80.25016, 13.08446], [80.25024, 13.08489], [80.25039, 13.0859], [80.25043, 13.08597], [80.25054, 13.08591], [80.25062, 13.0859], [80.25084, 13.08587], [80.25127, 13.08583], [80.2521, 13.08569], [80.25289, 13.08561], [80.25311, 13.08558], [80.25336, 13.08558], [80.25375, 13.08559], [80.25446, 13.08568], [80.25471, 13.08577], [80.25631, 13.08636], [80.25636, 13.08643], [80.25754, 13.08685], [80.25787, 13.08694], [80.25833, 13.08706], [80.25891, 13.08723], [80.26005, 13.08753], [80.26076, 13.08773], [80.2609, 13.08777], [80.26099, 13.08776], [80.26244, 13.0882], [80.2631, 13.0884], [80.26332, 13.08852], [80.26399, 13.08903], [80.26497, 13.08982], [80.26527, 13.09017], [80.26535, 13.0902], [80.26585, 13.09034], [80.26634, 13.09043], [80.26789, 13.09054], [80.26887, 13.09062], [80.26908, 13.09066], [80.26922, 13.09072], [80.26933, 13.09075], [80.26934, 13.09078], [80.26934, 13.09087], [80.26934, 13.09129], [80.26943, 13.09219], [80.26945, 13.09229], [80.26941, 13.09233], [80.26927, 13.09244], [80.26909, 13.09265], [80.26875, 13.09331], [80.26838, 13.09402], [80.2684, 13.09415], [80.26852, 13.09455], [80.26864, 13.09549], [80.26863, 13.09609], [80.26858, 13.09667], [80.26847, 13.09774], [80.26844, 13.09825], [80.26846, 13.09833], [80.26886, 13.09898], [80.26952, 13.10008], [80.27043, 13.10146], [80.27049, 13.10163], [80.27049, 13.10178], [80.27045, 13.10338], [80.27048, 13.10374], [80.27052, 13.10393], [80.2706, 13.10416], [80.27069, 13.10427], [80.27075, 13.10431], [80.27111, 13.10443], [80.27127, 13.10452], [80.271, 13.10515], [80.27085, 13.10544], [80.27061, 13.10572], [80.26972, 13.10656], [80.26942, 13.10687], [80.26929, 13.10693], [80.26908, 13.10712], [80.26842, 13.10778], [80.26781, 13.10839], [80.26715, 13.10903], [80.26655, 13.10964], [80.26646, 13.10976], [80.26662, 13.10985], [80.26669, 13.10986], [80.26684, 13.10967], [80.26713, 13.10933], [80.26732, 13.10915], [80.268, 13.10854], [80.26904, 13.10754], [80.26913, 13.10743], [80.26918, 13.10727], [80.27009, 13.10635], [80.27081, 13.10561], [80.2709, 13.10548], [80.27106, 13.10515], [80.27126, 13.10469], [80.27135, 13.10454], [80.27139, 13.10451], [80.27158, 13.10445], [80.27191, 13.10434], [80.27236, 13.10396], [80.27256, 13.10387], [80.2728, 13.10389], [80.27351, 13.10403], [80.27384, 13.10407], [80.27385, 13.10405], [80.27515, 13.1043], [80.27582, 13.10452], [80.27676, 13.10484], [80.27723, 13.105], [80.27735, 13.10506], [80.27766, 13.10517], [80.27807, 13.1053], [80.27949, 13.1057], [80.27974, 13.10575], [80.27975, 13.10579], [80.27978, 13.10582], [80.27984, 13.106], [80.2799, 13.10624], [80.27996, 13.10651], [80.28034, 13.10771], [80.28062, 13.10863], [80.28066, 13.10883], [80.28066, 13.10894], [80.28062, 13.10913], [80.28049, 13.10934], [80.28042, 13.10941], [80.28029, 13.10951], [80.28012, 13.10961], [80.27957, 13.10987], [80.27907, 13.11015], [80.27873, 13.1104], [80.27828, 13.11079], [80.27804, 13.11107], [80.27797, 13.11118], [80.2779, 13.11127], [80.27784, 13.11133], [80.27782, 13.11141], [80.27782, 13.11149], [80.27785, 13.11156], [80.27791, 13.11162], [80.27799, 13.11165], [80.27808, 13.11165], [80.27816, 13.11162], [80.27822, 13.11157], [80.27824, 13.11153], [80.27831, 13.11145], [80.27845, 13.11128], [80.27852, 13.11114], [80.27853, 13.11106], [80.27855, 13.11088], [80.2786, 13.11079], [80.27892, 13.11052], [80.27924, 13.11029], [80.27977, 13.10997], [80.28014, 13.10979], [80.28047, 13.10966], [80.2808, 13.10953], [80.28089, 13.10952], [80.28096, 13.10956], [80.28113, 13.11005], [80.28116, 13.11016], [80.28126, 13.11048], [80.28127, 13.11058], [80.28138, 13.11092], [80.28147, 13.11133], [80.2815, 13.11192], [80.28155, 13.11214], [80.28169, 13.11262], [80.28171, 13.11266], [80.28201, 13.11347], [80.28235, 13.11432], [80.28253, 13.11477], [80.28278, 13.11511], [80.28342, 13.11604], [80.28392, 13.11675], [80.28414, 13.11712], [80.28461, 13.11788], [80.28503, 13.11846], [80.28588, 13.11995], [80.28624, 13.12069], [80.28639, 13.12113], [80.2864, 13.12121], [80.28641, 13.12125], [80.28679, 13.12205], [80.28692, 13.1223], [80.28706, 13.12258], [80.28733, 13.12307], [80.28755, 13.12338], [80.28772, 13.12345], [80.28788, 13.12359], [80.28814, 13.12383], [80.28828, 13.12399], [80.28836, 13.12409], [80.28845, 13.12433], [80.28871, 13.12471], [80.28905, 13.12533], [80.2894, 13.12611], [80.29034, 13.12789], [80.29032, 13.12792], [80.29029, 13.128], [80.29044, 13.12806], [80.29052, 13.12827], [80.29058, 13.12843], [80.29186, 13.13165], [80.29249, 13.13339], [80.29257, 13.13367], [80.29258, 13.13375], [80.29268, 13.13394], [80.29283, 13.13421], [80.29293, 13.13443], [80.29318, 13.13511], [80.29353, 13.13618], [80.29361, 13.13635], [80.29369, 13.1366], [80.29397, 13.13722], [80.29404, 13.13743], [80.29437, 13.13837], [80.29451, 13.13874], [80.29536, 13.14102], [80.29554, 13.14146], [80.2958, 13.14211], [80.29627, 13.14328], [80.2963, 13.14338], [80.29643, 13.14366], [80.29673, 13.14432], [80.29688, 13.14469], [80.29676, 13.14464], [80.29689, 13.14469], [80.29708, 13.14515], [80.29718, 13.14552], [80.2975, 13.14627], [80.29823, 13.14794], [80.29845, 13.14847], [80.29853, 13.14873], [80.29872, 13.14923], [80.29905, 13.15004], [80.2996, 13.15133], [80.30016, 13.15266], [80.3003, 13.15316], [80.30034, 13.15339], [80.30041, 13.15386], [80.30048, 13.15425], [80.30068, 13.15484], [80.30106, 13.15576], [80.30119, 13.15614], [80.30127, 13.15639], [80.30155, 13.15747], [80.30163, 13.15778], [80.30172, 13.15803], [80.30193, 13.15849], [80.30203, 13.15881], [80.30225, 13.15956], [80.30248, 13.16064], [80.30279, 13.16168], [80.30313, 13.16245], [80.30329, 13.16288], [80.30332, 13.16303], [80.30334, 13.16326], [80.30334, 13.16335], [80.30335, 13.16405], [80.30337, 13.16459], [80.30347, 13.16516], [80.30386, 13.16675], [80.30418, 13.16801], [80.30443, 13.16892], [80.30461, 13.16954], [80.30482, 13.17049], [80.30526, 13.17207], [80.30525, 13.17208], [80.30594, 13.17461], [80.30608, 13.17511]]}}]}