{"type": "FeatureCollection", "features": [{"type": "Feature", "properties": {"route_name": "16K", "stop_id": "BpAiVnps", "name": "CMBT Koyembedu Bus Depot", "city": "CHENNAI"}, "geometry": {"type": "Point", "coordinates": [80.20518932458458, 13.068981607807045]}}, {"type": "Feature", "properties": {"route_name": "16K", "stop_id": "fcKeEgEf", "name": "Koyambedu Market Or Police Station", "city": "CHENNAI"}, "geometry": {"type": "Point", "coordinates": [80.20109060314235, 13.070096067447476]}}, {"type": "Feature", "properties": {"route_name": "16K", "stop_id": "CrcsXCbZ", "name": "Koyambedu Market Or Police Station", "city": "CHENNAI"}, "geometry": {"type": "Point", "coordinates": [80.20050286409196, 13.069209046037145]}}, {"type": "Feature", "properties": {"route_name": "16K", "stop_id": "BRjWpQtg", "name": "Koyambedu Market", "city": "CHENNAI"}, "geometry": {"type": "Point", "coordinates": [80.19882827431991, 13.066117019339456]}}, {"type": "Feature", "properties": {"route_name": "16K", "stop_id": "lOdrwgOe", "name": "Chinmaya Nagar", "city": "CHENNAI"}, "geometry": {"type": "Point", "coordinates": [80.19701278050809, 13.06266274436485]}}, {"type": "Feature", "properties": {"route_name": "16K", "stop_id": "mqlWPdpA", "name": "Natesan Nagar", "city": "CHENNAI"}, "geometry": {"type": "Point", "coordinates": [80.19445046739668, 13.057620944036497]}}, {"type": "Feature", "properties": {"route_name": "16K", "stop_id": "tkDBwPiV", "name": "Elango Nagar", "city": "CHENNAI"}, "geometry": {"type": "Point", "coordinates": [80.19232060499394, 13.05324713706163]}}, {"type": "Feature", "properties": {"route_name": "16K", "stop_id": "uGNDunGF", "name": "Kaliyamman Kovil", "city": "CHENNAI"}, "geometry": {"type": "Point", "coordinates": [80.19218234, 13.04908718]}}, {"type": "Feature", "properties": {"route_name": "16K", "stop_id": "PKfyrIVb", "name": "Virugambakkam Saradha Nagar", "city": "CHENNAI"}, "geometry": {"type": "Point", "coordinates": [80.19590366207444, 13.047514004919448]}}, {"type": "Feature", "properties": {"route_name": "16K", "stop_id": "UgpyjFML", "name": "Virugambakkam", "city": "CHENNAI"}, "geometry": {"type": "Point", "coordinates": [80.1901037120291, 13.046384201026925]}}, {"type": "Feature", "properties": {"route_name": "16K", "stop_id": "tzYrVhKO", "name": "Alwarthirunagar", "city": "CHENNAI"}, "geometry": {"type": "Point", "coordinates": [80.18492090081008, 13.04427899667178]}}, {"type": "Feature", "properties": {"route_name": "16K", "stop_id": "YctaenCe", "name": "Kesavardhini", "city": "CHENNAI"}, "geometry": {"type": "Point", "coordinates": [80.17795315931426, 13.041898394177187]}}, {"type": "Feature", "properties": {"route_name": "16K", "stop_id": "jcExlqwL", "name": "Valasaravakkam", "city": "CHENNAI"}, "geometry": {"type": "Point", "coordinates": [80.17370076220504, 13.041051362245241]}}, {"type": "Feature", "properties": {"route_name": "16K", "stop_id": "RCkelXPh", "name": "Jai Garden", "city": "CHENNAI"}, "geometry": {"type": "Point", "coordinates": [80.16872719200319, 13.038778670869139]}}, {"type": "Feature", "properties": {"route_name": "16K", "stop_id": "ByxmyJFT", "name": "Lakshmi Nagar", "city": "CHENNAI"}, "geometry": {"type": "Point", "coordinates": [80.16474042994275, 13.038178686624581]}}, {"type": "Feature", "properties": {"route_name": "16K", "stop_id": "bFakMEeO", "name": "Karambakkam", "city": "CHENNAI"}, "geometry": {"type": "Point", "coordinates": [80.15971588410116, 13.03744573288191]}}, {"type": "Feature", "properties": {"route_name": "16K", "stop_id": "FcGSHAFP", "name": "Porur Arcot Road", "city": "CHENNAI"}, "geometry": {"type": "Point", "coordinates": [80.15652322024289, 13.035336076760826]}}, {"type": "Feature", "properties": {"route_name": "16K", "stop_id": "wyEQXfIU", "name": "Porur E B Office", "city": "CHENNAI"}, "geometry": {"type": "Point", "coordinates": [80.15293087001737, 13.030636642116919]}}, {"type": "Feature", "properties": {"route_name": "16K", "stop_id": "FCsbIOBe", "name": "Vigneshwara Nagar Porur", "city": "CHENNAI"}, "geometry": {"type": "Point", "coordinates": [80.15125509136055, 13.028138903084185]}}, {"type": "Feature", "properties": {"route_name": "16K", "stop_id": "aWNaUdzp", "name": "Madhanandapuram", "city": "CHENNAI"}, "geometry": {"type": "Point", "coordinates": [80.14656646490482, 13.02302722408822]}}, {"type": "Feature", "properties": {"route_name": "16K", "stop_id": "ZIPCqImv", "name": "Bai Kadai Moulivakkam", "city": "CHENNAI"}, "geometry": {"type": "Point", "coordinates": [80.14403182388355, 13.020562403388517]}}, {"type": "Feature", "properties": {"route_name": "16K", "stop_id": "ciAbSxQX", "name": "Moulivakkam L And T", "city": "CHENNAI"}, "geometry": {"type": "Point", "coordinates": [80.14265212808891, 13.019115462052312]}}, {"type": "Feature", "properties": {"route_name": "16K", "stop_id": "TEKQTTfp", "name": "Gerugambakkam", "city": "CHENNAI"}, "geometry": {"type": "Point", "coordinates": [80.13654946600218, 13.015397339832532]}}, {"type": "Feature", "properties": {"route_name": "16K", "stop_id": "YzXnYVPd", "name": "Periyapanicherr", "city": "CHENNAI"}, "geometry": {"type": "Point", "coordinates": [80.13198323559209, 13.012474922040846]}}, {"type": "Feature", "properties": {"route_name": "16K", "stop_id": "IkwHYYuh", "name": "Periyapanicherry Church", "city": "CHENNAI"}, "geometry": {"type": "Point", "coordinates": [80.13008993337337, 13.011881708960981]}}, {"type": "Feature", "properties": {"route_name": "16K", "stop_id": "ZuDlysuz", "name": "Chekkady", "city": "CHENNAI"}, "geometry": {"type": "Point", "coordinates": [80.12385644230562, 13.01097123167517]}}, {"type": "Feature", "properties": {"route_name": "16K", "stop_id": "FwybjYQK", "name": "Kovur", "city": "CHENNAI"}, "geometry": {"type": "Point", "coordinates": [80.11991304043113, 13.00996394463568]}}, {"type": "Feature", "properties": {"route_name": "16K", "stop_id": "qoWOoICL", "name": "Kovur E B Office", "city": "CHENNAI"}, "geometry": {"type": "Point", "coordinates": [80.11449240152763, 13.010566466099364]}}, {"type": "Feature", "properties": {"route_name": "16K", "stop_id": "KcDUQTDz", "name": "Madha Hospital And College", "city": "CHENNAI"}, "geometry": {"type": "Point", "coordinates": [80.11308843888071, 13.007429887221573]}}, {"type": "Feature", "properties": {"route_name": "16K", "stop_id": "HZcfHzwe", "name": "Moondram Kattalai", "city": "CHENNAI"}, "geometry": {"type": "Point", "coordinates": [80.10950948097036, 13.005394192855286]}}, {"type": "Feature", "properties": {"route_name": "16K", "stop_id": "jCutlGli", "name": "Parimalam Theatre", "city": "CHENNAI"}, "geometry": {"type": "Point", "coordinates": [80.10276870023176, 13.004639853622509]}}, {"type": "Feature", "properties": {"route_name": "16K", "stop_id": "EhUxMFuQ", "name": "Kundrathur Nalu Road Or Kolachery Junction", "city": "CHENNAI"}, "geometry": {"type": "Point", "coordinates": [80.09972237237162, 13.003494659599554]}}, {"type": "Feature", "properties": {"route_name": "16K", "stop_id": "MhxjGQjy", "name": "Shri Nagathaman Temple", "city": "CHENNAI"}, "geometry": {"type": "Point", "coordinates": [80.09762761733964, 13.00014673192873]}}, {"type": "Feature", "properties": {"route_name": "16K", "stop_id": "UgzfanVk", "name": "Kundrathur Bus Depot", "city": "CHENNAI"}, "geometry": {"type": "Point", "coordinates": [80.09613879486278, 12.997118033846938]}}, {"type": "Feature", "properties": {"name": "16K"}, "geometry": {"type": "LineString", "coordinates": [[80.20477, 13.06931], [80.20488, 13.06977], [80.20402, 13.07042], [80.20333, 13.07099], [80.20277, 13.07146], [80.20207, 13.07204], [80.20104, 13.07018], [80.20102, 13.07014], [80.20057, 13.06945], [80.20047, 13.06923], [80.20045, 13.06919], [80.19973, 13.0678], [80.19881, 13.06613], [80.19874, 13.06599], [80.19865, 13.06575], [80.19821, 13.0649], [80.1979, 13.06434], [80.19722, 13.0631], [80.19712, 13.06292], [80.19701, 13.06267], [80.19701, 13.0627], [80.197, 13.06267], [80.19557, 13.06008], [80.1955, 13.05988], [80.1952, 13.05932], [80.19438, 13.05766], [80.19396, 13.05682], [80.19346, 13.05581], [80.19342, 13.05577], [80.19314, 13.05521], [80.1922, 13.05322], [80.19231, 13.05319], [80.1922, 13.05322], [80.19215, 13.05286], [80.19212, 13.05264], [80.19215, 13.05257], [80.19214, 13.05241], [80.1921, 13.05202], [80.19208, 13.05076], [80.19205, 13.05063], [80.19206, 13.05002], [80.19206, 13.04968], [80.1921, 13.04944], [80.19214, 13.04908], [80.19219, 13.04903], [80.19307, 13.04909], [80.19375, 13.04907], [80.19389, 13.04907], [80.19418, 13.04901], [80.1946, 13.0489], [80.19525, 13.04876], [80.19565, 13.04869], [80.19574, 13.04867], [80.1958, 13.04803], [80.19588, 13.04751], [80.19587, 13.04751], [80.19589, 13.04738], [80.19514, 13.0474], [80.19489, 13.0473], [80.19421, 13.04682], [80.19395, 13.0467], [80.19368, 13.04665], [80.19336, 13.04664], [80.19256, 13.04658], [80.19208, 13.04659], [80.19103, 13.04651], [80.19064, 13.0465], [80.1901, 13.04646], [80.18938, 13.04643], [80.18915, 13.04638], [80.1882, 13.04608], [80.1875, 13.04583], [80.18705, 13.04561], [80.18683, 13.04549], [80.18667, 13.04536], [80.18657, 13.04528], [80.18627, 13.04505], [80.18613, 13.04494], [80.18587, 13.04477], [80.1849, 13.04431], [80.18487, 13.04429], [80.18424, 13.04401], [80.18412, 13.04397], [80.18317, 13.04354], [80.18261, 13.04331], [80.18223, 13.04312], [80.182, 13.04285], [80.1818, 13.04265], [80.18173, 13.0426], [80.18127, 13.04241], [80.18035, 13.04218], [80.17984, 13.04204], [80.17906, 13.04192], [80.17796, 13.04196], [80.17705, 13.04199], [80.17668, 13.04195], [80.17611, 13.0418], [80.17439, 13.04129], [80.17371, 13.04112], [80.17368, 13.04111], [80.17248, 13.04069], [80.17203, 13.04053], [80.17175, 13.04041], [80.17074, 13.03987], [80.16994, 13.03937], [80.16936, 13.03905], [80.16903, 13.03892], [80.1688, 13.03886], [80.16871, 13.03884], [80.16711, 13.03853], [80.16603, 13.03834], [80.16546, 13.03826], [80.16495, 13.03822], [80.16474, 13.03821], [80.16401, 13.03818], [80.16353, 13.03812], [80.16275, 13.03796], [80.16157, 13.03775], [80.16048, 13.03764], [80.15972, 13.03751], [80.1597, 13.0375], [80.15922, 13.03736], [80.15889, 13.03725], [80.15877, 13.03724], [80.15819, 13.03699], [80.1577, 13.03674], [80.15733, 13.03649], [80.15706, 13.03622], [80.15693, 13.03604], [80.15666, 13.03565], [80.15665, 13.03558], [80.1565, 13.03535], [80.15618, 13.03492], [80.15592, 13.03463], [80.15556, 13.03415], [80.15514, 13.0336], [80.15475, 13.03316], [80.15439, 13.03279], [80.15395, 13.03229], [80.15374, 13.03199], [80.15327, 13.03119], [80.15291, 13.03065], [80.15247, 13.02995], [80.1513, 13.02822], [80.15124, 13.02815], [80.15048, 13.02712], [80.14976, 13.0262], [80.14905, 13.02545], [80.14857, 13.02502], [80.1483, 13.02481], [80.14751, 13.02413], [80.14722, 13.02382], [80.14675, 13.02331], [80.1465, 13.02305], [80.14654, 13.023], [80.1465, 13.02305], [80.14631, 13.02286], [80.14583, 13.02238], [80.14479, 13.02135], [80.14402, 13.02058], [80.14353, 13.02014], [80.14319, 13.01983], [80.14283, 13.01946], [80.14257, 13.01919], [80.1415, 13.01809], [80.14117, 13.01781], [80.14104, 13.01773], [80.14059, 13.01749], [80.13966, 13.01704], [80.13825, 13.01634], [80.13747, 13.01593], [80.13704, 13.01573], [80.1367, 13.01553], [80.13653, 13.01544], [80.13604, 13.01519], [80.13523, 13.01474], [80.13487, 13.01456], [80.13396, 13.01394], [80.13341, 13.01357], [80.13331, 13.01348], [80.13324, 13.01339], [80.13312, 13.0132], [80.133, 13.01285], [80.13297, 13.01275], [80.13293, 13.01269], [80.13283, 13.01261], [80.13266, 13.01255], [80.13198, 13.01255], [80.1318, 13.01254], [80.13149, 13.0125], [80.13105, 13.01234], [80.13049, 13.01207], [80.13008, 13.01191], [80.12956, 13.01176], [80.12901, 13.01168], [80.12809, 13.01159], [80.12753, 13.01153], [80.12701, 13.01149], [80.12608, 13.01146], [80.1255, 13.01147], [80.12487, 13.01151], [80.12463, 13.01148], [80.1244, 13.01138], [80.12389, 13.01108], [80.12382, 13.01104], [80.12338, 13.01072], [80.1232, 13.01052], [80.12311, 13.01037], [80.12287, 13.00996], [80.1228, 13.00989], [80.12272, 13.00984], [80.12257, 13.0098], [80.12235, 13.00979], [80.12154, 13.00973], [80.12077, 13.00972], [80.12052, 13.00975], [80.12037, 13.0098], [80.11992, 13.00998], [80.11959, 13.01008], [80.11926, 13.01014], [80.1188, 13.01018], [80.11854, 13.01023], [80.11777, 13.01059], [80.11738, 13.01075], [80.11693, 13.01088], [80.1161, 13.01104], [80.11562, 13.0111], [80.11467, 13.0112], [80.11452, 13.01116], [80.11444, 13.01108], [80.11441, 13.011], [80.11442, 13.01057], [80.11443, 13.00898], [80.1144, 13.00879], [80.11436, 13.00864], [80.11429, 13.00853], [80.11418, 13.00839], [80.11401, 13.00823], [80.11358, 13.00789], [80.11305, 13.00748], [80.11274, 13.00724], [80.11158, 13.00648], [80.11116, 13.00629], [80.11082, 13.00618], [80.11061, 13.00609], [80.11038, 13.00597], [80.11, 13.00569], [80.10977, 13.00556], [80.10956, 13.00549], [80.10949, 13.00548], [80.10796, 13.00537], [80.10679, 13.0053], [80.10635, 13.00527], [80.1058, 13.00518], [80.10394, 13.00473], [80.10375, 13.0047], [80.10351, 13.00469], [80.10279, 13.00469], [80.10276, 13.00469], [80.10236, 13.00463], [80.10188, 13.00451], [80.10165, 13.00442], [80.10126, 13.00422], [80.10051, 13.00385], [80.09971, 13.00355], [80.09935, 13.00343], [80.09928, 13.00339], [80.09911, 13.00322], [80.09861, 13.00246], [80.09812, 13.00162], [80.09797, 13.00132], [80.09777, 13.00056], [80.09763, 13.00031], [80.09755, 13.00019], [80.09742, 13.0], [80.09701, 12.99934], [80.09676, 12.99885], [80.09668, 12.99867], [80.09654, 12.99829], [80.09651, 12.99822], [80.09645, 12.99774], [80.09639, 12.99743], [80.09635, 12.9971]]}}]}