{"type": "FeatureCollection", "features": [{"type": "Feature", "properties": {"route_name": "A47", "stop_id": "gyQqEnFq", "name": "Thiruvanmiyur Depot", "city": "CHENNAI"}, "geometry": {"type": "Point", "coordinates": [80.2592892551454, 12.98684992620367]}}, {"type": "Feature", "properties": {"route_name": "A47", "stop_id": "cNypyxpr", "name": "Jayanthi Theatre", "city": "CHENNAI"}, "geometry": {"type": "Point", "coordinates": [80.25582217606757, 12.988722680619484]}}, {"type": "Feature", "properties": {"route_name": "A47", "stop_id": "cTQVugNT", "name": "Adyar Depot", "city": "CHENNAI"}, "geometry": {"type": "Point", "coordinates": [80.25595449198102, 12.998757450902367]}}, {"type": "Feature", "properties": {"route_name": "A47", "stop_id": "iOuVBZzk", "name": "Adyar Signal", "city": "CHENNAI"}, "geometry": {"type": "Point", "coordinates": [80.25736646974485, 13.00648356707115]}}, {"type": "Feature", "properties": {"route_name": "A47", "stop_id": "IHZGJZTs", "name": "Adyar Gandhi Nagar", "city": "CHENNAI"}, "geometry": {"type": "Point", "coordinates": [80.24984028893414, 13.006673142899373]}}, {"type": "Feature", "properties": {"route_name": "A47", "stop_id": "nYVfIRsk", "name": "Madhya Kailash", "city": "CHENNAI"}, "geometry": {"type": "Point", "coordinates": [80.2461821771177, 13.00651661419635]}}, {"type": "Feature", "properties": {"route_name": "A47", "stop_id": "knCDNjnp", "name": "IIT Madras Or Guindy National Park", "city": "CHENNAI"}, "geometry": {"type": "Point", "coordinates": [80.23999363331677, 13.00679210140227]}}, {"type": "Feature", "properties": {"route_name": "A47", "stop_id": "mLBQtksd", "name": "Anna University Or Engineer College", "city": "CHENNAI"}, "geometry": {"type": "Point", "coordinates": [80.2366756977184, 13.007404587801359]}}, {"type": "Feature", "properties": {"route_name": "A47", "stop_id": "GpnhEWuy", "name": "Concorde or Chellammal College", "city": "CHENNAI"}, "geometry": {"type": "Point", "coordinates": [80.22194994, 13.01186343]}}, {"type": "Feature", "properties": {"route_name": "A47", "stop_id": "FyoAuDvn", "name": "Little Mount ", "city": "CHENNAI"}, "geometry": {"type": "Point", "coordinates": [80.2250649963828, 13.015597546918361]}}, {"type": "Feature", "properties": {"route_name": "A47", "stop_id": "NXLrCKMp", "name": "Panagal Maligai Or Saiadapet Bridge", "city": "CHENNAI"}, "geometry": {"type": "Point", "coordinates": [80.2243533022414, 13.019119618356324]}}, {"type": "Feature", "properties": {"route_name": "A47", "stop_id": "xiTGCYEl", "name": "Saidapet", "city": "CHENNAI"}, "geometry": {"type": "Point", "coordinates": [80.22645189784225, 13.02237471448576]}}, {"type": "Feature", "properties": {"route_name": "A47", "stop_id": "yNIUaSyZ", "name": "Thadandar Nagar", "city": "CHENNAI"}, "geometry": {"type": "Point", "coordinates": [80.22842398188516, 13.024420523467967]}}, {"type": "Feature", "properties": {"route_name": "A47", "stop_id": "cNuIRYrx", "name": "Saidapet Veterinary Hospital Or Raja Hostel", "city": "CHENNAI"}, "geometry": {"type": "Point", "coordinates": [80.22971101723124, 13.025441595631346]}}, {"type": "Feature", "properties": {"route_name": "A47", "stop_id": "bZroqIhX", "name": "CIT Nagar", "city": "CHENNAI"}, "geometry": {"type": "Point", "coordinates": [80.23073054407075, 13.02925281559845]}}, {"type": "Feature", "properties": {"route_name": "A47", "stop_id": "zqCmVtrb", "name": "Thiyagaraya Nagar Bus Depot", "city": "CHENNAI"}, "geometry": {"type": "Point", "coordinates": [80.23095264146025, 13.034982028375545]}}, {"type": "Feature", "properties": {"route_name": "A47", "stop_id": "zAwPDfkg", "name": "Perumal Koil", "city": "CHENNAI"}, "geometry": {"type": "Point", "coordinates": [80.23678801748513, 13.035582362905718]}}, {"type": "Feature", "properties": {"route_name": "A47", "stop_id": "QgwCgjAi", "name": "Panagal Park", "city": "CHENNAI"}, "geometry": {"type": "Point", "coordinates": [80.23311542465956, 13.042139934739156]}}, {"type": "Feature", "properties": {"route_name": "A47", "stop_id": "nDzrviXX", "name": "Jeeva Park", "city": "CHENNAI"}, "geometry": {"type": "Point", "coordinates": [80.23772224093398, 13.043831508063153]}}, {"type": "Feature", "properties": {"route_name": "A47", "stop_id": "fRBexIzo", "name": "Kamarajar Illam", "city": "CHENNAI"}, "geometry": {"type": "Point", "coordinates": [80.23977553646, 13.04772552196662]}}, {"type": "Feature", "properties": {"route_name": "A47", "stop_id": "cEwgxjVO", "name": "Vidyodaya School Valluvar Kottam", "city": "CHENNAI"}, "geometry": {"type": "Point", "coordinates": [80.24045931666842, 13.051129778009896]}}, {"type": "Feature", "properties": {"route_name": "A47", "stop_id": "RfzcmazU", "name": "Valluvar Kottam", "city": "CHENNAI"}, "geometry": {"type": "Point", "coordinates": [80.24202386011893, 13.053769261938113]}}, {"type": "Feature", "properties": {"route_name": "A47", "stop_id": "zfZPgPol", "name": "Pushpa Nagar", "city": "CHENNAI"}, "geometry": {"type": "Point", "coordinates": [80.24012098176786, 13.058869631467973]}}, {"type": "Feature", "properties": {"route_name": "A47", "stop_id": "QkCkRebE", "name": "Nungambakkam Railway Station", "city": "CHENNAI"}, "geometry": {"type": "Point", "coordinates": [80.23146481621518, 13.066407742064772]}}, {"type": "Feature", "properties": {"route_name": "A47", "stop_id": "eyyOhowT", "name": "Choolaimedu", "city": "CHENNAI"}, "geometry": {"type": "Point", "coordinates": [80.23017390122482, 13.066654226787545]}}, {"type": "Feature", "properties": {"route_name": "A47", "stop_id": "AqgjLYqB", "name": "Metha Nagar", "city": "CHENNAI"}, "geometry": {"type": "Point", "coordinates": [80.22675886011893, 13.067873534948928]}}, {"type": "Feature", "properties": {"route_name": "A47", "stop_id": "ztAgUBDz", "name": "Arun Hotel", "city": "CHENNAI"}, "geometry": {"type": "Point", "coordinates": [80.22160098296695, 13.072116742190028]}}, {"type": "Feature", "properties": {"route_name": "A47", "stop_id": "vNMxowJX", "name": "Aminjikarai Police Station", "city": "CHENNAI"}, "geometry": {"type": "Point", "coordinates": [80.21770513634033, 13.081312385261592]}}, {"type": "Feature", "properties": {"route_name": "A47", "stop_id": "lklhFYFG", "name": "Anna Nagar Roundtana", "city": "CHENNAI"}, "geometry": {"type": "Point", "coordinates": [80.21710444985945, 13.084544151387918]}}, {"type": "Feature", "properties": {"route_name": "A47", "stop_id": "ftMGYADA", "name": "Blue Star", "city": "CHENNAI"}, "geometry": {"type": "Point", "coordinates": [80.21092927116388, 13.084782531421304]}}, {"type": "Feature", "properties": {"route_name": "A47", "stop_id": "WPBOglHu", "name": "12th Main Road", "city": "CHENNAI"}, "geometry": {"type": "Point", "coordinates": [80.20462823, 13.08507769]}}, {"type": "Feature", "properties": {"route_name": "A47", "stop_id": "lmZJehpq", "name": "Thirumangalam", "city": "CHENNAI"}, "geometry": {"type": "Point", "coordinates": [80.19845386988084, 13.090937421165162]}}, {"type": "Feature", "properties": {"route_name": "A47", "stop_id": "EmkugZPX", "name": "Anna Nagar West Depot", "city": "CHENNAI"}, "geometry": {"type": "Point", "coordinates": [80.1984805710307, 13.093776863124802]}}, {"type": "Feature", "properties": {"route_name": "A47", "stop_id": "XMWgellz", "name": "Padi Lucas TVS", "city": "CHENNAI"}, "geometry": {"type": "Point", "coordinates": [80.18990669389882, 13.101102795489325]}}, {"type": "Feature", "properties": {"route_name": "A47", "stop_id": "UtwZFZsx", "name": "Mannurpet", "city": "CHENNAI"}, "geometry": {"type": "Point", "coordinates": [80.17518464545378, 13.098080652469589]}}, {"type": "Feature", "properties": {"route_name": "A47", "stop_id": "wrsPDGBQ", "name": "Ambattur Industrial Estate", "city": "CHENNAI"}, "geometry": {"type": "Point", "coordinates": [80.17032184859568, 13.099698603449541]}}, {"type": "Feature", "properties": {"route_name": "A47", "stop_id": "zjjLSYAp", "name": "Telephone Exchange", "city": "CHENNAI"}, "geometry": {"type": "Point", "coordinates": [80.16247967319168, 13.101233537500907]}}, {"type": "Feature", "properties": {"route_name": "A47", "stop_id": "fGmFhgnx", "name": "Dunlop", "city": "CHENNAI"}, "geometry": {"type": "Point", "coordinates": [80.15223695407883, 13.106193579904843]}}, {"type": "Feature", "properties": {"route_name": "A47", "stop_id": "rckblBTM", "name": "Canara Bank", "city": "CHENNAI"}, "geometry": {"type": "Point", "coordinates": [80.15212191275464, 13.110312595368894]}}, {"type": "Feature", "properties": {"route_name": "A47", "stop_id": "yQQuLFAg", "name": "Ambattur OT Bus Stand", "city": "CHENNAI"}, "geometry": {"type": "Point", "coordinates": [80.14973219597255, 13.119674819969369]}}, {"type": "Feature", "properties": {"route_name": "A47", "stop_id": "FlYjxOxQ", "name": "Stedford Hospital", "city": "CHENNAI"}, "geometry": {"type": "Point", "coordinates": [80.14358188300969, 13.124411446947889]}}, {"type": "Feature", "properties": {"route_name": "A47", "stop_id": "GkYZbgqg", "name": "Saraswathi Nagar CTH Salai", "city": "CHENNAI"}, "geometry": {"type": "Point", "coordinates": [80.13964594131141, 13.128044553010751]}}, {"type": "Feature", "properties": {"route_name": "A47", "stop_id": "FStgRiBS", "name": "Manikandapuram", "city": "CHENNAI"}, "geometry": {"type": "Point", "coordinates": [80.13632670464676, 13.13041694949477]}}, {"type": "Feature", "properties": {"route_name": "A47", "stop_id": "Vlipnutt", "name": "Vaishnavi Nagar", "city": "CHENNAI"}, "geometry": {"type": "Point", "coordinates": [80.12504772543741, 13.129621709283668]}}, {"type": "Feature", "properties": {"route_name": "A47", "stop_id": "bHagonKv", "name": "Murugappa Polytechnic", "city": "CHENNAI"}, "geometry": {"type": "Point", "coordinates": [80.1191290174753, 13.125786743953624]}}, {"type": "Feature", "properties": {"route_name": "A47", "stop_id": "PhjcDdmq", "name": "Tube Products of India", "city": "CHENNAI"}, "geometry": {"type": "Point", "coordinates": [80.112518168713, 13.12331203321694]}}, {"type": "Feature", "properties": {"route_name": "A47", "stop_id": "ogOCBKAf", "name": "Avadi Terminal", "city": "CHENNAI"}, "geometry": {"type": "Point", "coordinates": [80.10204658205703, 13.120113061821396]}}, {"type": "Feature", "properties": {"name": "A47"}, "geometry": {"type": "LineString", "coordinates": [[80.25933, 12.98728], [80.25893, 12.98734], [80.25807, 12.98736], [80.25742, 12.98745], [80.25666, 12.9875], [80.25574, 12.98761], [80.25575, 12.98807], [80.2558, 12.98871], [80.25584, 12.98872], [80.25588, 12.98906], [80.25595, 12.99019], [80.25601, 12.99145], [80.25605, 12.9926], [80.25604, 12.99299], [80.25591, 12.99427], [80.25589, 12.9948], [80.25586, 12.99518], [80.25582, 12.9964], [80.25582, 12.99693], [80.25587, 12.99779], [80.25602, 12.99875], [80.25613, 12.99949], [80.25616, 12.99978], [80.25625, 13.00023], [80.25636, 13.00089], [80.25656, 13.00208], [80.2567, 13.00287], [80.25709, 13.00484], [80.25733, 13.00603], [80.25743, 13.00648], [80.25736, 13.00655], [80.25612, 13.00652], [80.2554, 13.0065], [80.2547, 13.00654], [80.25426, 13.00651], [80.2529, 13.0065], [80.25232, 13.00653], [80.25167, 13.00667], [80.25166, 13.00662], [80.25145, 13.00665], [80.25108, 13.00668], [80.25064, 13.00666], [80.24984, 13.00664], [80.2498, 13.00672], [80.24926, 13.0067], [80.2486, 13.00666], [80.24839, 13.00664], [80.24779, 13.00665], [80.24731, 13.00666], [80.24679, 13.00665], [80.24652, 13.00666], [80.24635, 13.00665], [80.24626, 13.00664], [80.24621, 13.00661], [80.24599, 13.00666], [80.24538, 13.00664], [80.24455, 13.00663], [80.24297, 13.00662], [80.24215, 13.0066], [80.24162, 13.0066], [80.24108, 13.00665], [80.24029, 13.00676], [80.24, 13.00683], [80.23812, 13.00719], [80.2372, 13.00739], [80.2367, 13.0075], [80.23669, 13.00747], [80.23659, 13.00749], [80.23656, 13.00753], [80.2357, 13.0077], [80.23518, 13.00781], [80.23218, 13.0084], [80.23002, 13.00882], [80.22831, 13.00917], [80.22799, 13.00928], [80.22742, 13.00951], [80.22617, 13.01008], [80.22607, 13.01018], [80.22492, 13.01074], [80.22472, 13.01081], [80.22441, 13.01094], [80.22343, 13.0113], [80.22196, 13.0119], [80.22159, 13.01203], [80.22149, 13.01207], [80.22143, 13.01218], [80.22141, 13.01223], [80.2214, 13.01231], [80.22146, 13.01241], [80.22174, 13.01263], [80.2224, 13.01314], [80.22313, 13.01375], [80.22316, 13.01379], [80.22317, 13.01387], [80.22367, 13.01429], [80.22395, 13.01453], [80.2247, 13.0151], [80.22479, 13.0153], [80.22493, 13.01553], [80.22503, 13.0156], [80.22505, 13.01561], [80.22523, 13.01581], [80.2253, 13.01593], [80.22534, 13.01605], [80.22536, 13.01614], [80.22535, 13.01627], [80.22527, 13.01662], [80.22509, 13.01709], [80.22441, 13.01877], [80.22436, 13.0191], [80.22436, 13.01912], [80.2244, 13.01942], [80.22451, 13.0197], [80.22462, 13.01991], [80.22491, 13.02035], [80.22625, 13.02209], [80.22648, 13.02235], [80.22747, 13.02349], [80.22771, 13.02374], [80.22799, 13.02398], [80.22846, 13.02437], [80.22978, 13.02536], [80.22998, 13.02552], [80.23026, 13.02571], [80.23051, 13.02583], [80.23083, 13.02593], [80.23138, 13.0261], [80.23124, 13.02644], [80.23111, 13.027], [80.23098, 13.02754], [80.23097, 13.02764], [80.23079, 13.02926], [80.23075, 13.02969], [80.23073, 13.0302], [80.23065, 13.03078], [80.23058, 13.03198], [80.23042, 13.03402], [80.23034, 13.03435], [80.23029, 13.03467], [80.23019, 13.035], [80.23018, 13.03501], [80.23017, 13.03504], [80.23017, 13.03509], [80.23019, 13.03513], [80.23024, 13.03515], [80.23028, 13.03514], [80.23032, 13.0351], [80.23033, 13.03505], [80.23049, 13.03501], [80.23095, 13.03495], [80.23312, 13.03464], [80.23488, 13.03442], [80.23662, 13.03421], [80.23693, 13.0342], [80.23711, 13.03422], [80.23723, 13.03424], [80.23756, 13.03444], [80.23682, 13.03561], [80.23641, 13.03624], [80.2356, 13.03752], [80.23455, 13.03917], [80.23425, 13.03961], [80.23373, 13.04046], [80.23358, 13.0406], [80.23279, 13.04077], [80.23219, 13.04096], [80.23214, 13.04099], [80.23212, 13.04102], [80.232, 13.04105], [80.23211, 13.04147], [80.23219, 13.04187], [80.23224, 13.04223], [80.2323, 13.04222], [80.23241, 13.04221], [80.23266, 13.04215], [80.23306, 13.04205], [80.23308, 13.04215], [80.23306, 13.04205], [80.23357, 13.04195], [80.23397, 13.04187], [80.23411, 13.04185], [80.2343, 13.04187], [80.23447, 13.04193], [80.2351, 13.04229], [80.23546, 13.04247], [80.23582, 13.0427], [80.23647, 13.04305], [80.23776, 13.04377], [80.23819, 13.04402], [80.23827, 13.04407], [80.23823, 13.04413], [80.23909, 13.04459], [80.23937, 13.04476], [80.24, 13.04513], [80.24005, 13.0453], [80.23964, 13.04596], [80.23959, 13.04604], [80.23952, 13.04627], [80.23961, 13.04671], [80.23982, 13.04772], [80.24037, 13.05051], [80.24049, 13.05112], [80.24045, 13.05113], [80.24049, 13.05112], [80.24067, 13.05203], [80.24081, 13.05246], [80.24084, 13.05254], [80.24095, 13.05253], [80.24123, 13.05255], [80.2415, 13.0526], [80.24164, 13.05263], [80.24176, 13.05299], [80.24193, 13.05336], [80.2421, 13.05373], [80.24225, 13.05409], [80.2423, 13.05441], [80.24231, 13.05469], [80.24225, 13.05508], [80.24219, 13.05553], [80.24224, 13.0558], [80.24231, 13.05601], [80.24239, 13.05614], [80.24246, 13.05629], [80.24258, 13.05655], [80.2426, 13.05679], [80.24257, 13.05688], [80.24257, 13.05689], [80.24184, 13.05722], [80.24135, 13.0575], [80.24108, 13.05775], [80.24068, 13.05818], [80.24015, 13.05886], [80.24013, 13.05888], [80.23974, 13.05922], [80.2389, 13.05981], [80.23844, 13.06019], [80.23792, 13.06074], [80.23743, 13.06112], [80.2372, 13.06136], [80.23652, 13.06194], [80.23633, 13.06214], [80.23616, 13.06237], [80.23585, 13.0628], [80.23542, 13.0635], [80.23438, 13.06534], [80.23423, 13.06546], [80.23409, 13.06554], [80.2333, 13.06586], [80.23219, 13.06623], [80.23148, 13.06644], [80.23051, 13.06667], [80.23019, 13.06674], [80.23006, 13.06675], [80.22935, 13.0667], [80.22875, 13.0667], [80.22864, 13.06672], [80.22803, 13.06699], [80.22778, 13.06711], [80.22754, 13.06726], [80.22742, 13.06738], [80.22727, 13.06753], [80.22683, 13.06788], [80.22679, 13.06791], [80.22649, 13.06816], [80.22596, 13.06853], [80.22561, 13.06884], [80.22504, 13.0693], [80.22439, 13.06987], [80.22382, 13.07034], [80.22327, 13.07082], [80.22249, 13.07144], [80.22165, 13.07212], [80.22162, 13.07214], [80.22106, 13.07267], [80.22096, 13.0728], [80.22093, 13.07285], [80.22088, 13.07295], [80.22086, 13.07304], [80.22084, 13.07369], [80.22084, 13.07385], [80.22084, 13.07399], [80.22079, 13.07424], [80.2207, 13.07442], [80.22064, 13.07444], [80.22056, 13.0744], [80.21959, 13.07456], [80.21872, 13.07473], [80.2186, 13.07477], [80.21836, 13.0749], [80.21819, 13.07508], [80.21813, 13.07515], [80.21801, 13.07537], [80.21795, 13.07554], [80.21792, 13.07566], [80.21789, 13.07585], [80.21789, 13.07596], [80.21797, 13.07638], [80.21798, 13.07657], [80.21797, 13.077], [80.21794, 13.07722], [80.21784, 13.07769], [80.21775, 13.07816], [80.21772, 13.07831], [80.21769, 13.07834], [80.21769, 13.07859], [80.2177, 13.07919], [80.21771, 13.07962], [80.21775, 13.08072], [80.21777, 13.08131], [80.21789, 13.08395], [80.21783, 13.08445], [80.21779, 13.08452], [80.21775, 13.08456], [80.21711, 13.08462], [80.21093, 13.08487], [80.20993, 13.0849], [80.20725, 13.08501], [80.20602, 13.08508], [80.20463, 13.08513], [80.20341, 13.08518], [80.20292, 13.08517], [80.20037, 13.08527], [80.19916, 13.08533], [80.19865, 13.08534], [80.19844, 13.08534], [80.19844, 13.08544], [80.19844, 13.08596], [80.19846, 13.08693], [80.19844, 13.08752], [80.19848, 13.0895], [80.1985, 13.09034], [80.19854, 13.09048], [80.19855, 13.09094], [80.19854, 13.09378], [80.19854, 13.09654], [80.19854, 13.09706], [80.19848, 13.09739], [80.19841, 13.09764], [80.19834, 13.09777], [80.19825, 13.0979], [80.19796, 13.09817], [80.19772, 13.09832], [80.19747, 13.0984], [80.19714, 13.09849], [80.19675, 13.09861], [80.19645, 13.09863], [80.19626, 13.09867], [80.19577, 13.09892], [80.19546, 13.09911], [80.19502, 13.09949], [80.19473, 13.09985], [80.1946, 13.10007], [80.19443, 13.10045], [80.19436, 13.10068], [80.19431, 13.10087], [80.19427, 13.10106], [80.19422, 13.10123], [80.19415, 13.10136], [80.194, 13.1016], [80.19389, 13.10173], [80.19386, 13.1018], [80.19386, 13.10184], [80.19364, 13.10187], [80.19352, 13.10186], [80.19285, 13.10174], [80.1907, 13.10138], [80.18989, 13.10114], [80.18969, 13.10107], [80.18947, 13.10094], [80.189, 13.1006], [80.1888, 13.10047], [80.18856, 13.10033], [80.18803, 13.10009], [80.18778, 13.1], [80.18718, 13.09983], [80.18653, 13.09968], [80.18572, 13.0995], [80.18471, 13.09925], [80.18407, 13.09905], [80.18271, 13.09863], [80.18139, 13.09834], [80.1803, 13.09808], [80.17941, 13.09786], [80.17904, 13.09781], [80.17851, 13.0978], [80.17818, 13.09782], [80.17724, 13.0979], [80.17647, 13.09801], [80.17607, 13.09808], [80.17587, 13.09811], [80.17523, 13.09813], [80.17519, 13.09813], [80.17492, 13.09817], [80.17454, 13.09827], [80.17382, 13.09854], [80.17307, 13.09889], [80.17219, 13.09921], [80.17109, 13.09957], [80.1708, 13.09965], [80.17043, 13.09971], [80.17032, 13.09972], [80.16964, 13.0998], [80.16877, 13.09989], [80.16751, 13.09999], [80.16703, 13.10005], [80.16669, 13.10014], [80.16405, 13.101], [80.16326, 13.10122], [80.16308, 13.10125], [80.16251, 13.10132], [80.16249, 13.10133], [80.16145, 13.10142], [80.16009, 13.1014], [80.15984, 13.10144], [80.15972, 13.10148], [80.1595, 13.10161], [80.15927, 13.10182], [80.15912, 13.10199], [80.1588, 13.10234], [80.15837, 13.10279], [80.15803, 13.10312], [80.15791, 13.1032], [80.15768, 13.10331], [80.15721, 13.10347], [80.15668, 13.10359], [80.15442, 13.10411], [80.15401, 13.10422], [80.15369, 13.10434], [80.15313, 13.10464], [80.15281, 13.10487], [80.15263, 13.10503], [80.15251, 13.10517], [80.15239, 13.1054], [80.15233, 13.10557], [80.15226, 13.10615], [80.15225, 13.10619], [80.15224, 13.10707], [80.15222, 13.10758], [80.15219, 13.10856], [80.15217, 13.10912], [80.15225, 13.10993], [80.15227, 13.11011], [80.15221, 13.11024], [80.15214, 13.11033], [80.15194, 13.11054], [80.15181, 13.11073], [80.15169, 13.11111], [80.15161, 13.11126], [80.1515, 13.11139], [80.15111, 13.11171], [80.15076, 13.11199], [80.15058, 13.11216], [80.15049, 13.11227], [80.15031, 13.11258], [80.15016, 13.11283], [80.14995, 13.11304], [80.14972, 13.11313], [80.14955, 13.11317], [80.14907, 13.11328], [80.14898, 13.11335], [80.14878, 13.11341], [80.14867, 13.11348], [80.14851, 13.11363], [80.14843, 13.11374], [80.1483, 13.114], [80.14825, 13.11418], [80.1481, 13.11448], [80.14802, 13.11478], [80.14791, 13.11503], [80.14781, 13.11541], [80.14781, 13.11559], [80.14785, 13.11589], [80.14791, 13.11611], [80.148, 13.11631], [80.14807, 13.11643], [80.14818, 13.11656], [80.14835, 13.11672], [80.14926, 13.11747], [80.14937, 13.11759], [80.14942, 13.11769], [80.14947, 13.11781], [80.14955, 13.11821], [80.14975, 13.11923], [80.14977, 13.11945], [80.14976, 13.11968], [80.14972, 13.11982], [80.14957, 13.12005], [80.14917, 13.12041], [80.14901, 13.12057], [80.14891, 13.1207], [80.14861, 13.1212], [80.14849, 13.12142], [80.14815, 13.12171], [80.148, 13.12181], [80.14716, 13.12227], [80.14614, 13.12287], [80.14517, 13.12345], [80.1437, 13.12435], [80.1436, 13.12443], [80.14304, 13.1248], [80.14166, 13.12565], [80.14133, 13.12594], [80.14098, 13.12636], [80.14017, 13.12741], [80.13968, 13.12807], [80.13898, 13.12902], [80.13838, 13.12973], [80.13806, 13.13003], [80.13789, 13.13016], [80.13778, 13.13021], [80.13743, 13.13031], [80.13696, 13.1304], [80.13634, 13.13049], [80.13518, 13.13068], [80.13498, 13.1307], [80.13467, 13.13072], [80.13343, 13.13074], [80.1311, 13.13076], [80.13059, 13.13079], [80.12932, 13.13107], [80.12822, 13.13133], [80.12784, 13.13137], [80.12745, 13.13134], [80.12728, 13.13131], [80.12713, 13.13127], [80.12698, 13.1312], [80.12671, 13.13102], [80.12635, 13.13078], [80.12583, 13.13039], [80.12526, 13.12992], [80.12499, 13.12967], [80.12475, 13.12944], [80.1237, 13.12855], [80.12293, 13.12793], [80.12185, 13.12705], [80.1212, 13.12649], [80.12092, 13.12636], [80.12035, 13.12617], [80.12024, 13.12614], [80.11981, 13.12604], [80.11943, 13.12589], [80.11912, 13.12583], [80.11873, 13.12572], [80.11769, 13.12533], [80.11598, 13.12466], [80.11321, 13.12365], [80.11249, 13.12342], [80.111, 13.12324], [80.11064, 13.1232], [80.10981, 13.12268], [80.10883, 13.12196], [80.10794, 13.1211], [80.1074, 13.12054], [80.1069, 13.12034], [80.10574, 13.11998], [80.10454, 13.11975], [80.10324, 13.11966], [80.10196, 13.11969], [80.10174, 13.11976], [80.10177, 13.1201], [80.10199, 13.12023]]}}]}