{"type": "FeatureCollection", "features": [{"type": "Feature", "properties": {"route_name": "20", "stop_id": "KQSHMGnw", "name": "Villivakkam Bus Stand", "city": "CHENNAI"}, "geometry": {"type": "Point", "coordinates": [80.20803643643512, 13.105421374732401]}}, {"type": "Feature", "properties": {"route_name": "20", "stop_id": "HFKfgJoc", "name": "Kalpana Hotel", "city": "CHENNAI"}, "geometry": {"type": "Point", "coordinates": [80.20768397513632, 13.103206714775167]}}, {"type": "Feature", "properties": {"route_name": "20", "stop_id": "NJSgWoOc", "name": "Kallukkadai", "city": "CHENNAI"}, "geometry": {"type": "Point", "coordinates": [80.21100708978702, 13.102091789178067]}}, {"type": "Feature", "properties": {"route_name": "20", "stop_id": "WtptgYtz", "name": "ICF Annexe", "city": "CHENNAI"}, "geometry": {"type": "Point", "coordinates": [80.21252690849656, 13.10157949424285]}}, {"type": "Feature", "properties": {"route_name": "20", "stop_id": "TcTonWJL", "name": "ICF", "city": "CHENNAI"}, "geometry": {"type": "Point", "coordinates": [80.21578320103663, 13.100222337697073]}}, {"type": "Feature", "properties": {"route_name": "20", "stop_id": "HJTsgSzj", "name": "Kambar Arangam", "city": "CHENNAI"}, "geometry": {"type": "Point", "coordinates": [80.21976074824761, 13.0992472123686]}}, {"type": "Feature", "properties": {"route_name": "20", "stop_id": "YvwQRHTE", "name": "Railway Quarters", "city": "CHENNAI"}, "geometry": {"type": "Point", "coordinates": [80.22534070183735, 13.100000025373078]}}, {"type": "Feature", "properties": {"route_name": "20", "stop_id": "QrdELzCu", "name": "Joint Office", "city": "CHENNAI"}, "geometry": {"type": "Point", "coordinates": [80.22988659818111, 13.099765103995907]}}, {"type": "Feature", "properties": {"route_name": "20", "stop_id": "fRxWIrbs", "name": "Noor Hotel", "city": "CHENNAI"}, "geometry": {"type": "Point", "coordinates": [80.23428872329623, 13.09862110170927]}}, {"type": "Feature", "properties": {"route_name": "20", "stop_id": "ryMrZCSE", "name": "Sayani Theatre Aynavaram", "city": "CHENNAI"}, "geometry": {"type": "Point", "coordinates": [80.23976256796573, 13.097793041345161]}}, {"type": "Feature", "properties": {"route_name": "20", "stop_id": "OkTOljoV", "name": "E S I Hospital", "city": "CHENNAI"}, "geometry": {"type": "Point", "coordinates": [80.24136573346641, 13.094755041394231]}}, {"type": "Feature", "properties": {"route_name": "20", "stop_id": "svamcGgQ", "name": "Medavakkam Mental Hospital", "city": "CHENNAI"}, "geometry": {"type": "Point", "coordinates": [80.24095586823455, 13.091173815450553]}}, {"type": "Feature", "properties": {"route_name": "20", "stop_id": "yZEnTGkU", "name": "Medavakkam Kellys", "city": "CHENNAI"}, "geometry": {"type": "Point", "coordinates": [80.2419529533995, 13.088510357883557]}}, {"type": "Feature", "properties": {"route_name": "20", "stop_id": "SqxhBMol", "name": "Motcham Aysha Hospital Or Motcham Theatre", "city": "CHENNAI"}, "geometry": {"type": "Point", "coordinates": [80.25019329, 13.08489827]}}, {"type": "Feature", "properties": {"route_name": "20", "stop_id": "upZFxFqB", "name": "Madhar Sha", "city": "CHENNAI"}, "geometry": {"type": "Point", "coordinates": [80.25180701077508, 13.085782296021032]}}, {"type": "Feature", "properties": {"route_name": "20", "stop_id": "xkdRvtRu", "name": "Purasaivakkam Tank", "city": "CHENNAI"}, "geometry": {"type": "Point", "coordinates": [80.25459983015855, 13.083658031929831]}}, {"type": "Feature", "properties": {"route_name": "20", "stop_id": "JvhqCmbT", "name": "Alagappa Schools", "city": "CHENNAI"}, "geometry": {"type": "Point", "coordinates": [80.25451299, 13.08270776]}}, {"type": "Feature", "properties": {"route_name": "20", "stop_id": "FmTbQszJ", "name": "Dharma Prakash Or MCTM School", "city": "CHENNAI"}, "geometry": {"type": "Point", "coordinates": [80.25486360182936, 13.080794310517591]}}, {"type": "Feature", "properties": {"route_name": "20", "stop_id": "HTKZNJTs", "name": "Das Prakash Hotel Or Petrol Pump", "city": "CHENNAI"}, "geometry": {"type": "Point", "coordinates": [80.25462333184373, 13.079812230361082]}}, {"type": "Feature", "properties": {"route_name": "20", "stop_id": "ohvLIfWG", "name": "Y W C A", "city": "CHENNAI"}, "geometry": {"type": "Point", "coordinates": [80.2597665623357, 13.079527427874893]}}, {"type": "Feature", "properties": {"route_name": "20", "stop_id": "VjdckTjW", "name": "Thinathanthi", "city": "CHENNAI"}, "geometry": {"type": "Point", "coordinates": [80.26340568, 13.0805046]}}, {"type": "Feature", "properties": {"route_name": "20", "stop_id": "GnsXgGJX", "name": "Hotel Everest", "city": "CHENNAI"}, "geometry": {"type": "Point", "coordinates": [80.26810708394851, 13.080814800082436]}}, {"type": "Feature", "properties": {"route_name": "20", "stop_id": "PSjGjQXK", "name": "Park Station", "city": "CHENNAI"}, "geometry": {"type": "Point", "coordinates": [80.27331973115014, 13.081535577598643]}}, {"type": "Feature", "properties": {"route_name": "20", "stop_id": "KwaxxmSs", "name": "Nurse Quarters", "city": "CHENNAI"}, "geometry": {"type": "Point", "coordinates": [80.27896059391605, 13.082298318772699]}}, {"type": "Feature", "properties": {"route_name": "20", "stop_id": "neNWquOh", "name": "Central Dental College", "city": "CHENNAI"}, "geometry": {"type": "Point", "coordinates": [80.28199470667641, 13.08298870082699]}}, {"type": "Feature", "properties": {"route_name": "20", "stop_id": "QHFmFyLR", "name": "High Court ", "city": "CHENNAI"}, "geometry": {"type": "Point", "coordinates": [80.28344657999999, 13.085009446858479]}}, {"type": "Feature", "properties": {"route_name": "20", "stop_id": "EkWBPXmr", "name": "Broadway", "city": "CHENNAI"}, "geometry": {"type": "Point", "coordinates": [80.28388983, 13.08820568]}}, {"type": "Feature", "properties": {"name": "20"}, "geometry": {"type": "LineString", "coordinates": [[80.2079, 13.10544], [80.20752, 13.1032], [80.20766, 13.10315], [80.20893, 13.10273], [80.20961, 13.10251], [80.21079, 13.1021], [80.21099, 13.10203], [80.2125, 13.1015], [80.2133, 13.10118], [80.21383, 13.10099], [80.21408, 13.10087], [80.21429, 13.10082], [80.2148, 13.10063], [80.21576, 13.10017], [80.21654, 13.09983], [80.21699, 13.09968], [80.21747, 13.09957], [80.21771, 13.09954], [80.21865, 13.09937], [80.21939, 13.09928], [80.21975, 13.09921], [80.22133, 13.09893], [80.22166, 13.09888], [80.22246, 13.09878], [80.22282, 13.0988], [80.2229, 13.09883], [80.22315, 13.09897], [80.22366, 13.09939], [80.22387, 13.09955], [80.22418, 13.09969], [80.22444, 13.09977], [80.2251, 13.09992], [80.22531, 13.09996], [80.22535, 13.09996], [80.22616, 13.10005], [80.22678, 13.10009], [80.22704, 13.10011], [80.22773, 13.10012], [80.2279, 13.10011], [80.22799, 13.10007], [80.22852, 13.09998], [80.22893, 13.0999], [80.22933, 13.09984], [80.22988, 13.09973], [80.23053, 13.09955], [80.23079, 13.09946], [80.23187, 13.099], [80.23216, 13.0989], [80.2326, 13.0988], [80.23336, 13.09866], [80.23366, 13.09862], [80.23429, 13.09858], [80.23491, 13.09851], [80.23599, 13.09834], [80.23721, 13.09811], [80.23734, 13.09811], [80.23769, 13.09804], [80.23889, 13.09783], [80.23976, 13.09776], [80.24052, 13.09772], [80.24141, 13.09761], [80.24207, 13.09748], [80.24214, 13.09747], [80.24211, 13.09738], [80.24191, 13.09674], [80.24183, 13.09634], [80.24172, 13.09599], [80.24163, 13.09575], [80.24145, 13.0952], [80.24135, 13.09476], [80.24124, 13.09426], [80.24106, 13.09333], [80.24095, 13.09249], [80.24088, 13.09139], [80.24088, 13.09118], [80.24086, 13.09053], [80.24089, 13.09018], [80.24096, 13.08994], [80.24107, 13.08972], [80.2414, 13.08922], [80.24193, 13.08849], [80.24222, 13.08812], [80.24234, 13.08803], [80.24274, 13.08794], [80.24322, 13.08786], [80.24338, 13.08781], [80.24362, 13.08767], [80.24381, 13.0875], [80.24391, 13.0874], [80.24415, 13.08707], [80.24475, 13.08636], [80.24521, 13.08582], [80.24526, 13.08576], [80.24533, 13.08573], [80.24529, 13.08565], [80.2452, 13.08543], [80.2446, 13.08429], [80.24412, 13.08332], [80.24384, 13.0827], [80.24373, 13.08244], [80.24378, 13.08234], [80.24385, 13.08225], [80.24403, 13.08211], [80.2446, 13.08198], [80.24503, 13.08186], [80.24568, 13.08172], [80.24658, 13.08162], [80.24791, 13.08154], [80.24882, 13.08153], [80.24922, 13.08148], [80.24934, 13.08146], [80.24947, 13.08144], [80.24969, 13.08201], [80.2498, 13.08242], [80.24989, 13.083], [80.25002, 13.08374], [80.25024, 13.08489], [80.25039, 13.0859], [80.25043, 13.08597], [80.25054, 13.08591], [80.25062, 13.0859], [80.25084, 13.08587], [80.25127, 13.08583], [80.2518, 13.08575], [80.25228, 13.08567], [80.25311, 13.08558], [80.25367, 13.08558], [80.25446, 13.08568], [80.25458, 13.08562], [80.25465, 13.08556], [80.25457, 13.08433], [80.25452, 13.08375], [80.25452, 13.08371], [80.2546, 13.0837], [80.25452, 13.08371], [80.25449, 13.08336], [80.25446, 13.08271], [80.25444, 13.08229], [80.25482, 13.08162], [80.25483, 13.08113], [80.25477, 13.08081], [80.25461, 13.07982], [80.25455, 13.07955], [80.25455, 13.07941], [80.25461, 13.079], [80.25571, 13.07908], [80.25651, 13.07917], [80.25715, 13.07922], [80.25874, 13.0794], [80.25985, 13.07953], [80.25977, 13.07951], [80.26017, 13.07958], [80.26068, 13.07968], [80.2611, 13.0798], [80.26153, 13.07999], [80.2617, 13.08006], [80.26211, 13.0802], [80.26341, 13.08047], [80.26481, 13.08074], [80.26519, 13.0808], [80.26545, 13.08082], [80.26692, 13.08079], [80.26811, 13.08079], [80.27012, 13.08085], [80.27072, 13.08091], [80.27097, 13.08101], [80.27124, 13.08109], [80.27179, 13.08123], [80.27331, 13.08151], [80.27395, 13.08162], [80.27516, 13.08172], [80.27537, 13.08172], [80.27589, 13.08179], [80.27623, 13.08187], [80.27793, 13.08212], [80.27897, 13.08221], [80.27897, 13.0822], [80.28088, 13.08237], [80.28122, 13.08238], [80.28166, 13.08237], [80.28177, 13.08254], [80.28205, 13.08296], [80.28253, 13.08375], [80.28303, 13.08448], [80.28334, 13.08483], [80.2835, 13.08495], [80.28351, 13.08495], [80.28368, 13.08507], [80.28368, 13.08531], [80.28362, 13.08549], [80.28348, 13.08552], [80.28352, 13.0861], [80.28354, 13.08629], [80.28361, 13.08653], [80.28367, 13.08688], [80.28376, 13.08773]]}}]}