{"type": "FeatureCollection", "features": [{"type": "Feature", "properties": {"route_name": "53E", "stop_id": "EkWBPXmr", "name": "Broadway", "city": "CHENNAI"}, "geometry": {"type": "Point", "coordinates": [80.28388983, 13.08820568]}}, {"type": "Feature", "properties": {"route_name": "53E", "stop_id": "zVYhNTdK", "name": "Flower Bazzar", "city": "CHENNAI"}, "geometry": {"type": "Point", "coordinates": [80.28141873, 13.08750696]}}, {"type": "Feature", "properties": {"route_name": "53E", "stop_id": "xbiDwIOu", "name": "Payaigada Evening Bazar", "city": "CHENNAI"}, "geometry": {"type": "Point", "coordinates": [80.28017343, 13.08554921]}}, {"type": "Feature", "properties": {"route_name": "53E", "stop_id": "BqZQArDi", "name": "Nurse Quarters", "city": "CHENNAI"}, "geometry": {"type": "Point", "coordinates": [80.27852104691374, 13.082227452128128]}}, {"type": "Feature", "properties": {"route_name": "53E", "stop_id": "yhXmuUeN", "name": "Park Station", "city": "CHENNAI"}, "geometry": {"type": "Point", "coordinates": [80.27318907, 13.08134841]}}, {"type": "Feature", "properties": {"route_name": "53E", "stop_id": "mklbELhb", "name": "Hotel Everest", "city": "CHENNAI"}, "geometry": {"type": "Point", "coordinates": [80.26770911, 13.08062016]}}, {"type": "Feature", "properties": {"route_name": "53E", "stop_id": "xewbkqhz", "name": "Thinathanthi", "city": "CHENNAI"}, "geometry": {"type": "Point", "coordinates": [80.26361557, 13.08034458]}}, {"type": "Feature", "properties": {"route_name": "53E", "stop_id": "AHLLTOdf", "name": "Egmore North Railway Station", "city": "CHENNAI"}, "geometry": {"type": "Point", "coordinates": [80.26274893074697, 13.07947905082281]}}, {"type": "Feature", "properties": {"route_name": "53E", "stop_id": "tBJBJfdu", "name": "Dasaprakash", "city": "CHENNAI"}, "geometry": {"type": "Point", "coordinates": [80.25350765, 13.07867085]}}, {"type": "Feature", "properties": {"route_name": "53E", "stop_id": "uVsOstge", "name": "Sangam Theatre", "city": "CHENNAI"}, "geometry": {"type": "Point", "coordinates": [80.24987705, 13.07865025]}}, {"type": "Feature", "properties": {"route_name": "53E", "stop_id": "UECnapuN", "name": "KMC Hospital", "city": "CHENNAI"}, "geometry": {"type": "Point", "coordinates": [80.24301455, 13.07759198]}}, {"type": "Feature", "properties": {"route_name": "53E", "stop_id": "qrSNpKDz", "name": "EGA Theatre", "city": "CHENNAI"}, "geometry": {"type": "Point", "coordinates": [80.24001887655822, 13.07701803640873]}}, {"type": "Feature", "properties": {"route_name": "53E", "stop_id": "bWAbaUPC", "name": "Taylors Road", "city": "CHENNAI"}, "geometry": {"type": "Point", "coordinates": [80.23763618, 13.07642088]}}, {"type": "Feature", "properties": {"route_name": "53E", "stop_id": "cEOIeJTR", "name": "Pachaiyappas College", "city": "CHENNAI"}, "geometry": {"type": "Point", "coordinates": [80.23469050351514, 13.075832098430912]}}, {"type": "Feature", "properties": {"route_name": "53E", "stop_id": "CfleTooC", "name": "Aminjikarai Market", "city": "CHENNAI"}, "geometry": {"type": "Point", "coordinates": [80.23061367309606, 13.074655758777332]}}, {"type": "Feature", "properties": {"route_name": "53E", "stop_id": "gUXxyAlR", "name": "Amaindhakarai", "city": "CHENNAI"}, "geometry": {"type": "Point", "coordinates": [80.22560157, 13.07385744]}}, {"type": "Feature", "properties": {"route_name": "53E", "stop_id": "hCxxcqWU", "name": "NSK Nagar Arumbakkam", "city": "CHENNAI"}, "geometry": {"type": "Point", "coordinates": [80.21649536522591, 13.074972195801834]}}, {"type": "Feature", "properties": {"route_name": "53E", "stop_id": "IOcMwGKn", "name": "DG Vaishnava College", "city": "CHENNAI"}, "geometry": {"type": "Point", "coordinates": [80.21333032392567, 13.07591401273661]}}, {"type": "Feature", "properties": {"route_name": "53E", "stop_id": "ybjkPLXB", "name": "Arumbakkam Post Office", "city": "CHENNAI"}, "geometry": {"type": "Point", "coordinates": [80.21057855454819, 13.077063979110072]}}, {"type": "Feature", "properties": {"route_name": "53E", "stop_id": "ufvngNip", "name": "Arumbakkam PH Road", "city": "CHENNAI"}, "geometry": {"type": "Point", "coordinates": [80.20433051513396, 13.07657601239817]}}, {"type": "Feature", "properties": {"route_name": "53E", "stop_id": "xGsoSfhX", "name": "Rohini Theatre", "city": "CHENNAI"}, "geometry": {"type": "Point", "coordinates": [80.19558267913771, 13.075037939301021]}}, {"type": "Feature", "properties": {"route_name": "53E", "stop_id": "ozuppJDT", "name": "Mettukulam", "city": "CHENNAI"}, "geometry": {"type": "Point", "coordinates": [80.19232906745913, 13.074033972183338]}}, {"type": "Feature", "properties": {"route_name": "53E", "stop_id": "YULSfngF", "name": "Nerkundram", "city": "CHENNAI"}, "geometry": {"type": "Point", "coordinates": [80.18650393157316, 13.071495474785094]}}, {"type": "Feature", "properties": {"route_name": "53E", "stop_id": "UUCrlfWg", "name": "Vengaya Mandi", "city": "CHENNAI"}, "geometry": {"type": "Point", "coordinates": [80.18169536739595, 13.069774564335992]}}, {"type": "Feature", "properties": {"route_name": "53E", "stop_id": "eXTjiXiW", "name": "Maduravoyal Ration Shop", "city": "CHENNAI"}, "geometry": {"type": "Point", "coordinates": [80.17526153142762, 13.066797109963272]}}, {"type": "Feature", "properties": {"route_name": "53E", "stop_id": "xQSKBJml", "name": "Maduravoyal Post Office", "city": "CHENNAI"}, "geometry": {"type": "Point", "coordinates": [80.17156595752385, 13.064258980755582]}}, {"type": "Feature", "properties": {"route_name": "53E", "stop_id": "SwLVnWPq", "name": "Maduravoyal", "city": "CHENNAI"}, "geometry": {"type": "Point", "coordinates": [80.16697852901348, 13.062868952508325]}}, {"type": "Feature", "properties": {"route_name": "53E", "stop_id": "oiYuCTCe", "name": "Maduravoyal Yerikarai", "city": "CHENNAI"}, "geometry": {"type": "Point", "coordinates": [80.16451631482187, 13.061180076950619]}}, {"type": "Feature", "properties": {"route_name": "53E", "stop_id": "MkXEUCdM", "name": "Vaanagaram", "city": "CHENNAI"}, "geometry": {"type": "Point", "coordinates": [80.15497012171363, 13.060430632661532]}}, {"type": "Feature", "properties": {"route_name": "53E", "stop_id": "rSdxnGDj", "name": "Kumar Theatre", "city": "CHENNAI"}, "geometry": {"type": "Point", "coordinates": [80.1497045817789, 13.061932008747092]}}, {"type": "Feature", "properties": {"route_name": "53E", "stop_id": "otuYkIZd", "name": "Velappanchavadi", "city": "CHENNAI"}, "geometry": {"type": "Point", "coordinates": [80.13856109898961, 13.061119795531404]}}, {"type": "Feature", "properties": {"route_name": "53E", "stop_id": "XnPpfSyF", "name": "ACS Medical College", "city": "CHENNAI"}, "geometry": {"type": "Point", "coordinates": [80.12834168204711, 13.057417810052053]}}, {"type": "Feature", "properties": {"route_name": "53E", "stop_id": "MnTeelLR", "name": "Saveetha Hospital", "city": "CHENNAI"}, "geometry": {"type": "Point", "coordinates": [80.12376605799534, 13.05321390347687]}}, {"type": "Feature", "properties": {"route_name": "53E", "stop_id": "MklhhYCQ", "name": "Poonamallee Municipality or Kumananchavadi", "city": "CHENNAI"}, "geometry": {"type": "Point", "coordinates": [80.11585975706225, 13.044861438722952]}}, {"type": "Feature", "properties": {"route_name": "53E", "stop_id": "cvCJiZVm", "name": "Kumananchavadi", "city": "CHENNAI"}, "geometry": {"type": "Point", "coordinates": [80.1153377177252, 13.043886937239977]}}, {"type": "Feature", "properties": {"route_name": "53E", "stop_id": "UtzkRwuC", "name": "Gangai Amman Kovil", "city": "CHENNAI"}, "geometry": {"type": "Point", "coordinates": [80.11318724948069, 13.038095968900137]}}, {"type": "Feature", "properties": {"route_name": "53E", "stop_id": "ZzqCYjTC", "name": "Mangadu", "city": "CHENNAI"}, "geometry": {"type": "Point", "coordinates": [80.11122651397818, 13.031832316712277]}}, {"type": "Feature", "properties": {"route_name": "53E", "stop_id": "CLqSCDPt", "name": "Pattur Koot Road", "city": "CHENNAI"}, "geometry": {"type": "Point", "coordinates": [80.11091918890759, 13.027214382869682]}}, {"type": "Feature", "properties": {"route_name": "53E", "stop_id": "bYKKzRQT", "name": "Kozhumanivakkam", "city": "CHENNAI"}, "geometry": {"type": "Point", "coordinates": [80.10679870457147, 13.022356552611841]}}, {"type": "Feature", "properties": {"route_name": "53E", "stop_id": "qVxAOUMG", "name": "Muthukumaran Hospital", "city": "CHENNAI"}, "geometry": {"type": "Point", "coordinates": [80.10447488987165, 13.019845095228558]}}, {"type": "Feature", "properties": {"route_name": "53E", "stop_id": "RMvkOcpU", "name": "Sikkarayapuram", "city": "CHENNAI"}, "geometry": {"type": "Point", "coordinates": [80.10280165878635, 13.017984639206198]}}, {"type": "Feature", "properties": {"route_name": "53E", "stop_id": "neCsPoxX", "name": "Sivanthangal", "city": "CHENNAI"}, "geometry": {"type": "Point", "coordinates": [80.10240684494988, 13.012115257348473]}}, {"type": "Feature", "properties": {"route_name": "53E", "stop_id": "bkPedFyi", "name": "Kolachery", "city": "CHENNAI"}, "geometry": {"type": "Point", "coordinates": [80.10043673884002, 13.006603111970469]}}, {"type": "Feature", "properties": {"route_name": "53E", "stop_id": "CuIFmOPZ", "name": "Kundrathur Nalu Road Or Kolachery Junction", "city": "CHENNAI"}, "geometry": {"type": "Point", "coordinates": [80.09951148368782, 13.003586782897033]}}, {"type": "Feature", "properties": {"route_name": "53E", "stop_id": "MhxjGQjy", "name": "Shri Nagathaman Temple", "city": "CHENNAI"}, "geometry": {"type": "Point", "coordinates": [80.09762761733964, 13.00014673192873]}}, {"type": "Feature", "properties": {"route_name": "53E", "stop_id": "mhYSfvAq", "name": "Theradi", "city": "CHENNAI"}, "geometry": {"type": "Point", "coordinates": [80.09679009736448, 12.998872123156724]}}, {"type": "Feature", "properties": {"route_name": "53E", "stop_id": "UgzfanVk", "name": "Kundrathur Bus Depot", "city": "CHENNAI"}, "geometry": {"type": "Point", "coordinates": [80.09613879486278, 12.997118033846938]}}, {"type": "Feature", "properties": {"name": "53E"}, "geometry": {"type": "LineString", "coordinates": [[80.28388, 13.08836], [80.28347, 13.08833], [80.28291, 13.08832], [80.28261, 13.08833], [80.28227, 13.08828], [80.28204, 13.08823], [80.28184, 13.08815], [80.28156, 13.08799], [80.28153, 13.08794], [80.28145, 13.08769], [80.2814, 13.08751], [80.28095, 13.08603], [80.28087, 13.08583], [80.28083, 13.08578], [80.28076, 13.08575], [80.28024, 13.0856], [80.28016, 13.08559], [80.27982, 13.08551], [80.27957, 13.08537], [80.27943, 13.08516], [80.27937, 13.08497], [80.27928, 13.08459], [80.27914, 13.08376], [80.27898, 13.08332], [80.27883, 13.08295], [80.27864, 13.08244], [80.27857, 13.08221], [80.27853, 13.08206], [80.27796, 13.08201], [80.27618, 13.08175], [80.27554, 13.08164], [80.27517, 13.08159], [80.27452, 13.08155], [80.27431, 13.08154], [80.27381, 13.0815], [80.27337, 13.08142], [80.27324, 13.0814], [80.27319, 13.08135], [80.27319, 13.08136], [80.2728, 13.08128], [80.27195, 13.08114], [80.27153, 13.08105], [80.27119, 13.08096], [80.27094, 13.08088], [80.27069, 13.08083], [80.2701, 13.08077], [80.26981, 13.08075], [80.26815, 13.08072], [80.26771, 13.08073], [80.26685, 13.08072], [80.26564, 13.08075], [80.26507, 13.0807], [80.26379, 13.08045], [80.2636, 13.08041], [80.26303, 13.08027], [80.26293, 13.08014], [80.26287, 13.08004], [80.26284, 13.07995], [80.26288, 13.07985], [80.26298, 13.07956], [80.26274, 13.0802], [80.26195, 13.08003], [80.26167, 13.07994], [80.26118, 13.07974], [80.26057, 13.07957], [80.25999, 13.07947], [80.25948, 13.07939], [80.25811, 13.07924], [80.25785, 13.07921], [80.25743, 13.07918], [80.25682, 13.07914], [80.25641, 13.0791], [80.25599, 13.07907], [80.25509, 13.07897], [80.25364, 13.07879], [80.25349, 13.07877], [80.25333, 13.07875], [80.25304, 13.07876], [80.25202, 13.0788], [80.25166, 13.0788], [80.25011, 13.07874], [80.24987, 13.07871], [80.24895, 13.07856], [80.24807, 13.07837], [80.24625, 13.07801], [80.24492, 13.07789], [80.24433, 13.07784], [80.24389, 13.07782], [80.243, 13.0777], [80.24284, 13.07768], [80.24248, 13.07763], [80.24221, 13.07757], [80.24169, 13.07748], [80.24134, 13.07739], [80.24092, 13.07732], [80.24056, 13.07721], [80.24033, 13.07715], [80.24001, 13.07707], [80.23939, 13.07693], [80.23868, 13.07675], [80.23804, 13.07657], [80.23797, 13.07657], [80.23762, 13.0765], [80.23704, 13.07637], [80.23626, 13.07625], [80.23579, 13.07619], [80.23543, 13.0761], [80.23467, 13.07591], [80.2339, 13.07575], [80.23323, 13.07562], [80.23246, 13.07538], [80.23209, 13.07525], [80.23199, 13.07524], [80.23059, 13.07472], [80.22936, 13.07426], [80.22899, 13.07417], [80.22785, 13.07403], [80.22652, 13.0739], [80.22583, 13.07387], [80.2256, 13.07389], [80.22471, 13.07398], [80.22347, 13.0741], [80.22271, 13.07414], [80.22208, 13.07419], [80.22176, 13.07424], [80.22099, 13.07439], [80.22071, 13.07442], [80.21994, 13.07456], [80.21868, 13.07478], [80.21791, 13.0749], [80.21692, 13.07504], [80.21651, 13.07508], [80.21589, 13.07516], [80.21539, 13.07522], [80.21508, 13.07526], [80.21455, 13.07541], [80.21392, 13.07565], [80.21341, 13.07593], [80.21336, 13.07596], [80.21251, 13.07651], [80.21209, 13.0768], [80.21194, 13.07688], [80.21175, 13.07694], [80.21112, 13.07704], [80.21059, 13.07711], [80.2099, 13.07719], [80.20962, 13.0772], [80.2091, 13.07719], [80.20843, 13.07711], [80.2075, 13.07707], [80.20697, 13.07705], [80.20628, 13.07699], [80.20456, 13.0767], [80.20432, 13.07662], [80.20287, 13.07629], [80.20247, 13.07622], [80.20216, 13.07621], [80.20186, 13.07622], [80.20142, 13.07629], [80.20074, 13.07636], [80.20033, 13.07634], [80.19997, 13.07627], [80.19894, 13.07606], [80.1982, 13.07583], [80.19713, 13.07554], [80.19657, 13.07539], [80.1964, 13.07531], [80.19556, 13.07509], [80.19526, 13.07496], [80.19513, 13.07488], [80.1947, 13.07452], [80.1945, 13.07431], [80.19442, 13.07428], [80.19422, 13.0742], [80.19394, 13.07409], [80.19371, 13.07406], [80.1935, 13.07405], [80.19235, 13.0741], [80.19233, 13.0741], [80.1916, 13.07411], [80.19114, 13.0741], [80.19102, 13.07407], [80.1909, 13.07401], [80.19075, 13.07389], [80.19046, 13.07364], [80.18987, 13.07314], [80.18947, 13.07288], [80.18905, 13.07267], [80.18804, 13.0722], [80.18706, 13.07178], [80.18648, 13.07155], [80.18568, 13.07133], [80.18483, 13.07113], [80.18388, 13.0709], [80.18332, 13.07068], [80.18289, 13.07049], [80.18251, 13.07034], [80.18189, 13.07], [80.18166, 13.06984], [80.1811, 13.06941], [80.18044, 13.06895], [80.18014, 13.06873], [80.17979, 13.06852], [80.17858, 13.06771], [80.1783, 13.06756], [80.17818, 13.06753], [80.17782, 13.06742], [80.17653, 13.06743], [80.17618, 13.06738], [80.17598, 13.06733], [80.17583, 13.06725], [80.17563, 13.06712], [80.17524, 13.06683], [80.17423, 13.06617], [80.17305, 13.06539], [80.17209, 13.06467], [80.17182, 13.06448], [80.17163, 13.06439], [80.17153, 13.06434], [80.17134, 13.06425], [80.17098, 13.06415], [80.17058, 13.0641], [80.17003, 13.0641], [80.16924, 13.06414], [80.16885, 13.06413], [80.16858, 13.06407], [80.1684, 13.06401], [80.1681, 13.06389], [80.16783, 13.06371], [80.16709, 13.06312], [80.1669, 13.06296], [80.16634, 13.06245], [80.16606, 13.06219], [80.16573, 13.06184], [80.16558, 13.06169], [80.16544, 13.06159], [80.16517, 13.06145], [80.16464, 13.06129], [80.1645, 13.06126], [80.16421, 13.06121], [80.1639, 13.0612], [80.16295, 13.06122], [80.1621, 13.06127], [80.16111, 13.0613], [80.16056, 13.06131], [80.15983, 13.06138], [80.15834, 13.06159], [80.15799, 13.0616], [80.15766, 13.06155], [80.1574, 13.06147], [80.15708, 13.06133], [80.15641, 13.06096], [80.15587, 13.06071], [80.1556, 13.06061], [80.15521, 13.06054], [80.15496, 13.06052], [80.1548, 13.06052], [80.15436, 13.06057], [80.15295, 13.06083], [80.15238, 13.061], [80.15204, 13.06114], [80.15081, 13.0618], [80.15048, 13.06194], [80.15016, 13.06201], [80.1497, 13.06203], [80.14732, 13.06198], [80.14687, 13.06195], [80.14617, 13.06186], [80.14385, 13.06159], [80.14194, 13.06143], [80.13976, 13.06128], [80.13856, 13.06121], [80.13765, 13.06114], [80.13678, 13.0611], [80.13621, 13.06101], [80.13571, 13.06087], [80.13514, 13.06067], [80.13416, 13.06026], [80.13274, 13.05962], [80.13115, 13.05891], [80.12973, 13.05826], [80.12926, 13.05805], [80.12877, 13.05778], [80.1283, 13.05748], [80.12811, 13.05735], [80.12809, 13.05726], [80.12805, 13.0572], [80.12653, 13.05594], [80.12549, 13.05509], [80.12532, 13.05498], [80.12511, 13.05489], [80.12453, 13.05471], [80.12428, 13.05464], [80.1242, 13.0546], [80.12411, 13.05448], [80.12405, 13.05435], [80.12388, 13.05374], [80.1237, 13.05324], [80.12357, 13.05288], [80.12334, 13.05244], [80.12299, 13.05196], [80.12227, 13.05095], [80.12079, 13.04861], [80.12071, 13.04846], [80.12041, 13.04802], [80.11988, 13.04722], [80.11922, 13.04646], [80.11895, 13.04626], [80.11813, 13.04585], [80.1173, 13.04545], [80.11711, 13.04527], [80.11703, 13.04522], [80.11677, 13.04513], [80.11625, 13.04496], [80.11596, 13.0449], [80.11586, 13.04489], [80.11577, 13.0449], [80.11572, 13.0449], [80.11571, 13.04484], [80.1157, 13.04478], [80.11567, 13.04466], [80.11546, 13.0442], [80.11531, 13.0439], [80.11521, 13.04368], [80.11513, 13.04345], [80.11514, 13.0434], [80.11535, 13.04308], [80.11535, 13.04294], [80.11525, 13.04257], [80.11516, 13.04226], [80.11504, 13.04177], [80.11496, 13.04156], [80.11492, 13.04151], [80.11468, 13.04142], [80.11454, 13.04136], [80.11441, 13.04127], [80.11438, 13.04122], [80.11429, 13.04093], [80.11417, 13.04062], [80.11403, 13.04018], [80.11368, 13.0393], [80.11318, 13.03814], [80.11317, 13.0381], [80.11269, 13.03709], [80.11237, 13.03618], [80.11178, 13.03431], [80.11145, 13.03324], [80.11121, 13.0323], [80.11118, 13.03183], [80.11124, 13.03113], [80.11129, 13.02985], [80.11131, 13.02864], [80.11128, 13.02815], [80.11125, 13.0279], [80.11117, 13.02772], [80.11089, 13.02723], [80.11079, 13.02703], [80.11052, 13.02658], [80.11031, 13.02631], [80.10969, 13.02561], [80.10874, 13.02459], [80.10678, 13.02237], [80.10537, 13.02082], [80.10446, 13.01986], [80.10279, 13.018], [80.10267, 13.01784], [80.10266, 13.0178], [80.10265, 13.01771], [80.10273, 13.01713], [80.10294, 13.01585], [80.10306, 13.01503], [80.10305, 13.01452], [80.10302, 13.0142], [80.10288, 13.01372], [80.10271, 13.01328], [80.10249, 13.01261], [80.10238, 13.01212], [80.10219, 13.01131], [80.10202, 13.0108], [80.10198, 13.01074], [80.10191, 13.01047], [80.10186, 13.01027], [80.10165, 13.00945], [80.10147, 13.00897], [80.10125, 13.00856], [80.1006, 13.00721], [80.1004, 13.00664], [80.1004, 13.00661], [80.10035, 13.0062], [80.10031, 13.00542], [80.10027, 13.00477], [80.10024, 13.00466], [80.10019, 13.00456], [80.09948, 13.00361], [80.09939, 13.00346], [80.09934, 13.00344], [80.09921, 13.00335], [80.09891, 13.00292], [80.09859, 13.00242], [80.0981, 13.00158], [80.09794, 13.00125], [80.09782, 13.00076], [80.09771, 13.00042], [80.09755, 13.00019], [80.09742, 13.0], [80.09701, 12.99934], [80.09678, 12.99888], [80.0966, 12.99848], [80.09651, 12.99822], [80.09641, 12.99754], [80.09635, 12.99709]]}}]}