{"type": "FeatureCollection", "features": [{"type": "Feature", "properties": {"route_name": "35C", "stop_id": "EkWBPXmr", "name": "Broadway", "city": "CHENNAI"}, "geometry": {"type": "Point", "coordinates": [80.28388983, 13.08820568]}}, {"type": "Feature", "properties": {"route_name": "35C", "stop_id": "zVYhNTdK", "name": "Flower Bazzar", "city": "CHENNAI"}, "geometry": {"type": "Point", "coordinates": [80.28141873, 13.08750696]}}, {"type": "Feature", "properties": {"route_name": "35C", "stop_id": "BqZQArDi", "name": "Nurse Quarters", "city": "CHENNAI"}, "geometry": {"type": "Point", "coordinates": [80.27852104691374, 13.082227452128128]}}, {"type": "Feature", "properties": {"route_name": "35C", "stop_id": "IHatyuER", "name": "Mgr Central Station", "city": "CHENNAI"}, "geometry": {"type": "Point", "coordinates": [80.27762181912512, 13.081892868184905]}}, {"type": "Feature", "properties": {"route_name": "35C", "stop_id": "rqBqDfoZ", "name": "Periyamedu", "city": "CHENNAI"}, "geometry": {"type": "Point", "coordinates": [80.27043776, 13.08392761]}}, {"type": "Feature", "properties": {"route_name": "35C", "stop_id": "PaLbQtln", "name": "Nehru Stadium Or Taluka Office", "city": "CHENNAI"}, "geometry": {"type": "Point", "coordinates": [80.26995180186987, 13.086992249560762]}}, {"type": "Feature", "properties": {"route_name": "35C", "stop_id": "fElpHioA", "name": "Choolai Rountana", "city": "CHENNAI"}, "geometry": {"type": "Point", "coordinates": [80.26824835564616, 13.09054972246598]}}, {"type": "Feature", "properties": {"route_name": "35C", "stop_id": "TJGhHrvm", "name": "Choolai Post Office", "city": "CHENNAI"}, "geometry": {"type": "Point", "coordinates": [80.26522608694495, 13.090048700929596]}}, {"type": "Feature", "properties": {"route_name": "35C", "stop_id": "nusTHAtB", "name": "Park Town", "city": "CHENNAI"}, "geometry": {"type": "Point", "coordinates": [80.26299993802525, 13.086672260526798]}}, {"type": "Feature", "properties": {"route_name": "35C", "stop_id": "tZiWmgTn", "name": "Vepery Police Station", "city": "CHENNAI"}, "geometry": {"type": "Point", "coordinates": [80.26132581932961, 13.086194078488369]}}, {"type": "Feature", "properties": {"route_name": "35C", "stop_id": "SQUoXVXU", "name": "Bhuvaneshwari Theatre Or Vasanthi Theatre", "city": "CHENNAI"}, "geometry": {"type": "Point", "coordinates": [80.25861934690101, 13.090581000000007]}}, {"type": "Feature", "properties": {"route_name": "35C", "stop_id": "VuxSFkGj", "name": "Barracks Road", "city": "CHENNAI"}, "geometry": {"type": "Point", "coordinates": [80.25880832919586, 13.093384462783424]}}, {"type": "Feature", "properties": {"route_name": "35C", "stop_id": "xQpNdvvD", "name": "Pattalam", "city": "CHENNAI"}, "geometry": {"type": "Point", "coordinates": [80.2581211254128, 13.097371393797832]}}, {"type": "Feature", "properties": {"route_name": "35C", "stop_id": "GigUVtty", "name": "Dasa Mahan", "city": "CHENNAI"}, "geometry": {"type": "Point", "coordinates": [80.25435198437754, 13.09760488649531]}}, {"type": "Feature", "properties": {"route_name": "35C", "stop_id": "mVhkAqwx", "name": "Otteri", "city": "CHENNAI"}, "geometry": {"type": "Point", "coordinates": [80.25162135262178, 13.097854580165107]}}, {"type": "Feature", "properties": {"route_name": "35C", "stop_id": "aYvzRwqU", "name": "Podi Kadai", "city": "CHENNAI"}, "geometry": {"type": "Point", "coordinates": [80.24806586776992, 13.097233898647088]}}, {"type": "Feature", "properties": {"route_name": "35C", "stop_id": "IpBcScgC", "name": "TB Hospital Ayanavaram", "city": "CHENNAI"}, "geometry": {"type": "Point", "coordinates": [80.24562850757775, 13.096814007537885]}}, {"type": "Feature", "properties": {"route_name": "35C", "stop_id": "xbeOVhLE", "name": "Ayanavaram Signal", "city": "CHENNAI"}, "geometry": {"type": "Point", "coordinates": [80.24234291563266, 13.097303171398751]}}, {"type": "Feature", "properties": {"route_name": "35C", "stop_id": "zYpZYpOA", "name": "Sayani Theatre Aynavaram", "city": "CHENNAI"}, "geometry": {"type": "Point", "coordinates": [80.23975016274903, 13.09769311585696]}}, {"type": "Feature", "properties": {"route_name": "35C", "stop_id": "dKbqWpcD", "name": "Noor Hotel", "city": "CHENNAI"}, "geometry": {"type": "Point", "coordinates": [80.23432560367019, 13.098546647678157]}}, {"type": "Feature", "properties": {"route_name": "35C", "stop_id": "VhgapMoa", "name": "Joint Office", "city": "CHENNAI"}, "geometry": {"type": "Point", "coordinates": [80.22986422597933, 13.09970256155688]}}, {"type": "Feature", "properties": {"route_name": "35C", "stop_id": "CYSggHNR", "name": "Railway Quarters", "city": "CHENNAI"}, "geometry": {"type": "Point", "coordinates": [80.22522972543936, 13.099860588103587]}}, {"type": "Feature", "properties": {"route_name": "35C", "stop_id": "IkxLwyxa", "name": "Kambar Arangam", "city": "CHENNAI"}, "geometry": {"type": "Point", "coordinates": [80.21948079268168, 13.099117571234816]}}, {"type": "Feature", "properties": {"route_name": "35C", "stop_id": "nJRBvlcT", "name": "ICF", "city": "CHENNAI"}, "geometry": {"type": "Point", "coordinates": [80.21567758905667, 13.100091390873622]}}, {"type": "Feature", "properties": {"route_name": "35C", "stop_id": "IjwLXBRx", "name": "Kallukkadai", "city": "CHENNAI"}, "geometry": {"type": "Point", "coordinates": [80.21086157994796, 13.102006233556963]}}, {"type": "Feature", "properties": {"route_name": "35C", "stop_id": "TqlJzItM", "name": "Villivakkam Kalpana", "city": "CHENNAI"}, "geometry": {"type": "Point", "coordinates": [80.20746421345711, 13.10318949178912]}}, {"type": "Feature", "properties": {"route_name": "35C", "stop_id": "adsviABF", "name": "Nathamuni Talkies", "city": "CHENNAI"}, "geometry": {"type": "Point", "coordinates": [80.20256955841148, 13.103520788716315]}}, {"type": "Feature", "properties": {"route_name": "35C", "stop_id": "LPldZjRa", "name": "SIDCO Nagar", "city": "CHENNAI"}, "geometry": {"type": "Point", "coordinates": [80.1988839283556, 13.103093656133305]}}, {"type": "Feature", "properties": {"route_name": "35C", "stop_id": "XMWgellz", "name": "Padi Lucas TVS", "city": "CHENNAI"}, "geometry": {"type": "Point", "coordinates": [80.18990669389882, 13.101102795489325]}}, {"type": "Feature", "properties": {"route_name": "35C", "stop_id": "vqGhvZJF", "name": "Korrattur Signal Or East Avenue", "city": "CHENNAI"}, "geometry": {"type": "Point", "coordinates": [80.1867805544465, 13.09972333851109]}}, {"type": "Feature", "properties": {"route_name": "35C", "stop_id": "DewKhksr", "name": "UCO Bank", "city": "CHENNAI"}, "geometry": {"type": "Point", "coordinates": [80.18620186872613, 13.103145519218762]}}, {"type": "Feature", "properties": {"route_name": "35C", "stop_id": "MpPYcjVn", "name": "Bhaktavatsalam Memorial College", "city": "CHENNAI"}, "geometry": {"type": "Point", "coordinates": [80.18347492462772, 13.10810283744712]}}, {"type": "Feature", "properties": {"route_name": "35C", "stop_id": "BYVXItej", "name": "Korattur Bus Terminus", "city": "CHENNAI"}, "geometry": {"type": "Point", "coordinates": [80.18441764630552, 13.111427023928297]}}, {"type": "Feature", "properties": {"name": "35C"}, "geometry": {"type": "LineString", "coordinates": [[80.28388, 13.08836], [80.28347, 13.08833], [80.28291, 13.08832], [80.28261, 13.08833], [80.28227, 13.08828], [80.28204, 13.08823], [80.28184, 13.08815], [80.28156, 13.08799], [80.28153, 13.08794], [80.28145, 13.08769], [80.2814, 13.08751], [80.28095, 13.08603], [80.28087, 13.08583], [80.28083, 13.08578], [80.28076, 13.08575], [80.28024, 13.0856], [80.27982, 13.08551], [80.27957, 13.08537], [80.27943, 13.08516], [80.27937, 13.08497], [80.27928, 13.08459], [80.27914, 13.08376], [80.27898, 13.08332], [80.27883, 13.08295], [80.27864, 13.08243], [80.27856, 13.08221], [80.27852, 13.08209], [80.27838, 13.08209], [80.27796, 13.08201], [80.27761, 13.08195], [80.27619, 13.08171], [80.27554, 13.08162], [80.27517, 13.08159], [80.27452, 13.08155], [80.27431, 13.08154], [80.27381, 13.0815], [80.27337, 13.08142], [80.27324, 13.0814], [80.27279, 13.08131], [80.2721, 13.08119], [80.27157, 13.08107], [80.271, 13.08091], [80.27094, 13.08088], [80.2709, 13.08098], [80.27077, 13.08184], [80.27068, 13.08269], [80.27057, 13.08347], [80.27049, 13.08394], [80.27044, 13.08395], [80.27049, 13.08394], [80.27042, 13.08428], [80.27036, 13.08459], [80.27029, 13.08498], [80.2703, 13.0852], [80.27024, 13.08551], [80.27018, 13.086], [80.27018, 13.0865], [80.27015, 13.08668], [80.26998, 13.08701], [80.26978, 13.08741], [80.26973, 13.08753], [80.2697, 13.08767], [80.26973, 13.08827], [80.26985, 13.09], [80.26985, 13.09018], [80.26983, 13.09028], [80.26981, 13.09033], [80.26971, 13.09045], [80.26959, 13.09054], [80.26949, 13.09058], [80.26946, 13.09058], [80.2694, 13.09059], [80.26935, 13.09063], [80.26934, 13.09065], [80.26925, 13.09065], [80.26908, 13.09066], [80.26887, 13.09062], [80.26825, 13.09057], [80.26643, 13.09043], [80.26619, 13.09041], [80.26542, 13.09023], [80.26527, 13.09017], [80.26518, 13.09008], [80.26497, 13.08982], [80.26447, 13.08941], [80.26371, 13.0888], [80.26341, 13.08841], [80.26329, 13.08825], [80.26302, 13.08723], [80.26297, 13.08667], [80.26295, 13.08643], [80.26287, 13.08571], [80.26259, 13.08566], [80.26229, 13.08574], [80.2622, 13.08577], [80.26172, 13.08609], [80.26147, 13.08621], [80.26134, 13.08625], [80.26115, 13.08632], [80.26073, 13.08667], [80.26066, 13.08671], [80.26061, 13.0867], [80.26056, 13.08669], [80.25993, 13.08676], [80.2586, 13.08689], [80.25848, 13.08689], [80.25851, 13.08703], [80.25853, 13.08709], [80.25857, 13.08793], [80.25857, 13.08901], [80.25857, 13.08938], [80.25861, 13.08977], [80.25864, 13.09032], [80.25867, 13.09058], [80.25875, 13.09188], [80.2588, 13.09246], [80.25882, 13.09312], [80.25884, 13.09338], [80.25884, 13.09379], [80.25885, 13.09436], [80.25894, 13.09532], [80.259, 13.09574], [80.2591, 13.09626], [80.25917, 13.09691], [80.25927, 13.0974], [80.25846, 13.09739], [80.25812, 13.09741], [80.2579, 13.09743], [80.25746, 13.0975], [80.25719, 13.09752], [80.25707, 13.09753], [80.25654, 13.09756], [80.25604, 13.0976], [80.25557, 13.09759], [80.25514, 13.09763], [80.25485, 13.09764], [80.25435, 13.09765], [80.25284, 13.09778], [80.25163, 13.0979], [80.25147, 13.09792], [80.25131, 13.09805], [80.25117, 13.09817], [80.25083, 13.09799], [80.25065, 13.09791], [80.25034, 13.09782], [80.24974, 13.0977], [80.24805, 13.0973], [80.2474, 13.09714], [80.24684, 13.09696], [80.24654, 13.09688], [80.24603, 13.09685], [80.24563, 13.09684], [80.24523, 13.09683], [80.2449, 13.09686], [80.24426, 13.09695], [80.24366, 13.09707], [80.2426, 13.09726], [80.24235, 13.09732], [80.24203, 13.09739], [80.24122, 13.09759], [80.24051, 13.09766], [80.23975, 13.09771], [80.23922, 13.09776], [80.23884, 13.09778], [80.23799, 13.09794], [80.23748, 13.09803], [80.23697, 13.09814], [80.23655, 13.09822], [80.23548, 13.0984], [80.2348, 13.09847], [80.23432, 13.09853], [80.23366, 13.09857], [80.23339, 13.09861], [80.23306, 13.09867], [80.23297, 13.09873], [80.23286, 13.09875], [80.23246, 13.09883], [80.23224, 13.09888], [80.23199, 13.09896], [80.23176, 13.09904], [80.23112, 13.09932], [80.23058, 13.09954], [80.23037, 13.0996], [80.22989, 13.09973], [80.22987, 13.09974], [80.22912, 13.09987], [80.22799, 13.10007], [80.22785, 13.10005], [80.22757, 13.10008], [80.22703, 13.10006], [80.22678, 13.10006], [80.22616, 13.10001], [80.22527, 13.0999], [80.22522, 13.0999], [80.22458, 13.09974], [80.22411, 13.09961], [80.22393, 13.09952], [80.22368, 13.09934], [80.22341, 13.09909], [80.22308, 13.09884], [80.22284, 13.09873], [80.22275, 13.09872], [80.22215, 13.09874], [80.22132, 13.09886], [80.2195, 13.09919], [80.21862, 13.09932], [80.21717, 13.09955], [80.21682, 13.09966], [80.21621, 13.09989], [80.21569, 13.10012], [80.21459, 13.10063], [80.21416, 13.10081], [80.21393, 13.10095], [80.21357, 13.1011], [80.2133, 13.10118], [80.21263, 13.10145], [80.21127, 13.10194], [80.21088, 13.10207], [80.20997, 13.10238], [80.20898, 13.10271], [80.2078, 13.1031], [80.20748, 13.10322], [80.20673, 13.1036], [80.2064, 13.10373], [80.20598, 13.10386], [80.20573, 13.10389], [80.20539, 13.10389], [80.20481, 13.10386], [80.20402, 13.10384], [80.20358, 13.10378], [80.20345, 13.10372], [80.20336, 13.10361], [80.20333, 13.10355], [80.20315, 13.10357], [80.20283, 13.10358], [80.20257, 13.10355], [80.19962, 13.10322], [80.19888, 13.10311], [80.19841, 13.10303], [80.19787, 13.10292], [80.19747, 13.10282], [80.19587, 13.10231], [80.19524, 13.10211], [80.19477, 13.10193], [80.19456, 13.10178], [80.19454, 13.10174], [80.19446, 13.10162], [80.19436, 13.10156], [80.19425, 13.10154], [80.19414, 13.10154], [80.19403, 13.10157], [80.19391, 13.10169], [80.19386, 13.10184], [80.19361, 13.10187], [80.19324, 13.10182], [80.19135, 13.10149], [80.19052, 13.10134], [80.18992, 13.10115], [80.18989, 13.10114], [80.18969, 13.10107], [80.18947, 13.10094], [80.189, 13.1006], [80.1888, 13.10047], [80.18856, 13.10033], [80.18803, 13.10009], [80.18778, 13.1], [80.18718, 13.09983], [80.18678, 13.09974], [80.18663, 13.09971], [80.18656, 13.10035], [80.18643, 13.10185], [80.18632, 13.10316], [80.18622, 13.10418], [80.18623, 13.10467], [80.1863, 13.10527], [80.1865, 13.10703], [80.18654, 13.10763], [80.18653, 13.10772], [80.18649, 13.10779], [80.18643, 13.10785], [80.18636, 13.10787], [80.18592, 13.10791], [80.18489, 13.10799], [80.18371, 13.1081], [80.18348, 13.10812], [80.18026, 13.10839], [80.18029, 13.10932], [80.18038, 13.11032], [80.18423, 13.10999], [80.18432, 13.1115], [80.18441, 13.11136]]}}]}