{"type": "FeatureCollection", "features": [{"type": "Feature", "properties": {"route_name": "578", "stop_id": "qflzswAf", "name": "Poonamallee Terminus", "city": "CHENNAI"}, "geometry": {"type": "Point", "coordinates": [80.09486902391961, 13.051775993180485]}}, {"type": "Feature", "properties": {"route_name": "578", "stop_id": "agMXkLfj", "name": "Poonamallee", "city": "CHENNAI"}, "geometry": {"type": "Point", "coordinates": [80.09316666688164, 13.05045381739782]}}, {"type": "Feature", "properties": {"route_name": "578", "stop_id": "PyGiRErs", "name": "Varadaraja Puram", "city": "CHENNAI"}, "geometry": {"type": "Point", "coordinates": [80.08662361879931, 13.04890990260656]}}, {"type": "Feature", "properties": {"route_name": "578", "stop_id": "CrOFTJlw", "name": "Nazarathpet", "city": "CHENNAI"}, "geometry": {"type": "Point", "coordinates": [80.08050084998649, 13.047193040450408]}}, {"type": "Feature", "properties": {"route_name": "578", "stop_id": "FdBCLyPI", "name": "Jaya Jaya Sankara International School", "city": "CHENNAI"}, "geometry": {"type": "Point", "coordinates": [80.07426953185461, 13.046508577273626]}}, {"type": "Feature", "properties": {"route_name": "578", "stop_id": "DHkaGHFf", "name": "Nazarathpet Police Check Post", "city": "CHENNAI"}, "geometry": {"type": "Point", "coordinates": [80.0686788162675, 13.044951038922536]}}, {"type": "Feature", "properties": {"route_name": "578", "stop_id": "wRTYbalx", "name": "Chembarambakkam Koil", "city": "CHENNAI"}, "geometry": {"type": "Point", "coordinates": [80.0629981631946, 13.043197666898577]}}, {"type": "Feature", "properties": {"route_name": "578", "stop_id": "gxidCspv", "name": "Chembarambakkam", "city": "CHENNAI"}, "geometry": {"type": "Point", "coordinates": [80.05755619732508, 13.040627692719365]}}, {"type": "Feature", "properties": {"route_name": "578", "stop_id": "rljVoTvk", "name": "L and T", "city": "CHENNAI"}, "geometry": {"type": "Point", "coordinates": [80.05316471913534, 13.03881454813193]}}, {"type": "Feature", "properties": {"route_name": "578", "stop_id": "ekoOPpVq", "name": "Irulapalayam Road Junction", "city": "CHENNAI"}, "geometry": {"type": "Point", "coordinates": [80.04407890972243, 13.035973029197613]}}, {"type": "Feature", "properties": {"route_name": "578", "stop_id": "uuLXjUrY", "name": "Queensland", "city": "CHENNAI"}, "geometry": {"type": "Point", "coordinates": [80.03012088443893, 13.028297112871028]}}, {"type": "Feature", "properties": {"route_name": "578", "stop_id": "spVkBMtX", "name": "Chettipedu", "city": "CHENNAI"}, "geometry": {"type": "Point", "coordinates": [80.02321870168112, 13.023997477036747]}}, {"type": "Feature", "properties": {"route_name": "578", "stop_id": "ixhHdGBo", "name": "Saveetha Medical College", "city": "CHENNAI"}, "geometry": {"type": "Point", "coordinates": [80.01650268469575, 13.021966059361711]}}, {"type": "Feature", "properties": {"route_name": "578", "stop_id": "aaeLLxLj", "name": "Thandalam Koot Road", "city": "CHENNAI"}, "geometry": {"type": "Point", "coordinates": [80.01040286882505, 13.01812826217505]}}, {"type": "Feature", "properties": {"route_name": "578", "stop_id": "oDVZRjmi", "name": "Thandalam", "city": "CHENNAI"}, "geometry": {"type": "Point", "coordinates": [80.00409791772927, 13.015179039421575]}}, {"type": "Feature", "properties": {"route_name": "578", "stop_id": "fnQyKclP", "name": "Irungattukottai Sipcot", "city": "CHENNAI"}, "geometry": {"type": "Point", "coordinates": [79.99370821576417, 13.00382852651284]}}, {"type": "Feature", "properties": {"route_name": "578", "stop_id": "kVWwehGs", "name": "Irungattukottai", "city": "CHENNAI"}, "geometry": {"type": "Point", "coordinates": [79.9888519062406, 12.995217163157772]}}, {"type": "Feature", "properties": {"route_name": "578", "stop_id": "pzSSkNJo", "name": "Pennalur EB Office", "city": "CHENNAI"}, "geometry": {"type": "Point", "coordinates": [79.97569401637156, 12.984934966350282]}}, {"type": "Feature", "properties": {"route_name": "578", "stop_id": "UDUmRzWP", "name": "Sriperumbudur Toll Gate", "city": "CHENNAI"}, "geometry": {"type": "Point", "coordinates": [79.96870681528503, 12.981713421144025]}}, {"type": "Feature", "properties": {"route_name": "578", "stop_id": "yscklMzl", "name": "Beeman Thanhal", "city": "CHENNAI"}, "geometry": {"type": "Point", "coordinates": [79.95878318184714, 12.97615276349852]}}, {"type": "Feature", "properties": {"route_name": "578", "stop_id": "QhyQakxZ", "name": "Sriperumbudur MGR Nagar", "city": "CHENNAI"}, "geometry": {"type": "Point", "coordinates": [79.95331964817645, 12.97244836779678]}}, {"type": "Feature", "properties": {"route_name": "578", "stop_id": "sklTQuFm", "name": "Sriperumbudur Theradi", "city": "CHENNAI"}, "geometry": {"type": "Point", "coordinates": [79.95087998270674, 12.968596013565081]}}, {"type": "Feature", "properties": {"route_name": "578", "stop_id": "VYHZxBYO", "name": "Sriperumbudur Bus Terminal", "city": "CHENNAI"}, "geometry": {"type": "Point", "coordinates": [79.94479514414115, 12.966639841220163]}}, {"type": "Feature", "properties": {"route_name": "578", "stop_id": "vDTAjOOR", "name": "Sriperumbudur Bypass", "city": "CHENNAI"}, "geometry": {"type": "Point", "coordinates": [79.94526755290735, 12.962259292267998]}}, {"type": "Feature", "properties": {"route_name": "578", "stop_id": "yQmtaWgt", "name": "Travellers Bangalow Or Pattunool Chatram", "city": "CHENNAI"}, "geometry": {"type": "Point", "coordinates": [79.94296090030434, 12.956257177128668]}}, {"type": "Feature", "properties": {"route_name": "578", "stop_id": "NrUUQlkk", "name": "Nokia India Factory", "city": "CHENNAI"}, "geometry": {"type": "Point", "coordinates": [79.93474931208266, 12.95461636457569]}}, {"type": "Feature", "properties": {"route_name": "578", "stop_id": "gNJqbiHM", "name": "Vadamangalam Road Junction", "city": "CHENNAI"}, "geometry": {"type": "Point", "coordinates": [79.92646867748999, 12.948907910738463]}}, {"type": "Feature", "properties": {"route_name": "578", "stop_id": "XmmyKsTm", "name": "Mambakkam", "city": "CHENNAI"}, "geometry": {"type": "Point", "coordinates": [79.91427917344492, 12.938651777900644]}}, {"type": "Feature", "properties": {"route_name": "578", "stop_id": "ajteUQkz", "name": "Mambakkam Sipcot", "city": "CHENNAI"}, "geometry": {"type": "Point", "coordinates": [79.90679014649913, 12.933110197699582]}}, {"type": "Feature", "properties": {"route_name": "578", "stop_id": "VpHOqNar", "name": "Sunguvarchatram", "city": "CHENNAI"}, "geometry": {"type": "Point", "coordinates": [79.87946617847342, 12.925344539091597]}}, {"type": "Feature", "properties": {"name": "578"}, "geometry": {"type": "LineString", "coordinates": [[80.09489, 13.05177], [80.09491, 13.05207], [80.09506, 13.05207], [80.09511, 13.05207], [80.09511, 13.05181], [80.09506, 13.0509], [80.09465, 13.05089], [80.09424, 13.05086], [80.09405, 13.05083], [80.09323, 13.05054], [80.09314, 13.0505], [80.09315, 13.05051], [80.0922, 13.05015], [80.09178, 13.05005], [80.09137, 13.04994], [80.09047, 13.04978], [80.08985, 13.04966], [80.08923, 13.0495], [80.08903, 13.04944], [80.08803, 13.04914], [80.08774, 13.04907], [80.08763, 13.04908], [80.08697, 13.04898], [80.08662, 13.04895], [80.0856, 13.04884], [80.08518, 13.04877], [80.08474, 13.04865], [80.08354, 13.04826], [80.08198, 13.0477], [80.08046, 13.04726], [80.08014, 13.04718], [80.0797, 13.04709], [80.07907, 13.04702], [80.07693, 13.04694], [80.07513, 13.04687], [80.07481, 13.04681], [80.07463, 13.04676], [80.07423, 13.04658], [80.07365, 13.04631], [80.07334, 13.0462], [80.07288, 13.04607], [80.07211, 13.04599], [80.0717, 13.04592], [80.07125, 13.04583], [80.06864, 13.04507], [80.06699, 13.04457], [80.06434, 13.04376], [80.06366, 13.04356], [80.06297, 13.04326], [80.06215, 13.04287], [80.06132, 13.04243], [80.06038, 13.0419], [80.05956, 13.04152], [80.0577, 13.04075], [80.05753, 13.04068], [80.05607, 13.04013], [80.05563, 13.03988], [80.0551, 13.03966], [80.05356, 13.03905], [80.05314, 13.03888], [80.05208, 13.03848], [80.05042, 13.03789], [80.04971, 13.03765], [80.04818, 13.03719], [80.04769, 13.03708], [80.04668, 13.03678], [80.04405, 13.03606], [80.04367, 13.03594], [80.04303, 13.03568], [80.04202, 13.03525], [80.04126, 13.03485], [80.04099, 13.03472], [80.04014, 13.03424], [80.03873, 13.03338], [80.03712, 13.03251], [80.03595, 13.03184], [80.03452, 13.03099], [80.03165, 13.02929], [80.03009, 13.02835], [80.02913, 13.02775], [80.02677, 13.02623], [80.02319, 13.02403], [80.0219, 13.02327], [80.02142, 13.02303], [80.02088, 13.02282], [80.02037, 13.02266], [80.01986, 13.02255], [80.01875, 13.02245], [80.01827, 13.02241], [80.01771, 13.02236], [80.01722, 13.02227], [80.01686, 13.02217], [80.01666, 13.02209], [80.01648, 13.022], [80.01601, 13.02173], [80.01447, 13.02073], [80.01211, 13.01918], [80.01064, 13.01829], [80.01039, 13.01815], [80.00916, 13.0175], [80.00832, 13.01711], [80.00601, 13.01616], [80.00497, 13.01571], [80.00421, 13.0153], [80.00408, 13.01521], [80.00265, 13.01424], [80.00151, 13.01344], [79.99985, 13.01226], [79.99946, 13.01192], [79.9991, 13.01157], [79.9988, 13.01125], [79.99843, 13.01078], [79.99745, 13.00943], [79.99648, 13.00805], [79.99514, 13.00599], [79.99389, 13.00417], [79.99366, 13.00386], [79.99167, 13.001], [79.99103, 13.00009], [79.99059, 12.99938], [79.99049, 12.99918], [79.99006, 12.99824], [79.98951, 12.99688], [79.98915, 12.99595], [79.98901, 12.99563], [79.9888, 12.99524], [79.98858, 12.99485], [79.98839, 12.99458], [79.98769, 12.99379], [79.98734, 12.99346], [79.98714, 12.99329], [79.98586, 12.99236], [79.98485, 12.99166], [79.98371, 12.9908], [79.98227, 12.98971], [79.98046, 12.98834], [79.97908, 12.9873], [79.97746, 12.98617], [79.97634, 12.9854], [79.97567, 12.98498], [79.97449, 12.98433], [79.97343, 12.98385], [79.97182, 12.98317], [79.96997, 12.98236], [79.9695, 12.98212], [79.96869, 12.98175], [79.96695, 12.98097], [79.96628, 12.98068], [79.96548, 12.98038], [79.96451, 12.98006], [79.9641, 12.97989], [79.9637, 12.97967], [79.96326, 12.97939], [79.96151, 12.97799], [79.96031, 12.97716], [79.95877, 12.97618], [79.95875, 12.97621], [79.95837, 12.97597], [79.95822, 12.97585], [79.95789, 12.97556], [79.95765, 12.9753], [79.95748, 12.97512], [79.95722, 12.97515], [79.95699, 12.9751], [79.95689, 12.97506], [79.95654, 12.97485], [79.95592, 12.97446], [79.95524, 12.97397], [79.95464, 12.97353], [79.95331, 12.97246], [79.95267, 12.97194], [79.95236, 12.97166], [79.952, 12.97136], [79.95178, 12.97113], [79.95156, 12.97087], [79.95147, 12.97072], [79.95141, 12.97058], [79.95129, 12.97021], [79.95106, 12.96958], [79.95091, 12.96925], [79.95087, 12.96902], [79.95085, 12.96866], [79.95085, 12.9686], [79.95084, 12.9686], [79.95077, 12.96781], [79.95065, 12.9672], [79.95058, 12.96707], [79.95049, 12.96705], [79.95026, 12.96706], [79.94957, 12.96711], [79.94897, 12.96712], [79.94812, 12.96713], [79.94732, 12.9671], [79.94617, 12.96702], [79.94477, 12.96689], [79.94545, 12.96695], [79.94539, 12.96531], [79.94538, 12.96501], [79.94531, 12.96448], [79.94519, 12.96364], [79.94511, 12.96296], [79.94526, 12.96242], [79.94532, 12.96233], [79.94526, 12.96227], [79.94506, 12.96207], [79.94487, 12.96182], [79.94461, 12.96134], [79.9445, 12.96105], [79.94441, 12.96068], [79.94411, 12.95924], [79.94398, 12.95864], [79.94374, 12.95762], [79.9436, 12.95729], [79.94348, 12.95705], [79.94329, 12.95677], [79.94316, 12.9566], [79.94306, 12.95648], [79.94304, 12.95642], [79.94301, 12.95635], [79.94294, 12.95627], [79.94285, 12.95618], [79.94248, 12.95594], [79.94225, 12.95582], [79.94184, 12.95567], [79.94159, 12.95557], [79.9413, 12.95555], [79.94095, 12.95551], [79.94031, 12.95541], [79.93924, 12.95524], [79.93868, 12.95511], [79.93796, 12.955], [79.93689, 12.95495], [79.93608, 12.95492], [79.93574, 12.95489], [79.9354, 12.95484], [79.93498, 12.95472], [79.93475, 12.95463], [79.93444, 12.95448], [79.93394, 12.95419], [79.93362, 12.95397], [79.93357, 12.95402], [79.93306, 12.95364], [79.93224, 12.95305], [79.93156, 12.95257], [79.92936, 12.9511], [79.92803, 12.95021], [79.92743, 12.94977], [79.92652, 12.949], [79.92644, 12.94894], [79.9255, 12.94815], [79.92492, 12.94756], [79.92416, 12.94672], [79.92288, 12.94541], [79.92266, 12.94522], [79.92145, 12.94426], [79.91956, 12.94279], [79.91896, 12.94238], [79.91838, 12.94195], [79.91755, 12.94131], [79.91668, 12.94066], [79.91625, 12.94032], [79.91539, 12.93963], [79.91426, 12.93868], [79.91237, 12.93698], [79.91047, 12.93526], [79.90962, 12.93448], [79.90917, 12.93406], [79.90882, 12.9338], [79.90846, 12.93356], [79.90821, 12.93344], [79.90765, 12.93325], [79.90714, 12.93315], [79.90679, 12.93314], [79.90541, 12.93328], [79.90443, 12.93339], [79.90232, 12.9332], [79.90098, 12.93273], [79.9001, 12.93241], [79.89927, 12.93219], [79.89738, 12.93149], [79.89671, 12.93118], [79.89646, 12.93113], [79.89652, 12.93088], [79.89654, 12.9308], [79.89623, 12.93057], [79.89566, 12.9303], [79.89489, 12.92997], [79.89469, 12.92988], [79.89298, 12.92873], [79.89168, 12.92779], [79.89061, 12.92702], [79.8893, 12.92601], [79.88809, 12.92511], [79.88716, 12.92443], [79.88584, 12.92346], [79.88484, 12.92269], [79.88379, 12.92188], [79.88241, 12.92098], [79.88113, 12.92048], [79.87971, 12.92018], [79.87966, 12.92078], [79.87961, 12.9217], [79.87953, 12.92283], [79.87947, 12.92392], [79.8794, 12.92534], [79.87944, 12.92539], [79.87951, 12.92544]]}}]}