{"type": "FeatureCollection", "features": [{"type": "Feature", "properties": {"route_name": "49F", "stop_id": "YmDpkIHQ", "name": "Mandaveli Bus Terminus", "city": "CHENNAI"}, "geometry": {"type": "Point", "coordinates": [80.26575955855947, 13.026600025821914]}}, {"type": "Feature", "properties": {"route_name": "49F", "stop_id": "XAxmwtqw", "name": "Rani Meyyammai School", "city": "CHENNAI"}, "geometry": {"type": "Point", "coordinates": [80.26341668931536, 13.022049501560602]}}, {"type": "Feature", "properties": {"route_name": "49F", "stop_id": "gpaAUChy", "name": "Music College Annamalai Puram", "city": "CHENNAI"}, "geometry": {"type": "Point", "coordinates": [80.26292571955105, 13.019074647236751]}}, {"type": "Feature", "properties": {"route_name": "49F", "stop_id": "aFlzccOO", "name": "M G R Janaki College Or Sathya Studio", "city": "CHENNAI"}, "geometry": {"type": "Point", "coordinates": [80.25973426091605, 13.015961227103665]}}, {"type": "Feature", "properties": {"route_name": "49F", "stop_id": "yHDouIXe", "name": "Arunachalapuram", "city": "CHENNAI"}, "geometry": {"type": "Point", "coordinates": [80.25921690253733, 13.008766071839046]}}, {"type": "Feature", "properties": {"route_name": "49F", "stop_id": "DYvQviUy", "name": "Adyar Signal", "city": "CHENNAI"}, "geometry": {"type": "Point", "coordinates": [80.2588423552553, 13.007148348756852]}}, {"type": "Feature", "properties": {"route_name": "49F", "stop_id": "IHZGJZTs", "name": "Adyar Gandhi Nagar", "city": "CHENNAI"}, "geometry": {"type": "Point", "coordinates": [80.24984028893414, 13.006673142899373]}}, {"type": "Feature", "properties": {"route_name": "49F", "stop_id": "nYVfIRsk", "name": "Madhya Kailash", "city": "CHENNAI"}, "geometry": {"type": "Point", "coordinates": [80.2461821771177, 13.00651661419635]}}, {"type": "Feature", "properties": {"route_name": "49F", "stop_id": "knCDNjnp", "name": "IIT Madras Or Guindy National Park", "city": "CHENNAI"}, "geometry": {"type": "Point", "coordinates": [80.23999363331677, 13.00679210140227]}}, {"type": "Feature", "properties": {"route_name": "49F", "stop_id": "mLBQtksd", "name": "Anna University Or Engineer College", "city": "CHENNAI"}, "geometry": {"type": "Point", "coordinates": [80.2366756977184, 13.007404587801359]}}, {"type": "Feature", "properties": {"route_name": "49F", "stop_id": "rRGVruPM", "name": "Raj Bhavan Quarters", "city": "CHENNAI"}, "geometry": {"type": "Point", "coordinates": [80.22517469844684, 13.010580746325664]}}, {"type": "Feature", "properties": {"route_name": "49F", "stop_id": "GpnhEWuy", "name": "Concorde or Chellammal College", "city": "CHENNAI"}, "geometry": {"type": "Point", "coordinates": [80.22194994, 13.01186343]}}, {"type": "Feature", "properties": {"route_name": "49F", "stop_id": "QDIpIlEK", "name": "Guindy Railway Station", "city": "CHENNAI"}, "geometry": {"type": "Point", "coordinates": [80.21333453957197, 13.008223468910234]}}, {"type": "Feature", "properties": {"route_name": "49F", "stop_id": "GiONHkbf", "name": "Maduvankarai", "city": "CHENNAI"}, "geometry": {"type": "Point", "coordinates": [80.21229393909084, 13.00458785205742]}}, {"type": "Feature", "properties": {"route_name": "49F", "stop_id": "WFZVQzrl", "name": "Guindy M K N Salai", "city": "CHENNAI"}, "geometry": {"type": "Point", "coordinates": [80.20971883, 13.00723642]}}, {"type": "Feature", "properties": {"route_name": "49F", "stop_id": "bOiSLYGO", "name": "Butt Road", "city": "CHENNAI"}, "geometry": {"type": "Point", "coordinates": [80.19710214350084, 13.007293584482266]}}, {"type": "Feature", "properties": {"route_name": "49F", "stop_id": "uXKxCjNA", "name": "Military Quarters", "city": "CHENNAI"}, "geometry": {"type": "Point", "coordinates": [80.19561240579367, 13.010828879135412]}}, {"type": "Feature", "properties": {"route_name": "49F", "stop_id": "fMrlznIn", "name": "Trade Centre Nandambakkam", "city": "CHENNAI"}, "geometry": {"type": "Point", "coordinates": [80.18919166368482, 13.01669199193343]}}, {"type": "Feature", "properties": {"route_name": "49F", "stop_id": "cwgbfpqq", "name": "Miot Hospital", "city": "CHENNAI"}, "geometry": {"type": "Point", "coordinates": [80.1844229969937, 13.020576206613658]}}, {"type": "Feature", "properties": {"route_name": "49F", "stop_id": "nsbHlbAq", "name": "DLF Or L and T", "city": "CHENNAI"}, "geometry": {"type": "Point", "coordinates": [80.17873929100392, 13.02363881209801]}}, {"type": "Feature", "properties": {"route_name": "49F", "stop_id": "WhHfbZWj", "name": "Mugalivakkam", "city": "CHENNAI"}, "geometry": {"type": "Point", "coordinates": [80.1683835935878, 13.02943507912661]}}, {"type": "Feature", "properties": {"route_name": "49F", "stop_id": "lsBVGYKC", "name": "Porur Shakthi Nagar", "city": "CHENNAI"}, "geometry": {"type": "Point", "coordinates": [80.16484110784074, 13.031434305596445]}}, {"type": "Feature", "properties": {"route_name": "49F", "stop_id": "FFGyTMvJ", "name": "Porur", "city": "CHENNAI"}, "geometry": {"type": "Point", "coordinates": [80.15469906289957, 13.035247766558562]}}, {"type": "Feature", "properties": {"route_name": "49F", "stop_id": "mSXRukCc", "name": "Ramachandra Hospital", "city": "CHENNAI"}, "geometry": {"type": "Point", "coordinates": [80.14304171408253, 13.036524191504682]}}, {"type": "Feature", "properties": {"route_name": "49F", "stop_id": "kjxfKqbD", "name": "Iyappanthangal", "city": "CHENNAI"}, "geometry": {"type": "Point", "coordinates": [80.13864712545444, 13.037258245977446]}}, {"type": "Feature", "properties": {"route_name": "49F", "stop_id": "nhSXMXjw", "name": "Iyyappanthangal Bus Depot", "city": "CHENNAI"}, "geometry": {"type": "Point", "coordinates": [80.13431579522192, 13.03839345200618]}}, {"type": "Feature", "properties": {"route_name": "49F", "stop_id": "nzTRQfUi", "name": "Kattupakkam", "city": "CHENNAI"}, "geometry": {"type": "Point", "coordinates": [80.12786292213946, 13.040820495452014]}}, {"type": "Feature", "properties": {"route_name": "49F", "stop_id": "MklhhYCQ", "name": "Poonamallee Municipality or Kumananchavadi", "city": "CHENNAI"}, "geometry": {"type": "Point", "coordinates": [80.11585975706225, 13.044861438722952]}}, {"type": "Feature", "properties": {"route_name": "49F", "stop_id": "rnFrOJMw", "name": "Karayanchavadi", "city": "CHENNAI"}, "geometry": {"type": "Point", "coordinates": [80.11112834664436, 13.046458655521905]}}, {"type": "Feature", "properties": {"route_name": "49F", "stop_id": "funWfCdm", "name": "Kallarai", "city": "CHENNAI"}, "geometry": {"type": "Point", "coordinates": [80.10571440681065, 13.049109099488938]}}, {"type": "Feature", "properties": {"route_name": "49F", "stop_id": "CEZTRnUo", "name": "Poonamallee Government Hospital", "city": "CHENNAI"}, "geometry": {"type": "Point", "coordinates": [80.09928744619936, 13.050223977119227]}}, {"type": "Feature", "properties": {"route_name": "49F", "stop_id": "qflzswAf", "name": "Poonamallee Terminus", "city": "CHENNAI"}, "geometry": {"type": "Point", "coordinates": [80.09486902391961, 13.051775993180485]}}, {"type": "Feature", "properties": {"name": "49F"}, "geometry": {"type": "LineString", "coordinates": [[80.26598, 13.02653], [80.26594, 13.02641], [80.26593, 13.02627], [80.26571, 13.02581], [80.26551, 13.02552], [80.26519, 13.02509], [80.26499, 13.02483], [80.2645, 13.02414], [80.26359, 13.02246], [80.2634, 13.02206], [80.26317, 13.02154], [80.26307, 13.02122], [80.26303, 13.02083], [80.26302, 13.02029], [80.26289, 13.01908], [80.26288, 13.01902], [80.26275, 13.01895], [80.26191, 13.01879], [80.2617, 13.01878], [80.26151, 13.01876], [80.26139, 13.01874], [80.26131, 13.0187], [80.2612, 13.01856], [80.261, 13.01826], [80.26044, 13.01741], [80.2599, 13.01656], [80.25962, 13.01609], [80.2596, 13.01605], [80.25974, 13.01597], [80.2598, 13.01615], [80.25992, 13.0164], [80.2602, 13.01691], [80.2602, 13.01696], [80.26017, 13.01698], [80.26013, 13.01692], [80.25999, 13.01669], [80.25977, 13.01637], [80.2596, 13.01605], [80.25951, 13.01587], [80.25936, 13.0154], [80.2593, 13.01493], [80.25928, 13.01438], [80.25923, 13.01277], [80.25921, 13.01163], [80.25918, 13.01079], [80.2592, 13.01075], [80.25924, 13.01066], [80.25926, 13.01059], [80.25928, 13.01042], [80.25925, 13.00967], [80.25919, 13.00877], [80.25914, 13.00828], [80.25924, 13.008], [80.25929, 13.0079], [80.25937, 13.00772], [80.2594, 13.00761], [80.25939, 13.00758], [80.25936, 13.0075], [80.25928, 13.00743], [80.25924, 13.00741], [80.25905, 13.0073], [80.25882, 13.00723], [80.25882, 13.00721], [80.25851, 13.00707], [80.25819, 13.00689], [80.25777, 13.00666], [80.25741, 13.00655], [80.25612, 13.00652], [80.2554, 13.0065], [80.2547, 13.00654], [80.25426, 13.00651], [80.2529, 13.0065], [80.25232, 13.00653], [80.25167, 13.00667], [80.25166, 13.00662], [80.25145, 13.00665], [80.25108, 13.00668], [80.25064, 13.00666], [80.24984, 13.00664], [80.24953, 13.00672], [80.24897, 13.00669], [80.24811, 13.00662], [80.24744, 13.00665], [80.24701, 13.00665], [80.24588, 13.00667], [80.24621, 13.00661], [80.24599, 13.00666], [80.24538, 13.00664], [80.24455, 13.00663], [80.24297, 13.00662], [80.24215, 13.0066], [80.24162, 13.0066], [80.24108, 13.00665], [80.24029, 13.00676], [80.24, 13.00683], [80.23812, 13.00719], [80.2372, 13.00739], [80.2367, 13.0075], [80.23504, 13.00784], [80.23164, 13.00851], [80.22853, 13.00913], [80.2282, 13.0092], [80.22753, 13.00947], [80.22625, 13.01004], [80.22613, 13.01011], [80.22607, 13.01018], [80.22541, 13.0105], [80.22519, 13.01061], [80.22492, 13.01074], [80.22486, 13.01075], [80.22467, 13.01083], [80.22409, 13.01106], [80.22357, 13.01125], [80.22323, 13.01137], [80.22204, 13.01188], [80.22196, 13.0119], [80.22136, 13.01211], [80.22113, 13.01219], [80.22101, 13.01216], [80.22021, 13.01189], [80.21913, 13.01155], [80.21816, 13.01123], [80.21773, 13.01106], [80.21689, 13.01073], [80.21656, 13.01056], [80.21619, 13.01039], [80.21618, 13.01034], [80.21613, 13.01029], [80.21601, 13.01021], [80.21542, 13.00995], [80.21501, 13.00972], [80.21487, 13.00962], [80.21468, 13.00946], [80.21413, 13.00903], [80.21362, 13.00864], [80.21343, 13.00842], [80.21332, 13.00823], [80.21331, 13.00824], [80.21324, 13.0081], [80.21297, 13.00773], [80.21292, 13.00765], [80.21285, 13.00747], [80.21275, 13.00692], [80.21274, 13.00682], [80.21275, 13.00661], [80.21277, 13.00642], [80.21294, 13.00603], [80.213, 13.00587], [80.21297, 13.00571], [80.21293, 13.00562], [80.21283, 13.00553], [80.21263, 13.00522], [80.2123, 13.00467], [80.21227, 13.0046], [80.2122, 13.00445], [80.21209, 13.00411], [80.21201, 13.00378], [80.21201, 13.00372], [80.21169, 13.00369], [80.2115, 13.00369], [80.21117, 13.00374], [80.21081, 13.00368], [80.20976, 13.00355], [80.20952, 13.00356], [80.20881, 13.00371], [80.20871, 13.00374], [80.20865, 13.0038], [80.2086, 13.0039], [80.20861, 13.00405], [80.2093, 13.00559], [80.20933, 13.00566], [80.20949, 13.00605], [80.20954, 13.00625], [80.2096, 13.00643], [80.2097, 13.00682], [80.20979, 13.00722], [80.20998, 13.00808], [80.20996, 13.00816], [80.20991, 13.00822], [80.20984, 13.00827], [80.20972, 13.00822], [80.20946, 13.00813], [80.20919, 13.00805], [80.20866, 13.00798], [80.20706, 13.00774], [80.20595, 13.00761], [80.20544, 13.00758], [80.20405, 13.00757], [80.20377, 13.00755], [80.20341, 13.00748], [80.20291, 13.00741], [80.20262, 13.00737], [80.20207, 13.00737], [80.20161, 13.00741], [80.20068, 13.00748], [80.19981, 13.00749], [80.19856, 13.0074], [80.19776, 13.00738], [80.1971, 13.00737], [80.19708, 13.00737], [80.19631, 13.00735], [80.19624, 13.00737], [80.19621, 13.00741], [80.19618, 13.00748], [80.19617, 13.00758], [80.19619, 13.0079], [80.19623, 13.00849], [80.19623, 13.00864], [80.1962, 13.00876], [80.196, 13.00918], [80.19592, 13.00935], [80.19588, 13.00951], [80.19586, 13.00971], [80.19588, 13.01006], [80.19589, 13.01039], [80.19587, 13.01053], [80.19576, 13.01077], [80.19569, 13.01087], [80.19432, 13.01309], [80.19406, 13.0135], [80.19389, 13.01378], [80.19368, 13.01408], [80.19358, 13.0142], [80.19337, 13.01438], [80.19315, 13.01454], [80.19287, 13.01474], [80.19249, 13.01495], [80.19231, 13.01506], [80.19043, 13.01611], [80.18944, 13.01666], [80.18924, 13.01678], [80.18717, 13.01785], [80.18703, 13.01797], [80.18681, 13.01821], [80.18658, 13.01853], [80.18589, 13.01969], [80.18565, 13.02007], [80.18555, 13.02019], [80.18543, 13.02029], [80.18534, 13.02035], [80.18493, 13.02051], [80.18444, 13.02064], [80.18404, 13.02078], [80.18366, 13.02096], [80.18172, 13.02207], [80.17878, 13.02371], [80.17728, 13.02453], [80.1759, 13.02532], [80.175, 13.02584], [80.17476, 13.02597], [80.1726, 13.02718], [80.17029, 13.02846], [80.16956, 13.02887], [80.16882, 13.02929], [80.16842, 13.0295], [80.16762, 13.02992], [80.16653, 13.03052], [80.16486, 13.03147], [80.16428, 13.0318], [80.16313, 13.03247], [80.16254, 13.03278], [80.16134, 13.03347], [80.16011, 13.03414], [80.15984, 13.03429], [80.15968, 13.03434], [80.15944, 13.03438], [80.15872, 13.03438], [80.15785, 13.03431], [80.15714, 13.03424], [80.15666, 13.03428], [80.15592, 13.03463], [80.15578, 13.03472], [80.15543, 13.03491], [80.15472, 13.03528], [80.15311, 13.03614], [80.15295, 13.0362], [80.15281, 13.03623], [80.15226, 13.03623], [80.15031, 13.03617], [80.14879, 13.03615], [80.14711, 13.03616], [80.14626, 13.0362], [80.14545, 13.03631], [80.14357, 13.03657], [80.14338, 13.03655], [80.14305, 13.03657], [80.14278, 13.03663], [80.14271, 13.03671], [80.14241, 13.03673], [80.14104, 13.03692], [80.13958, 13.03717], [80.13865, 13.0373], [80.13677, 13.03756], [80.13626, 13.03769], [80.13574, 13.03786], [80.1349, 13.03819], [80.13433, 13.03842], [80.13304, 13.03895], [80.13255, 13.03914], [80.13203, 13.03932], [80.1308, 13.03978], [80.12968, 13.0402], [80.12788, 13.04086], [80.12675, 13.04132], [80.12396, 13.04254], [80.12279, 13.04306], [80.12054, 13.04392], [80.11918, 13.04451], [80.11893, 13.0446], [80.11795, 13.04493], [80.11771, 13.045], [80.11731, 13.04507], [80.1172, 13.04509], [80.1171, 13.04516], [80.11703, 13.04522], [80.11649, 13.04503], [80.11604, 13.04491], [80.1159, 13.04489], [80.11586, 13.04489], [80.11565, 13.04493], [80.11481, 13.04517], [80.11421, 13.04536], [80.11345, 13.04564], [80.11249, 13.04593], [80.11226, 13.04602], [80.11183, 13.04626], [80.11154, 13.04642], [80.11118, 13.04657], [80.10975, 13.04718], [80.10905, 13.04756], [80.10887, 13.04768], [80.10841, 13.04796], [80.10795, 13.04823], [80.10743, 13.04849], [80.10695, 13.04873], [80.10573, 13.04916], [80.10492, 13.04948], [80.10427, 13.04968], [80.10398, 13.04971], [80.10361, 13.04973], [80.10268, 13.0497], [80.10175, 13.04967], [80.10106, 13.04967], [80.1009, 13.04968], [80.10061, 13.04975], [80.10018, 13.04988], [80.09966, 13.05013], [80.09931, 13.0503], [80.09929, 13.05022], [80.09931, 13.0503], [80.0992, 13.05031], [80.09896, 13.05035], [80.09876, 13.05036], [80.0986, 13.05036], [80.09819, 13.05045], [80.09783, 13.05052], [80.09672, 13.05071], [80.09592, 13.05085], [80.09557, 13.05085], [80.09513, 13.05087], [80.09408, 13.05079], [80.09421, 13.05141], [80.09434, 13.05173], [80.09445, 13.05194], [80.09451, 13.05196], [80.09461, 13.052], [80.09479, 13.05206], [80.09495, 13.05207], [80.09495, 13.05178]]}}]}