{"type": "FeatureCollection", "features": [{"type": "Feature", "properties": {"route_name": "12G", "stop_id": "gaLZwYvS", "name": "Anna Square", "city": "CHENNAI"}, "geometry": {"type": "Point", "coordinates": [80.2844001598744, 13.066389593658073]}}, {"type": "Feature", "properties": {"route_name": "12G", "stop_id": "MBTcSIip", "name": "Kannagi Statue Or Presidency College", "city": "CHENNAI"}, "geometry": {"type": "Point", "coordinates": [80.28195436114925, 13.056792205024193]}}, {"type": "Feature", "properties": {"route_name": "12G", "stop_id": "ppabfQGz", "name": "Swami Vivekananda House", "city": "CHENNAI"}, "geometry": {"type": "Point", "coordinates": [80.28088296237695, 13.050370120124452]}}, {"type": "Feature", "properties": {"route_name": "12G", "stop_id": "FXEtzSuC", "name": "Ice House Police Station", "city": "CHENNAI"}, "geometry": {"type": "Point", "coordinates": [80.27373849221999, 13.052750240413026]}}, {"type": "Feature", "properties": {"route_name": "12G", "stop_id": "YyXnCqJL", "name": "City Centre Or Kalyani Hospital", "city": "CHENNAI"}, "geometry": {"type": "Point", "coordinates": [80.2717022654349, 13.04383164795831]}}, {"type": "Feature", "properties": {"route_name": "12G", "stop_id": "FJDNPLrp", "name": "Yellow Pages", "city": "CHENNAI"}, "geometry": {"type": "Point", "coordinates": [80.26853013077584, 13.04446540157116]}}, {"type": "Feature", "properties": {"route_name": "12G", "stop_id": "yrMfCrKd", "name": "AVM Rajeshwari Thirumana Mandapam", "city": "CHENNAI"}, "geometry": {"type": "Point", "coordinates": [80.26526455120813, 13.044528612563159]}}, {"type": "Feature", "properties": {"route_name": "12G", "stop_id": "BIPxiHLi", "name": "New Woodlands", "city": "CHENNAI"}, "geometry": {"type": "Point", "coordinates": [80.26281506276382, 13.044647353721018]}}, {"type": "Feature", "properties": {"route_name": "12G", "stop_id": "MUKiuGPJ", "name": "Narada Gana Sabha", "city": "CHENNAI"}, "geometry": {"type": "Point", "coordinates": [80.25855873628063, 13.04098828192076]}}, {"type": "Feature", "properties": {"route_name": "12G", "stop_id": "sDgMDbLK", "name": "Cit Colony", "city": "CHENNAI"}, "geometry": {"type": "Point", "coordinates": [80.25754358895495, 13.039162959788376]}}, {"type": "Feature", "properties": {"route_name": "12G", "stop_id": "lDeAZniB", "name": "Anjaneyar Temple", "city": "CHENNAI"}, "geometry": {"type": "Point", "coordinates": [80.25898465949876, 13.038779668430115]}}, {"type": "Feature", "properties": {"route_name": "12G", "stop_id": "HefnspWQ", "name": "Cit Colony", "city": "CHENNAI"}, "geometry": {"type": "Point", "coordinates": [80.25763415556514, 13.038759801296484]}}, {"type": "Feature", "properties": {"route_name": "12G", "stop_id": "czFfIymd", "name": "Fci Old", "city": "CHENNAI"}, "geometry": {"type": "Point", "coordinates": [80.25587900582832, 13.03811467336723]}}, {"type": "Feature", "properties": {"route_name": "12G", "stop_id": "szQKyBKA", "name": "Eldams Road", "city": "CHENNAI"}, "geometry": {"type": "Point", "coordinates": [80.2515596667995, 13.038740521078717]}}, {"type": "Feature", "properties": {"route_name": "12G", "stop_id": "eBAbFKqQ", "name": "Aalayamman Temple", "city": "CHENNAI"}, "geometry": {"type": "Point", "coordinates": [80.24575441173624, 13.039378896328678]}}, {"type": "Feature", "properties": {"route_name": "12G", "stop_id": "zAwPDfkg", "name": "Perumal Koil", "city": "CHENNAI"}, "geometry": {"type": "Point", "coordinates": [80.23678801748513, 13.035582362905718]}}, {"type": "Feature", "properties": {"route_name": "12G", "stop_id": "RWixPrCB", "name": "Duraiswamy Subway Or Pothys", "city": "CHENNAI"}, "geometry": {"type": "Point", "coordinates": [80.23097823326339, 13.040704711749553]}}, {"type": "Feature", "properties": {"route_name": "12G", "stop_id": "WweXYmbm", "name": "Vrindavan Street", "city": "CHENNAI"}, "geometry": {"type": "Point", "coordinates": [80.22498910731326, 13.042152065580456]}}, {"type": "Feature", "properties": {"route_name": "12G", "stop_id": "JODrgTwh", "name": "Anjugam School", "city": "CHENNAI"}, "geometry": {"type": "Point", "coordinates": [80.22167002061894, 13.0412994882356]}}, {"type": "Feature", "properties": {"route_name": "12G", "stop_id": "nMidlhrd", "name": "Indian Bank Gowda Road", "city": "CHENNAI"}, "geometry": {"type": "Point", "coordinates": [80.22153467916746, 13.040705298158697]}}, {"type": "Feature", "properties": {"route_name": "12G", "stop_id": "kdVJdnYB", "name": "Postal Colony", "city": "CHENNAI"}, "geometry": {"type": "Point", "coordinates": [80.2207487217521, 13.036613288740671]}}, {"type": "Feature", "properties": {"route_name": "12G", "stop_id": "gNlImmtJ", "name": "Ram Colony", "city": "CHENNAI"}, "geometry": {"type": "Point", "coordinates": [80.2161722952577, 13.034234239313996]}}, {"type": "Feature", "properties": {"route_name": "12G", "stop_id": "XiaLQvRI", "name": "Intercity Bus Stop", "city": "CHENNAI"}, "geometry": {"type": "Point", "coordinates": [80.21572168549096, 13.031313397322021]}}, {"type": "Feature", "properties": {"route_name": "12G", "stop_id": "NPqatCDm", "name": "Ashok Nagar 11th Avenue", "city": "CHENNAI"}, "geometry": {"type": "Point", "coordinates": [80.21258520829747, 13.031686773851705]}}, {"type": "Feature", "properties": {"route_name": "12G", "stop_id": "oBjbzljy", "name": "ESI Hospital K K Nagar", "city": "CHENNAI"}, "geometry": {"type": "Point", "coordinates": [80.20863011462302, 13.035219731420664]}}, {"type": "Feature", "properties": {"route_name": "12G", "stop_id": "EdqXvVeI", "name": "Velankanni Matric Higher Secondary School", "city": "CHENNAI"}, "geometry": {"type": "Point", "coordinates": [80.20843251738165, 13.038730371806862]}}, {"type": "Feature", "properties": {"route_name": "12G", "stop_id": "nPkrzCty", "name": "Nagathamman Koil", "city": "CHENNAI"}, "geometry": {"type": "Point", "coordinates": [80.20895800045696, 13.04409598727029]}}, {"type": "Feature", "properties": {"route_name": "12G", "stop_id": "UlOflIKh", "name": "PT Rajan Road", "city": "CHENNAI"}, "geometry": {"type": "Point", "coordinates": [80.20493796388712, 13.039269706447962]}}, {"type": "Feature", "properties": {"route_name": "12G", "stop_id": "dEEWjOTq", "name": "Double Tank", "city": "CHENNAI"}, "geometry": {"type": "Point", "coordinates": [80.20149846694198, 13.038573582953509]}}, {"type": "Feature", "properties": {"route_name": "12G", "stop_id": "EVcIyerQ", "name": "Padma Shri School", "city": "CHENNAI"}, "geometry": {"type": "Point", "coordinates": [80.19953774423573, 13.038858173962822]}}, {"type": "Feature", "properties": {"route_name": "12G", "stop_id": "NzFpkpXH", "name": "Ayappan Kovil", "city": "CHENNAI"}, "geometry": {"type": "Point", "coordinates": [80.1971450081146, 13.039235736153763]}}, {"type": "Feature", "properties": {"route_name": "12G", "stop_id": "SNVRXPiu", "name": "Amudam", "city": "CHENNAI"}, "geometry": {"type": "Point", "coordinates": [80.19331978053049, 13.039776644477342]}}, {"type": "Feature", "properties": {"route_name": "12G", "stop_id": "ZrWksDco", "name": "Munusamy Salai", "city": "CHENNAI"}, "geometry": {"type": "Point", "coordinates": [80.19296394551884, 13.038817727872972]}}, {"type": "Feature", "properties": {"route_name": "12G", "stop_id": "kYpOneyC", "name": "Nesapakkam", "city": "CHENNAI"}, "geometry": {"type": "Point", "coordinates": [80.19284728181299, 13.03810901460192]}}, {"type": "Feature", "properties": {"route_name": "12G", "stop_id": "MGitFLID", "name": "M G R Nagar", "city": "CHENNAI"}, "geometry": {"type": "Point", "coordinates": [80.19597561298201, 13.037317944329056]}}, {"type": "Feature", "properties": {"route_name": "12G", "stop_id": "noVetmot", "name": "Data Udupi Hotel", "city": "CHENNAI"}, "geometry": {"type": "Point", "coordinates": [80.1985383010599, 13.036912670498692]}}, {"type": "Feature", "properties": {"route_name": "12G", "stop_id": "ZdIQslRD", "name": "M G R Nagar Market", "city": "CHENNAI"}, "geometry": {"type": "Point", "coordinates": [80.20147886035033, 13.036496142101639]}}, {"type": "Feature", "properties": {"route_name": "12G", "stop_id": "SMhobJmy", "name": "K K Nagar", "city": "CHENNAI"}, "geometry": {"type": "Point", "coordinates": [80.20541544371054, 13.035922680209874]}}, {"type": "Feature", "properties": {"name": "12G"}, "geometry": {"type": "LineString", "coordinates": [[80.28431, 13.06642], [80.28423, 13.06628], [80.28399, 13.06613], [80.28348, 13.06412], [80.2834, 13.06401], [80.28335, 13.06379], [80.28328, 13.06344], [80.28299, 13.06206], [80.28267, 13.06062], [80.2822, 13.05833], [80.28195, 13.05709], [80.2819, 13.0568], [80.28141, 13.05448], [80.28119, 13.05325], [80.28083, 13.05107], [80.28074, 13.05039], [80.28068, 13.04998], [80.28055, 13.05012], [80.28035, 13.05027], [80.28016, 13.05036], [80.27976, 13.0506], [80.27906, 13.05086], [80.27872, 13.051], [80.27836, 13.05112], [80.27702, 13.05162], [80.27677, 13.05171], [80.27614, 13.05196], [80.27536, 13.05224], [80.27393, 13.05273], [80.27375, 13.05278], [80.27382, 13.05276], [80.27391, 13.05224], [80.27413, 13.05134], [80.27425, 13.05073], [80.27437, 13.05001], [80.27458, 13.049], [80.27458, 13.04892], [80.27457, 13.04838], [80.27452, 13.04764], [80.27453, 13.04732], [80.27453, 13.04714], [80.27448, 13.04651], [80.27436, 13.04567], [80.27434, 13.04474], [80.27429, 13.04419], [80.27428, 13.04376], [80.27429, 13.04348], [80.2743, 13.04339], [80.27357, 13.04353], [80.2732, 13.04359], [80.27172, 13.0439], [80.26968, 13.04432], [80.26889, 13.04448], [80.26854, 13.04453], [80.26832, 13.04457], [80.26764, 13.04458], [80.2669, 13.04458], [80.26526, 13.04459], [80.26409, 13.0446], [80.26353, 13.04461], [80.26288, 13.04474], [80.26284, 13.04475], [80.26246, 13.04482], [80.26236, 13.04481], [80.26225, 13.04482], [80.26089, 13.04512], [80.2601, 13.04528], [80.25993, 13.04529], [80.25985, 13.04529], [80.25979, 13.04484], [80.25973, 13.04449], [80.25963, 13.04372], [80.25957, 13.0433], [80.2595, 13.04299], [80.25939, 13.0426], [80.25927, 13.04233], [80.25852, 13.04101], [80.25844, 13.04084], [80.25833, 13.04072], [80.25834, 13.04067], [80.25834, 13.04062], [80.25832, 13.04059], [80.25782, 13.03964], [80.2577, 13.03944], [80.25751, 13.03918], [80.25741, 13.03902], [80.25744, 13.03896], [80.25747, 13.03893], [80.25751, 13.03889], [80.25756, 13.03885], [80.25798, 13.03883], [80.25854, 13.0388], [80.25898, 13.03876], [80.25911, 13.03874], [80.25905, 13.03856], [80.25894, 13.03862], [80.25884, 13.03867], [80.25863, 13.03872], [80.25765, 13.03879], [80.25736, 13.0388], [80.25726, 13.03884], [80.25705, 13.03854], [80.25694, 13.0384], [80.25678, 13.03815], [80.25676, 13.03806], [80.25676, 13.03802], [80.25667, 13.03805], [80.25657, 13.03808], [80.25589, 13.03818], [80.25589, 13.03817], [80.25366, 13.03847], [80.25275, 13.0386], [80.2523, 13.03869], [80.25156, 13.03878], [80.25153, 13.03878], [80.25056, 13.03889], [80.24986, 13.039], [80.24936, 13.03905], [80.24832, 13.03922], [80.24753, 13.03935], [80.247, 13.03944], [80.24694, 13.0392], [80.2469, 13.03908], [80.24679, 13.03912], [80.24637, 13.03926], [80.24577, 13.03945], [80.24464, 13.03972], [80.24441, 13.03977], [80.24395, 13.03989], [80.24394, 13.03988], [80.2439, 13.03986], [80.24384, 13.03989], [80.24383, 13.03992], [80.2432, 13.03998], [80.24081, 13.04029], [80.24049, 13.04033], [80.24036, 13.04038], [80.23995, 13.04042], [80.23988, 13.03991], [80.23971, 13.03876], [80.23964, 13.03817], [80.23942, 13.03638], [80.23933, 13.03571], [80.23932, 13.03544], [80.23927, 13.03544], [80.23921, 13.03543], [80.23914, 13.03542], [80.23859, 13.03511], [80.23819, 13.03486], [80.23789, 13.03465], [80.23763, 13.03447], [80.23756, 13.03444], [80.23698, 13.03535], [80.23682, 13.03561], [80.23641, 13.03624], [80.2356, 13.03752], [80.23455, 13.03917], [80.23425, 13.03961], [80.23373, 13.04046], [80.23358, 13.0406], [80.23279, 13.04077], [80.23207, 13.04088], [80.23191, 13.04055], [80.23168, 13.04061], [80.231, 13.04078], [80.231, 13.04074], [80.2301, 13.04096], [80.22906, 13.04117], [80.22809, 13.04141], [80.22712, 13.04165], [80.22673, 13.04177], [80.22562, 13.04202], [80.22499, 13.04217], [80.22494, 13.04218], [80.22475, 13.04148], [80.2245, 13.0409], [80.22426, 13.04101], [80.22374, 13.04129], [80.22225, 13.0418], [80.22179, 13.04194], [80.22174, 13.04177], [80.22164, 13.04131], [80.2215, 13.04071], [80.22126, 13.03961], [80.22099, 13.03831], [80.22083, 13.03747], [80.22064, 13.03663], [80.22056, 13.03619], [80.22052, 13.03591], [80.21939, 13.03596], [80.21883, 13.03599], [80.21769, 13.03612], [80.21626, 13.03623], [80.21624, 13.03566], [80.2162, 13.03491], [80.21613, 13.03426], [80.21617, 13.03426], [80.21613, 13.03426], [80.21609, 13.03395], [80.21601, 13.03302], [80.21598, 13.03212], [80.21599, 13.03132], [80.21572, 13.03133], [80.2157, 13.03133], [80.21475, 13.03145], [80.21343, 13.03164], [80.2126, 13.03176], [80.21174, 13.03189], [80.21019, 13.03211], [80.20956, 13.03222], [80.20959, 13.03253], [80.2097, 13.03322], [80.20984, 13.03384], [80.20995, 13.03403], [80.20999, 13.03447], [80.21002, 13.03483], [80.20995, 13.03502], [80.20993, 13.03506], [80.20986, 13.03511], [80.2092, 13.03522], [80.20864, 13.0353], [80.20796, 13.03541], [80.20801, 13.03566], [80.20822, 13.03707], [80.2083, 13.03743], [80.20837, 13.03811], [80.20845, 13.0387], [80.20848, 13.03872], [80.20876, 13.04067], [80.20891, 13.04153], [80.20896, 13.04189], [80.20912, 13.04307], [80.20924, 13.04384], [80.20927, 13.04415], [80.20896, 13.04413], [80.20802, 13.04409], [80.20771, 13.04404], [80.20734, 13.0439], [80.20703, 13.0437], [80.2056, 13.04265], [80.20558, 13.04261], [80.20554, 13.0426], [80.20543, 13.04239], [80.20536, 13.04215], [80.20529, 13.0417], [80.20523, 13.04137], [80.20506, 13.0402], [80.20493, 13.03927], [80.20475, 13.03816], [80.2043, 13.03821], [80.2017, 13.0386], [80.2015, 13.03862], [80.2007, 13.03872], [80.19955, 13.03891], [80.19888, 13.03902], [80.19832, 13.03908], [80.19715, 13.03925], [80.19712, 13.03926], [80.19588, 13.03945], [80.19332, 13.03981], [80.19302, 13.03985], [80.19294, 13.03928], [80.19289, 13.03883], [80.19279, 13.03811], [80.19279, 13.03808], [80.19282, 13.03798], [80.19284, 13.03784], [80.19288, 13.03776], [80.19292, 13.03771], [80.19297, 13.03768], [80.19318, 13.03765], [80.19405, 13.03755], [80.19597, 13.03729], [80.19766, 13.03701], [80.19854, 13.03689], [80.20148, 13.03648], [80.20345, 13.03616], [80.20395, 13.0361], [80.20433, 13.03602], [80.20527, 13.03588], [80.20541, 13.03586]]}}]}