{"type": "FeatureCollection", "features": [{"type": "Feature", "properties": {"route_name": "566", "stop_id": "UgzfanVk", "name": "Kundrathur Bus Depot", "city": "CHENNAI"}, "geometry": {"type": "Point", "coordinates": [80.09613879486278, 12.997118033846938]}}, {"type": "Feature", "properties": {"route_name": "566", "stop_id": "vFpuvjcu", "name": "Pillayar Kovil Or Manancheri", "city": "CHENNAI"}, "geometry": {"type": "Point", "coordinates": [80.10360216305617, 12.998044352786865]}}, {"type": "Feature", "properties": {"route_name": "566", "stop_id": "siiqKFuN", "name": "Andakuppam", "city": "CHENNAI"}, "geometry": {"type": "Point", "coordinates": [80.11004174984168, 12.995984383067944]}}, {"type": "Feature", "properties": {"route_name": "566", "stop_id": "zAqZkkQx", "name": "Karima Nagar Company", "city": "CHENNAI"}, "geometry": {"type": "Point", "coordinates": [80.11703629269334, 12.98966512449306]}}, {"type": "Feature", "properties": {"route_name": "566", "stop_id": "FYgdoWMK", "name": "Anakaputhur Amman Kovil", "city": "CHENNAI"}, "geometry": {"type": "Point", "coordinates": [80.12771993366164, 12.983275515215881]}}, {"type": "Feature", "properties": {"route_name": "566", "stop_id": "bjEpkupt", "name": "Anakaputhur Higher Secondary School", "city": "CHENNAI"}, "geometry": {"type": "Point", "coordinates": [80.12922908041128, 12.98080405837172]}}, {"type": "Feature", "properties": {"route_name": "566", "stop_id": "gxlaiARP", "name": "Pammal Theatre", "city": "CHENNAI"}, "geometry": {"type": "Point", "coordinates": [80.13058986288888, 12.977704719869736]}}, {"type": "Feature", "properties": {"route_name": "566", "stop_id": "DNyXiZzj", "name": "Pammal", "city": "CHENNAI"}, "geometry": {"type": "Point", "coordinates": [80.13528008832327, 12.974458672581367]}}, {"type": "Feature", "properties": {"route_name": "566", "stop_id": "pXlenLUq", "name": "Krishna Nagar", "city": "CHENNAI"}, "geometry": {"type": "Point", "coordinates": [80.13835511886168, 12.97289655219043]}}, {"type": "Feature", "properties": {"route_name": "566", "stop_id": "XbgiSLmy", "name": "Muthamil Nagar Pallavaram", "city": "CHENNAI"}, "geometry": {"type": "Point", "coordinates": [80.14244304020781, 12.971600972735805]}}, {"type": "Feature", "properties": {"route_name": "566", "stop_id": "EDdQplwd", "name": "Pallavaram Aadu Thotti", "city": "CHENNAI"}, "geometry": {"type": "Point", "coordinates": [80.14499791683875, 12.970758223028511]}}, {"type": "Feature", "properties": {"route_name": "566", "stop_id": "ffjXMuak", "name": "Pallavaram  Market", "city": "CHENNAI"}, "geometry": {"type": "Point", "coordinates": [80.14755402331355, 12.969708693108611]}}, {"type": "Feature", "properties": {"route_name": "566", "stop_id": "qeXIqBgp", "name": "Pallavaram Bus Stand", "city": "CHENNAI"}, "geometry": {"type": "Point", "coordinates": [80.15020472965345, 12.969321927480118]}}, {"type": "Feature", "properties": {"route_name": "566", "stop_id": "aojHvPEg", "name": "Ponds Company", "city": "CHENNAI"}, "geometry": {"type": "Point", "coordinates": [80.14615837927238, 12.961398521978591]}}, {"type": "Feature", "properties": {"route_name": "566", "stop_id": "BZCtSmhk", "name": "Saravana Store Chromepet", "city": "CHENNAI"}, "geometry": {"type": "Point", "coordinates": [80.14344682, 12.95656648]}}, {"type": "Feature", "properties": {"route_name": "566", "stop_id": "ywuGpANM", "name": "Chromepet", "city": "CHENNAI"}, "geometry": {"type": "Point", "coordinates": [80.14056159, 12.95162355]}}, {"type": "Feature", "properties": {"route_name": "566", "stop_id": "VgUdLlOW", "name": "MIT Gate", "city": "CHENNAI"}, "geometry": {"type": "Point", "coordinates": [80.13701978537733, 12.947061243115431]}}, {"type": "Feature", "properties": {"route_name": "566", "stop_id": "hpACGGyB", "name": "TB Hospital", "city": "CHENNAI"}, "geometry": {"type": "Point", "coordinates": [80.13469781949811, 12.944093289066009]}}, {"type": "Feature", "properties": {"route_name": "566", "stop_id": "eaNsVWDR", "name": "Tambaram Sanatorium Bus Stand", "city": "CHENNAI"}, "geometry": {"type": "Point", "coordinates": [80.12809022215106, 12.937055899909849]}}, {"type": "Feature", "properties": {"route_name": "566", "stop_id": "CKorGRkE", "name": "Kadaperi", "city": "CHENNAI"}, "geometry": {"type": "Point", "coordinates": [80.12469723891547, 12.93337144029531]}}, {"type": "Feature", "properties": {"route_name": "566", "stop_id": "ejMjPdTH", "name": "Tambaram West Bus Stand", "city": "CHENNAI"}, "geometry": {"type": "Point", "coordinates": [80.118864, 12.92758911]}}, {"type": "Feature", "properties": {"route_name": "566", "stop_id": "AUmOMGnp", "name": "Irumbuliyur", "city": "CHENNAI"}, "geometry": {"type": "Point", "coordinates": [80.10666718, 12.91663681]}}, {"type": "Feature", "properties": {"route_name": "566", "stop_id": "ALhaazBT", "name": "Perungalattur", "city": "CHENNAI"}, "geometry": {"type": "Point", "coordinates": [80.09644663992617, 12.906403356437842]}}, {"type": "Feature", "properties": {"route_name": "566", "stop_id": "KgwKZlse", "name": "Iraniyamman Koil", "city": "CHENNAI"}, "geometry": {"type": "Point", "coordinates": [80.08960316901448, 12.897427677710802]}}, {"type": "Feature", "properties": {"route_name": "566", "stop_id": "FZsFzszJ", "name": "Vandalur Gate", "city": "CHENNAI"}, "geometry": {"type": "Point", "coordinates": [80.08640892276996, 12.89311473169435]}}, {"type": "Feature", "properties": {"route_name": "566", "stop_id": "gzTQJVMW", "name": "Vandalur Zoo", "city": "CHENNAI"}, "geometry": {"type": "Point", "coordinates": [80.0808152705822, 12.88055624912894]}}, {"type": "Feature", "properties": {"route_name": "566", "stop_id": "vkArqzKY", "name": "Anna Nagar Colony", "city": "CHENNAI"}, "geometry": {"type": "Point", "coordinates": [80.10148457009348, 12.871584798913993]}}, {"type": "Feature", "properties": {"route_name": "566", "stop_id": "DgYBMgPg", "name": "Kolapakkam Junction", "city": "CHENNAI"}, "geometry": {"type": "Point", "coordinates": [80.10689197174725, 12.87058401944237]}}, {"type": "Feature", "properties": {"route_name": "566", "stop_id": "VEiYdotb", "name": "Ramanujar Engg College Or Balaji Plytechnic", "city": "CHENNAI"}, "geometry": {"type": "Point", "coordinates": [80.11550011945246, 12.867299772654789]}}, {"type": "Feature", "properties": {"route_name": "566", "stop_id": "AhWKwjTz", "name": "Vengambakkam Road Junction", "city": "CHENNAI"}, "geometry": {"type": "Point", "coordinates": [80.12689413175224, 12.862854630633946]}}, {"type": "Feature", "properties": {"route_name": "566", "stop_id": "LTfflVxG", "name": "Tagore Engineering College Rathinamangalam", "city": "CHENNAI"}, "geometry": {"type": "Point", "coordinates": [80.13146717312475, 12.86041259815089]}}, {"type": "Feature", "properties": {"route_name": "566", "stop_id": "qRJySzaf", "name": "Rathinamangalam", "city": "CHENNAI"}, "geometry": {"type": "Point", "coordinates": [80.13378726942096, 12.857987455694577]}}, {"type": "Feature", "properties": {"route_name": "566", "stop_id": "HeRuYpNs", "name": "Kandigai", "city": "CHENNAI"}, "geometry": {"type": "Point", "coordinates": [80.14059305030821, 12.850970268804538]}}, {"type": "Feature", "properties": {"route_name": "566", "stop_id": "mRKfPREJ", "name": "Melakottaiyur", "city": "CHENNAI"}, "geometry": {"type": "Point", "coordinates": [80.1490046940105, 12.845612062570792]}}, {"type": "Feature", "properties": {"route_name": "566", "stop_id": "fdwLSfsa", "name": "Keelakottaiyur Or Malrosapuram", "city": "CHENNAI"}, "geometry": {"type": "Point", "coordinates": [80.15523637210435, 12.83766818203544]}}, {"type": "Feature", "properties": {"route_name": "566", "stop_id": "cgSMZptb", "name": "Samathuvapuram", "city": "CHENNAI"}, "geometry": {"type": "Point", "coordinates": [80.15959003387309, 12.832608457558475]}}, {"type": "Feature", "properties": {"route_name": "566", "stop_id": "lhSIyIfw", "name": "Mambakkam", "city": "CHENNAI"}, "geometry": {"type": "Point", "coordinates": [80.16502495259203, 12.827731753805125]}}, {"type": "Feature", "properties": {"route_name": "566", "stop_id": "OeZVKJdr", "name": "Military Camp Mambakkam", "city": "CHENNAI"}, "geometry": {"type": "Point", "coordinates": [80.18628898803217, 12.808778334574654]}}, {"type": "Feature", "properties": {"route_name": "566", "stop_id": "sPGYwoyj", "name": "Anjaneyar Temple Pudupakkam", "city": "CHENNAI"}, "geometry": {"type": "Point", "coordinates": [80.18939680179301, 12.806125229920887]}}, {"type": "Feature", "properties": {"route_name": "566", "stop_id": "XUTqNKWc", "name": "Pudupakkam", "city": "CHENNAI"}, "geometry": {"type": "Point", "coordinates": [80.19817691305707, 12.799501704444268]}}, {"type": "Feature", "properties": {"route_name": "566", "stop_id": "JvovwZNp", "name": "Butterfly Company", "city": "CHENNAI"}, "geometry": {"type": "Point", "coordinates": [80.2173975062276, 12.792193162709303]}}, {"type": "Feature", "properties": {"route_name": "566", "stop_id": "zEOiVqLB", "name": "Samiyar Pannai", "city": "CHENNAI"}, "geometry": {"type": "Point", "coordinates": [80.22065344335067, 12.790317146362879]}}, {"type": "Feature", "properties": {"route_name": "566", "stop_id": "MpBHVRZl", "name": "Kelambakkmm General Hospital", "city": "CHENNAI"}, "geometry": {"type": "Point", "coordinates": [80.22055903204091, 12.786677483168097]}}, {"type": "Feature", "properties": {"route_name": "566", "stop_id": "BCwVkMhO", "name": "Kelambakkmm Police Station", "city": "CHENNAI"}, "geometry": {"type": "Point", "coordinates": [80.2199838, 12.78532768]}}, {"type": "Feature", "properties": {"route_name": "566", "stop_id": "CgMBzfIg", "name": "Elavanthangal", "city": "CHENNAI"}, "geometry": {"type": "Point", "coordinates": [80.21737911024465, 12.78064052260931]}}, {"type": "Feature", "properties": {"route_name": "566", "stop_id": "OXvlrfnG", "name": "Chenganmal Road Junction", "city": "CHENNAI"}, "geometry": {"type": "Point", "coordinates": [80.21320592444795, 12.77080354267838]}}, {"type": "Feature", "properties": {"route_name": "566", "stop_id": "iZfXNAue", "name": "Vijaya Shanthi Lotus Pond", "city": "CHENNAI"}, "geometry": {"type": "Point", "coordinates": [80.20885193, 12.75975965]}}, {"type": "Feature", "properties": {"route_name": "566", "stop_id": "CqPWXNIf", "name": "Koman Nagar Road Junction", "city": "CHENNAI"}, "geometry": {"type": "Point", "coordinates": [80.20718058784996, 12.756686401487213]}}, {"type": "Feature", "properties": {"route_name": "566", "stop_id": "YVGWiGkc", "name": "SSN College", "city": "CHENNAI"}, "geometry": {"type": "Point", "coordinates": [80.20423125781258, 12.751194964536586]}}, {"type": "Feature", "properties": {"route_name": "566", "stop_id": "FDrhtNjK", "name": "Kalavakkam School", "city": "CHENNAI"}, "geometry": {"type": "Point", "coordinates": [80.20035822, 12.74426545]}}, {"type": "Feature", "properties": {"route_name": "566", "stop_id": "ucVTqZIB", "name": "Kalavakkam", "city": "CHENNAI"}, "geometry": {"type": "Point", "coordinates": [80.19744426, 12.74178678]}}, {"type": "Feature", "properties": {"route_name": "566", "stop_id": "ZLCIvgrp", "name": "Thiruporur Or Kannagapattu", "city": "CHENNAI"}, "geometry": {"type": "Point", "coordinates": [80.19056921969991, 12.736200372957958]}}, {"type": "Feature", "properties": {"route_name": "566", "stop_id": "Uacajbua", "name": "Thiruporur Kovil", "city": "CHENNAI"}, "geometry": {"type": "Point", "coordinates": [80.18900751120839, 12.729829417410928]}}, {"type": "Feature", "properties": {"route_name": "566", "stop_id": "ZJxogzZw", "name": "Kandhaswami Temple Tank Thiruporur", "city": "CHENNAI"}, "geometry": {"type": "Point", "coordinates": [80.18802177, 12.7248927]}}, {"type": "Feature", "properties": {"route_name": "566", "stop_id": "wcUGKfLa", "name": "Thiruporur Bus Stand", "city": "CHENNAI"}, "geometry": {"type": "Point", "coordinates": [80.18732844490751, 12.722195066711881]}}, {"type": "Feature", "properties": {"name": "566"}, "geometry": {"type": "LineString", "coordinates": [[80.09635, 12.99709], [80.09645, 12.99774], [80.09651, 12.99822], [80.09654, 12.99829], [80.09702, 12.99821], [80.09741, 12.99812], [80.09759, 12.99807], [80.09767, 12.99801], [80.09788, 12.99785], [80.09797, 12.9978], [80.09814, 12.99774], [80.09877, 12.99765], [80.09924, 12.99764], [80.09945, 12.99765], [80.09988, 12.9977], [80.10021, 12.9978], [80.10065, 12.998], [80.10104, 12.99811], [80.10132, 12.99829], [80.1015, 12.99848], [80.10165, 12.9986], [80.10179, 12.99867], [80.10193, 12.9987], [80.10216, 12.99869], [80.10246, 12.99863], [80.10269, 12.99856], [80.10302, 12.99837], [80.10358, 12.99802], [80.1037, 12.99794], [80.10411, 12.99791], [80.10464, 12.99779], [80.10512, 12.99765], [80.10558, 12.99754], [80.10585, 12.9975], [80.10617, 12.9974], [80.1064, 12.99726], [80.10662, 12.99716], [80.10704, 12.99699], [80.10727, 12.99693], [80.10818, 12.99666], [80.10858, 12.99645], [80.10905, 12.99623], [80.11003, 12.99595], [80.11039, 12.9958], [80.11128, 12.99528], [80.11159, 12.99505], [80.11291, 12.99379], [80.1132, 12.99355], [80.11399, 12.99298], [80.11421, 12.99279], [80.11471, 12.9923], [80.11604, 12.99085], [80.11656, 12.99023], [80.11698, 12.98963], [80.11786, 12.98835], [80.11818, 12.98794], [80.11865, 12.98735], [80.11914, 12.98667], [80.11929, 12.98647], [80.11951, 12.98631], [80.12018, 12.98581], [80.12063, 12.98549], [80.12094, 12.9853], [80.1212, 12.98515], [80.12142, 12.9849], [80.12156, 12.98468], [80.12163, 12.98462], [80.12171, 12.9846], [80.12185, 12.98464], [80.12191, 12.98467], [80.12207, 12.98477], [80.12231, 12.98495], [80.1224, 12.98498], [80.12261, 12.98504], [80.12298, 12.98508], [80.12326, 12.98507], [80.12349, 12.98504], [80.1236, 12.98501], [80.12377, 12.98491], [80.12391, 12.98479], [80.1246, 12.98431], [80.12506, 12.98393], [80.12537, 12.98373], [80.12556, 12.98363], [80.12587, 12.98354], [80.12621, 12.98348], [80.12694, 12.98336], [80.1277, 12.98324], [80.12771, 12.98328], [80.1277, 12.98324], [80.1278, 12.98323], [80.12851, 12.98313], [80.12862, 12.9831], [80.12865, 12.98309], [80.12866, 12.98303], [80.12866, 12.98283], [80.12868, 12.98272], [80.12875, 12.98263], [80.12887, 12.98259], [80.12907, 12.98255], [80.12928, 12.98251], [80.1293, 12.98248], [80.12932, 12.98239], [80.12928, 12.98203], [80.1292, 12.98079], [80.12909, 12.98028], [80.12897, 12.97976], [80.12898, 12.97962], [80.12917, 12.97946], [80.12952, 12.97922], [80.12965, 12.97907], [80.12991, 12.97876], [80.13007, 12.97854], [80.13048, 12.97809], [80.13054, 12.978], [80.13054, 12.9777], [80.13054, 12.97763], [80.13058, 12.97758], [80.13065, 12.97753], [80.13082, 12.97745], [80.1313, 12.97731], [80.13151, 12.97723], [80.13172, 12.97711], [80.13199, 12.97697], [80.13253, 12.97676], [80.13265, 12.9767], [80.1327, 12.97664], [80.13273, 12.9766], [80.13275, 12.97641], [80.13266, 12.97592], [80.13261, 12.97571], [80.13259, 12.97547], [80.13262, 12.97528], [80.13266, 12.97509], [80.13273, 12.97498], [80.13283, 12.97489], [80.13372, 12.97479], [80.13438, 12.97468], [80.13496, 12.97456], [80.1351, 12.97451], [80.13525, 12.97444], [80.13658, 12.97359], [80.13697, 12.97339], [80.13721, 12.97325], [80.13743, 12.97317], [80.13791, 12.97302], [80.13814, 12.97294], [80.13834, 12.97286], [80.13945, 12.97232], [80.13988, 12.97213], [80.14052, 12.97191], [80.14101, 12.97179], [80.14191, 12.97163], [80.14243, 12.97154], [80.14279, 12.97147], [80.14314, 12.97136], [80.14384, 12.97113], [80.14436, 12.97094], [80.14498, 12.97066], [80.14504, 12.9707], [80.14498, 12.97066], [80.14514, 12.97057], [80.14546, 12.9704], [80.14554, 12.97034], [80.14597, 12.96981], [80.14622, 12.97001], [80.14654, 12.97019], [80.14695, 12.97045], [80.14753, 12.96969], [80.14823, 12.96867], [80.14888, 12.96776], [80.14905, 12.96754], [80.14932, 12.96816], [80.14981, 12.96921], [80.15005, 12.96968], [80.15021, 12.96962], [80.1501, 12.96937], [80.14983, 12.96878], [80.14949, 12.96811], [80.14918, 12.9674], [80.14886, 12.96674], [80.14842, 12.96582], [80.14764, 12.96445], [80.14715, 12.96357], [80.14707, 12.96345], [80.1471, 12.96338], [80.14711, 12.96332], [80.1471, 12.96313], [80.14679, 12.96256], [80.14642, 12.96193], [80.14614, 12.96141], [80.14572, 12.96066], [80.14543, 12.96008], [80.1452, 12.95961], [80.14451, 12.95833], [80.14441, 12.95831], [80.14439, 12.95829], [80.14435, 12.95828], [80.14429, 12.95827], [80.1441, 12.95792], [80.14367, 12.9571], [80.14341, 12.95658], [80.14296, 12.95575], [80.14253, 12.95492], [80.14175, 12.95349], [80.14143, 12.95292], [80.14134, 12.95278], [80.14092, 12.95225], [80.14049, 12.95167], [80.13904, 12.94979], [80.13868, 12.9494], [80.13869, 12.94938], [80.13869, 12.94932], [80.13867, 12.94926], [80.13844, 12.94898], [80.13778, 12.94811], [80.13726, 12.94737], [80.13703, 12.94709], [80.13703, 12.94704], [80.13699, 12.94694], [80.13692, 12.9469], [80.13658, 12.94644], [80.13526, 12.94474], [80.13506, 12.94455], [80.135, 12.94452], [80.13494, 12.94447], [80.13467, 12.94411], [80.13444, 12.94384], [80.1339, 12.94326], [80.13335, 12.94267], [80.13315, 12.9425], [80.13272, 12.94208], [80.13165, 12.94106], [80.13109, 12.94047], [80.13096, 12.94032], [80.13073, 12.94013], [80.13011, 12.93946], [80.12946, 12.93873], [80.12854, 12.93766], [80.12804, 12.9371], [80.12706, 12.93597], [80.12528, 12.93403], [80.12465, 12.93341], [80.12294, 12.93174], [80.1212, 12.92995], [80.12043, 12.92921], [80.11972, 12.92848], [80.11884, 12.92761], [80.11694, 12.92571], [80.11489, 12.9237], [80.11432, 12.92308], [80.114, 12.92279], [80.11323, 12.92205], [80.11241, 12.92122], [80.11229, 12.92113], [80.11192, 12.92076], [80.1111, 12.92001], [80.11004, 12.91911], [80.10945, 12.91862], [80.10916, 12.9184], [80.10795, 12.91746], [80.10767, 12.91726], [80.10713, 12.91696], [80.10664, 12.91669], [80.10583, 12.91624], [80.10358, 12.91503], [80.10294, 12.91465], [80.10269, 12.91448], [80.10198, 12.91398], [80.10173, 12.91371], [80.10165, 12.91352], [80.10161, 12.91338], [80.10146, 12.91205], [80.1013, 12.91113], [80.10119, 12.91078], [80.10104, 12.91049], [80.10085, 12.91023], [80.10074, 12.91012], [80.10059, 12.91001], [80.10019, 12.9098], [80.09966, 12.90954], [80.09894, 12.90918], [80.09829, 12.90872], [80.09782, 12.90828], [80.09755, 12.90798], [80.09681, 12.90702], [80.09641, 12.90643], [80.09561, 12.9053], [80.09447, 12.90375], [80.0938, 12.90294], [80.09336, 12.90242], [80.09248, 12.90131], [80.09138, 12.89991], [80.09025, 12.89827], [80.08956, 12.89746], [80.08942, 12.89728], [80.08826, 12.89573], [80.08656, 12.89346], [80.08634, 12.89316], [80.08595, 12.89262], [80.08591, 12.89258], [80.08549, 12.89196], [80.08527, 12.89158], [80.08485, 12.8906], [80.08378, 12.88807], [80.08262, 12.88522], [80.08244, 12.88486], [80.08231, 12.88459], [80.08231, 12.88446], [80.08229, 12.88422], [80.08226, 12.88409], [80.0822, 12.8839], [80.08213, 12.88366], [80.08194, 12.88321], [80.08179, 12.88286], [80.08149, 12.88211], [80.08129, 12.88159], [80.08101, 12.88094], [80.08096, 12.88089], [80.08083, 12.88057], [80.08082, 12.88055], [80.08055, 12.87986], [80.08028, 12.87917], [80.08053, 12.87908], [80.08109, 12.87888], [80.08443, 12.87768], [80.08519, 12.87741], [80.08589, 12.8771], [80.08628, 12.87686], [80.0868, 12.87647], [80.08815, 12.87555], [80.08881, 12.87512], [80.08955, 12.87476], [80.09167, 12.87397], [80.09458, 12.87288], [80.09617, 12.87232], [80.09633, 12.87228], [80.09825, 12.87202], [80.1009, 12.87166], [80.10148, 12.87157], [80.10272, 12.87136], [80.10445, 12.87104], [80.10649, 12.87063], [80.10688, 12.87055], [80.10786, 12.87033], [80.10803, 12.87027], [80.10919, 12.86982], [80.11143, 12.86891], [80.11437, 12.86769], [80.11548, 12.86726], [80.1181, 12.86622], [80.11959, 12.86563], [80.12259, 12.86448], [80.12687, 12.8628], [80.12895, 12.86199], [80.12994, 12.86158], [80.13023, 12.86144], [80.13048, 12.8613], [80.13079, 12.86104], [80.13145, 12.8604], [80.13377, 12.85797], [80.13684, 12.85478], [80.13865, 12.8529], [80.14056, 12.85094], [80.14111, 12.85038], [80.14214, 12.84933], [80.14339, 12.84854], [80.14488, 12.84766], [80.14574, 12.84717], [80.14645, 12.84677], [80.14682, 12.84662], [80.1473, 12.84648], [80.14857, 12.84612], [80.14871, 12.84604], [80.14882, 12.84592], [80.14892, 12.84576], [80.14898, 12.8456], [80.14922, 12.84489], [80.14957, 12.84399], [80.14977, 12.84361], [80.14989, 12.84345], [80.15029, 12.84301], [80.15156, 12.84165], [80.15337, 12.83972], [80.15456, 12.83849], [80.15492, 12.83811], [80.15504, 12.83795], [80.1552, 12.83765], [80.15526, 12.83752], [80.15529, 12.83745], [80.15535, 12.83704], [80.15537, 12.83683], [80.15541, 12.83663], [80.1555, 12.83636], [80.15559, 12.83622], [80.15571, 12.8361], [80.15587, 12.83594], [80.1562, 12.83568], [80.15665, 12.83525], [80.15735, 12.8346], [80.15871, 12.83339], [80.15957, 12.83259], [80.16091, 12.83141], [80.16318, 12.82937], [80.16499, 12.8277], [80.16654, 12.82631], [80.16912, 12.82398], [80.17416, 12.81942], [80.17744, 12.81645], [80.17915, 12.81492], [80.17994, 12.81419], [80.18078, 12.81343], [80.18228, 12.81216], [80.18508, 12.80978], [80.18626, 12.80875], [80.18938, 12.80611], [80.1913, 12.80436], [80.19515, 12.80163], [80.1971, 12.80026], [80.19784, 12.79971], [80.19816, 12.79948], [80.19916, 12.79884], [80.19935, 12.79873], [80.20038, 12.79825], [80.20241, 12.79738], [80.2057, 12.79592], [80.20906, 12.79448], [80.21027, 12.79396], [80.21059, 12.79386], [80.21125, 12.79369], [80.21399, 12.79307], [80.21613, 12.79259], [80.21651, 12.79251], [80.21696, 12.79238], [80.21736, 12.79222], [80.2174, 12.7922], [80.21739, 12.79218], [80.21787, 12.79194], [80.21811, 12.7918], [80.21914, 12.79118], [80.21936, 12.79106], [80.22064, 12.79029], [80.22159, 12.7897], [80.22165, 12.78967], [80.22161, 12.78958], [80.22101, 12.78791], [80.22075, 12.78718], [80.22054, 12.78669], [80.22026, 12.78605], [80.22017, 12.78575], [80.21996, 12.78535], [80.21955, 12.78462], [80.2189, 12.7834], [80.21867, 12.78306], [80.21844, 12.78264], [80.21736, 12.78065], [80.21718, 12.78029], [80.21684, 12.77969], [80.2161, 12.77821], [80.2159, 12.77774], [80.21563, 12.77705], [80.21519, 12.77607], [80.21475, 12.77498], [80.21413, 12.77345], [80.21373, 12.77239], [80.2132, 12.77081], [80.21317, 12.77081], [80.21183, 12.76716], [80.21123, 12.76548], [80.21059, 12.76376], [80.21045, 12.76324], [80.21034, 12.76293], [80.20971, 12.76148], [80.20947, 12.76099], [80.2088, 12.75979], [80.20716, 12.7567], [80.20644, 12.75541], [80.20611, 12.7548], [80.20565, 12.75407], [80.20503, 12.75292], [80.20472, 12.75233], [80.20414, 12.75124], [80.20278, 12.74849], [80.20198, 12.74686], [80.20127, 12.74551], [80.201, 12.74503], [80.2009, 12.74487], [80.20066, 12.7446], [80.20034, 12.74428], [80.19832, 12.74252], [80.19756, 12.74191], [80.19742, 12.74181], [80.19602, 12.74082], [80.19514, 12.74019], [80.19427, 12.73955], [80.19339, 12.73894], [80.19257, 12.73828], [80.19228, 12.73797], [80.19051, 12.73626], [80.19022, 12.73597], [80.19011, 12.73583], [80.18987, 12.73543], [80.18973, 12.7351], [80.18962, 12.73472], [80.18952, 12.73342], [80.18947, 12.73307], [80.18938, 12.73274], [80.18933, 12.73243], [80.18917, 12.73168], [80.18911, 12.73093], [80.189, 12.73037], [80.18894, 12.7299], [80.18894, 12.72983], [80.18891, 12.72937], [80.18892, 12.72903], [80.18891, 12.72893], [80.18887, 12.72878], [80.18876, 12.72841], [80.18869, 12.72815], [80.18854, 12.72782], [80.18833, 12.72698], [80.18818, 12.72626], [80.18796, 12.7249], [80.18786, 12.72431], [80.18775, 12.72387], [80.1873, 12.7222]]}}]}