{"type": "FeatureCollection", "features": [{"type": "Feature", "properties": {"route_name": "70", "stop_id": "ojqTFFWy", "name": "Tambaram West Bus Stand", "city": "CHENNAI"}, "geometry": {"type": "Point", "coordinates": [80.11862628452741, 12.927652178598898]}}, {"type": "Feature", "properties": {"route_name": "70", "stop_id": "zjKsBdNQ", "name": "Kadaperi", "city": "CHENNAI"}, "geometry": {"type": "Point", "coordinates": [80.12406423758796, 12.933095319064629]}}, {"type": "Feature", "properties": {"route_name": "70", "stop_id": "puwcRgFs", "name": "Tambaram Sanatorium Bus Stand", "city": "CHENNAI"}, "geometry": {"type": "Point", "coordinates": [80.12748203125693, 12.937217648869067]}}, {"type": "Feature", "properties": {"route_name": "70", "stop_id": "vyojaKRU", "name": "TB Hospital", "city": "CHENNAI"}, "geometry": {"type": "Point", "coordinates": [80.13450000658327, 12.944099170682174]}}, {"type": "Feature", "properties": {"route_name": "70", "stop_id": "fzSWURzx", "name": "MIT Gate", "city": "CHENNAI"}, "geometry": {"type": "Point", "coordinates": [80.1374050176471, 12.947988238425095]}}, {"type": "Feature", "properties": {"route_name": "70", "stop_id": "XiXLaJEL", "name": "Chromepet", "city": "CHENNAI"}, "geometry": {"type": "Point", "coordinates": [80.14007744716844, 12.95149481497275]}}, {"type": "Feature", "properties": {"route_name": "70", "stop_id": "OyAyNkqZ", "name": "Saravana Store Chromepet", "city": "CHENNAI"}, "geometry": {"type": "Point", "coordinates": [80.14328253738302, 12.956911513898792]}}, {"type": "Feature", "properties": {"route_name": "70", "stop_id": "cIQOVqQI", "name": "Ponds Company", "city": "CHENNAI"}, "geometry": {"type": "Point", "coordinates": [80.1456306546487, 12.961434135955843]}}, {"type": "Feature", "properties": {"route_name": "70", "stop_id": "EKYbCcms", "name": "Pallavaram", "city": "CHENNAI"}, "geometry": {"type": "Point", "coordinates": [80.14962855, 12.96869503]}}, {"type": "Feature", "properties": {"route_name": "70", "stop_id": "oynLwMrX", "name": "Pallavaram Or English Electrical", "city": "CHENNAI"}, "geometry": {"type": "Point", "coordinates": [80.15295513672345, 12.973428089525743]}}, {"type": "Feature", "properties": {"route_name": "70", "stop_id": "jaCrAUFK", "name": "Thirusoolam National Airport", "city": "CHENNAI"}, "geometry": {"type": "Point", "coordinates": [80.16624253999316, 12.98140932892296]}}, {"type": "Feature", "properties": {"route_name": "70", "stop_id": "MlqbsUKu", "name": "Meeanambakkam Metro", "city": "CHENNAI"}, "geometry": {"type": "Point", "coordinates": [80.17596275118285, 12.987451127169622]}}, {"type": "Feature", "properties": {"route_name": "70", "stop_id": "AXkvSZpr", "name": "Alandur", "city": "CHENNAI"}, "geometry": {"type": "Point", "coordinates": [80.18862408163227, 12.995900343670742]}}, {"type": "Feature", "properties": {"route_name": "70", "stop_id": "ntDOQspU", "name": "St Thomas Mount Head Post Office", "city": "CHENNAI"}, "geometry": {"type": "Point", "coordinates": [80.19613333882285, 13.001852214423991]}}, {"type": "Feature", "properties": {"route_name": "70", "stop_id": "sUYaNmKG", "name": "Asarkana Omni Bus Stop", "city": "CHENNAI"}, "geometry": {"type": "Point", "coordinates": [80.20011802008116, 13.002126630069817]}}, {"type": "Feature", "properties": {"route_name": "70", "stop_id": "OpgRCgWV", "name": "Alandur Metro", "city": "CHENNAI"}, "geometry": {"type": "Point", "coordinates": [80.20073526, 13.0039722]}}, {"type": "Feature", "properties": {"route_name": "70", "stop_id": "GYfZYaJh", "name": "CIPET", "city": "CHENNAI"}, "geometry": {"type": "Point", "coordinates": [80.20444026800283, 13.014706135862825]}}, {"type": "Feature", "properties": {"route_name": "70", "stop_id": "EVAUYvVR", "name": "Ekkattuthangal Or Ambal Nagar", "city": "CHENNAI"}, "geometry": {"type": "Point", "coordinates": [80.20582408216478, 13.018424752637664]}}, {"type": "Feature", "properties": {"route_name": "70", "stop_id": "zgCGmKZn", "name": "Kasi Theatre", "city": "CHENNAI"}, "geometry": {"type": "Point", "coordinates": [80.20868105992781, 13.029258560951842]}}, {"type": "Feature", "properties": {"route_name": "70", "stop_id": "aYSqaQmJ", "name": "KK Nagar Telephone Exchange Jaffarkhanpet", "city": "CHENNAI"}, "geometry": {"type": "Point", "coordinates": [80.20930784702523, 13.031641364014488]}}, {"type": "Feature", "properties": {"route_name": "70", "stop_id": "AmahvgQB", "name": "Udhayam Theatre Or Ashok Pillar", "city": "CHENNAI"}, "geometry": {"type": "Point", "coordinates": [80.21088471292683, 13.035133560218684]}}, {"type": "Feature", "properties": {"route_name": "70", "stop_id": "rJRvqICk", "name": "Ashok Nagar Canara Bank", "city": "CHENNAI"}, "geometry": {"type": "Point", "coordinates": [80.21219316985378, 13.039850542278995]}}, {"type": "Feature", "properties": {"route_name": "70", "stop_id": "CsDsDrdU", "name": "Vadapalani", "city": "CHENNAI"}, "geometry": {"type": "Point", "coordinates": [80.21209075756212, 13.047010729182706]}}, {"type": "Feature", "properties": {"route_name": "70", "stop_id": "dbPZeeiE", "name": "Thirunagar", "city": "CHENNAI"}, "geometry": {"type": "Point", "coordinates": [80.21129589617203, 13.057412967254244]}}, {"type": "Feature", "properties": {"route_name": "70", "stop_id": "LKVeVUNI", "name": "MMDA Colony Road Junction", "city": "CHENNAI"}, "geometry": {"type": "Point", "coordinates": [80.21088309688639, 13.065076031462795]}}, {"type": "Feature", "properties": {"route_name": "70", "stop_id": "BpAiVnps", "name": "CMBT Koyembedu Bus Depot", "city": "CHENNAI"}, "geometry": {"type": "Point", "coordinates": [80.20518932458458, 13.068981607807045]}}, {"type": "Feature", "properties": {"route_name": "70", "stop_id": "RVGhYAxc", "name": "Koyambedu Chathiram", "city": "CHENNAI"}, "geometry": {"type": "Point", "coordinates": [80.19986513405274, 13.074022468293892]}}, {"type": "Feature", "properties": {"route_name": "70", "stop_id": "YtrqvWdf", "name": "Thirumangalam EB Office", "city": "CHENNAI"}, "geometry": {"type": "Point", "coordinates": [80.19842067258674, 13.087033913307852]}}, {"type": "Feature", "properties": {"route_name": "70", "stop_id": "EmkugZPX", "name": "Anna Nagar West Depot", "city": "CHENNAI"}, "geometry": {"type": "Point", "coordinates": [80.1984805710307, 13.093776863124802]}}, {"type": "Feature", "properties": {"route_name": "70", "stop_id": "XMWgellz", "name": "Padi Lucas TVS", "city": "CHENNAI"}, "geometry": {"type": "Point", "coordinates": [80.18990669389882, 13.101102795489325]}}, {"type": "Feature", "properties": {"route_name": "70", "stop_id": "QsteKrle", "name": "Britannia Bus Stop Padi", "city": "CHENNAI"}, "geometry": {"type": "Point", "coordinates": [80.18068688277799, 13.09813657327097]}}, {"type": "Feature", "properties": {"route_name": "70", "stop_id": "UtwZFZsx", "name": "Mannurpet", "city": "CHENNAI"}, "geometry": {"type": "Point", "coordinates": [80.17518464545378, 13.098080652469589]}}, {"type": "Feature", "properties": {"route_name": "70", "stop_id": "wrsPDGBQ", "name": "Ambattur Industrial Estate", "city": "CHENNAI"}, "geometry": {"type": "Point", "coordinates": [80.17032184859568, 13.099698603449541]}}, {"type": "Feature", "properties": {"route_name": "70", "stop_id": "zjjLSYAp", "name": "Telephone Exchange", "city": "CHENNAI"}, "geometry": {"type": "Point", "coordinates": [80.16247967319168, 13.101233537500907]}}, {"type": "Feature", "properties": {"route_name": "70", "stop_id": "rckblBTM", "name": "Canara Bank", "city": "CHENNAI"}, "geometry": {"type": "Point", "coordinates": [80.15212191275464, 13.110312595368894]}}, {"type": "Feature", "properties": {"route_name": "70", "stop_id": "rUKSlFeh", "name": "Uzhavar Santhai", "city": "CHENNAI"}, "geometry": {"type": "Point", "coordinates": [80.14772775446272, 13.115394206308453]}}, {"type": "Feature", "properties": {"route_name": "70", "stop_id": "yQQuLFAg", "name": "Ambattur OT Bus Stand", "city": "CHENNAI"}, "geometry": {"type": "Point", "coordinates": [80.14973219597255, 13.119674819969369]}}, {"type": "Feature", "properties": {"route_name": "70", "stop_id": "FlYjxOxQ", "name": "Stedford Hospital", "city": "CHENNAI"}, "geometry": {"type": "Point", "coordinates": [80.14358188300969, 13.124411446947889]}}, {"type": "Feature", "properties": {"route_name": "70", "stop_id": "GkYZbgqg", "name": "Saraswathi Nagar CTH Salai", "city": "CHENNAI"}, "geometry": {"type": "Point", "coordinates": [80.13964594131141, 13.128044553010751]}}, {"type": "Feature", "properties": {"route_name": "70", "stop_id": "FStgRiBS", "name": "Manikandapuram", "city": "CHENNAI"}, "geometry": {"type": "Point", "coordinates": [80.13632670464676, 13.13041694949477]}}, {"type": "Feature", "properties": {"route_name": "70", "stop_id": "Vlipnutt", "name": "Vaishnavi Nagar", "city": "CHENNAI"}, "geometry": {"type": "Point", "coordinates": [80.12504772543741, 13.129621709283668]}}, {"type": "Feature", "properties": {"route_name": "70", "stop_id": "bHagonKv", "name": "Murugappa Polytechnic", "city": "CHENNAI"}, "geometry": {"type": "Point", "coordinates": [80.1191290174753, 13.125786743953624]}}, {"type": "Feature", "properties": {"route_name": "70", "stop_id": "PhjcDdmq", "name": "Tube Products of India", "city": "CHENNAI"}, "geometry": {"type": "Point", "coordinates": [80.112518168713, 13.12331203321694]}}, {"type": "Feature", "properties": {"route_name": "70", "stop_id": "ogOCBKAf", "name": "Avadi Terminal", "city": "CHENNAI"}, "geometry": {"type": "Point", "coordinates": [80.10204658205703, 13.120113061821396]}}, {"type": "Feature", "properties": {"name": "70"}, "geometry": {"type": "LineString", "coordinates": [[80.11867, 12.92761], [80.11907, 12.92803], [80.11957, 12.92853], [80.12033, 12.92931], [80.12111, 12.93006], [80.12135, 12.9303], [80.12214, 12.93113], [80.12285, 12.93182], [80.12337, 12.93233], [80.12412, 12.93304], [80.12551, 12.93443], [80.12584, 12.93478], [80.1265, 12.93554], [80.12754, 12.93671], [80.12778, 12.93699], [80.12873, 12.9381], [80.12931, 12.93876], [80.1303, 12.93996], [80.13064, 12.94032], [80.13296, 12.94251], [80.13382, 12.94335], [80.13426, 12.94379], [80.13451, 12.94409], [80.13475, 12.94441], [80.13492, 12.94465], [80.13629, 12.94636], [80.13662, 12.94679], [80.13674, 12.94694], [80.13694, 12.94721], [80.13719, 12.94754], [80.13745, 12.94796], [80.13762, 12.94822], [80.13827, 12.94913], [80.13879, 12.94973], [80.13904, 12.95007], [80.13944, 12.95054], [80.13964, 12.9508], [80.14015, 12.95144], [80.14063, 12.95207], [80.14072, 12.95216], [80.14124, 12.95282], [80.1415, 12.95323], [80.14169, 12.9536], [80.14217, 12.95452], [80.14316, 12.95644], [80.14339, 12.95686], [80.14496, 12.95974], [80.14561, 12.96092], [80.14581, 12.96133], [80.14568, 12.96133], [80.14564, 12.96134], [80.14561, 12.96134], [80.14565, 12.96143], [80.14587, 12.96184], [80.14606, 12.96221], [80.14658, 12.9632], [80.14673, 12.96346], [80.14676, 12.96349], [80.14687, 12.96352], [80.14703, 12.96359], [80.14716, 12.9638], [80.14747, 12.96433], [80.14761, 12.96465], [80.14777, 12.96495], [80.14788, 12.96513], [80.14796, 12.96519], [80.14804, 12.96531], [80.14827, 12.96574], [80.14874, 12.9667], [80.14939, 12.96814], [80.14965, 12.96869], [80.15027, 12.97011], [80.15098, 12.97176], [80.15206, 12.9729], [80.15291, 12.97342], [80.15298, 12.97339], [80.15383, 12.97397], [80.15493, 12.9747], [80.15673, 12.9759], [80.15859, 12.97715], [80.1586, 12.97723], [80.15935, 12.97773], [80.15995, 12.97815], [80.16124, 12.9791], [80.16226, 12.9798], [80.16261, 12.97998], [80.16279, 12.98005], [80.164, 12.98034], [80.16457, 12.98052], [80.16528, 12.98083], [80.16626, 12.98138], [80.16729, 12.98195], [80.16804, 12.98241], [80.16861, 12.98281], [80.17062, 12.98401], [80.17128, 12.98434], [80.17141, 12.98438], [80.17152, 12.98438], [80.17255, 12.98514], [80.17308, 12.98542], [80.17433, 12.98631], [80.17555, 12.9871], [80.176, 12.9874], [80.17603, 12.98743], [80.17726, 12.98829], [80.17786, 12.98872], [80.17889, 12.98952], [80.18037, 12.99071], [80.18097, 12.9912], [80.18271, 12.99249], [80.1837, 12.99308], [80.18551, 12.99406], [80.18749, 12.99513], [80.18871, 12.99576], [80.1891, 12.99602], [80.1894, 12.99627], [80.19034, 12.99712], [80.19097, 12.99759], [80.19139, 12.99794], [80.19198, 12.99844], [80.19244, 12.99879], [80.19422, 13.00017], [80.19505, 13.00082], [80.19579, 13.00144], [80.19619, 13.00178], [80.19649, 13.00199], [80.19671, 13.00212], [80.19706, 13.00219], [80.19743, 13.00217], [80.19825, 13.00203], [80.19894, 13.00188], [80.19929, 13.00183], [80.19963, 13.00187], [80.19992, 13.00197], [80.20014, 13.0021], [80.20039, 13.00237], [80.20049, 13.00255], [80.20056, 13.00274], [80.20083, 13.00376], [80.20087, 13.00394], [80.20097, 13.00432], [80.20112, 13.00476], [80.20124, 13.00502], [80.20147, 13.00527], [80.20169, 13.00552], [80.20192, 13.0057], [80.20216, 13.00585], [80.20245, 13.00599], [80.20269, 13.00613], [80.2029, 13.00633], [80.20313, 13.0066], [80.20334, 13.00692], [80.20347, 13.00718], [80.20357, 13.00749], [80.20365, 13.00786], [80.20366, 13.00816], [80.20361, 13.00888], [80.20356, 13.00987], [80.20356, 13.01038], [80.20358, 13.01085], [80.20368, 13.01174], [80.20387, 13.01259], [80.20391, 13.01289], [80.20395, 13.01304], [80.2042, 13.01379], [80.2045, 13.01456], [80.20442, 13.01462], [80.20438, 13.01466], [80.20447, 13.01464], [80.20581, 13.01833], [80.2059, 13.0184], [80.20612, 13.01909], [80.20621, 13.01946], [80.20624, 13.01967], [80.20629, 13.02093], [80.2063, 13.02194], [80.20632, 13.0224], [80.20655, 13.02366], [80.20678, 13.02463], [80.20699, 13.02552], [80.20721, 13.02601], [80.20757, 13.02665], [80.20767, 13.02681], [80.20804, 13.02741], [80.20828, 13.02781], [80.20839, 13.02812], [80.20872, 13.02925], [80.20933, 13.0314], [80.2094, 13.03161], [80.20956, 13.03222], [80.20962, 13.03253], [80.2097, 13.03322], [80.20984, 13.03384], [80.20991, 13.03404], [80.20997, 13.03448], [80.21002, 13.03483], [80.21022, 13.03499], [80.21049, 13.03498], [80.21088, 13.03497], [80.21161, 13.03493], [80.21197, 13.03493], [80.2121, 13.03499], [80.21215, 13.03518], [80.21218, 13.03562], [80.21228, 13.03742], [80.21228, 13.038], [80.21224, 13.03985], [80.21222, 13.04201], [80.21221, 13.04386], [80.2122, 13.04429], [80.21221, 13.04476], [80.21215, 13.04701], [80.21214, 13.04701], [80.21208, 13.04835], [80.21201, 13.04926], [80.21199, 13.04971], [80.21199, 13.05016], [80.21204, 13.05097], [80.21208, 13.05159], [80.21208, 13.05187], [80.21204, 13.05212], [80.21194, 13.05252], [80.21186, 13.0526], [80.21179, 13.05289], [80.21163, 13.0535], [80.21143, 13.05441], [80.21139, 13.0547], [80.21139, 13.05537], [80.21141, 13.05741], [80.21141, 13.05802], [80.21144, 13.05883], [80.21157, 13.06147], [80.21163, 13.06211], [80.21152, 13.06378], [80.21139, 13.06422], [80.21132, 13.06441], [80.21118, 13.06476], [80.21104, 13.065], [80.21097, 13.06513], [80.21047, 13.06574], [80.20958, 13.06667], [80.20848, 13.06744], [80.20735, 13.06821], [80.206, 13.06908], [80.20562, 13.06927], [80.20541, 13.06894], [80.20524, 13.06903], [80.20477, 13.06927], [80.20483, 13.06977], [80.20158, 13.07246], [80.19993, 13.07407], [80.19991, 13.07407], [80.19945, 13.07447], [80.19924, 13.07473], [80.19915, 13.07494], [80.19906, 13.07527], [80.19905, 13.07536], [80.19902, 13.07543], [80.19903, 13.0758], [80.19896, 13.07649], [80.1989, 13.07738], [80.19873, 13.07883], [80.19867, 13.07944], [80.19851, 13.08055], [80.19848, 13.08103], [80.19848, 13.08151], [80.19849, 13.08221], [80.19844, 13.08237], [80.19843, 13.08288], [80.19843, 13.08396], [80.19844, 13.08544], [80.19844, 13.08596], [80.19846, 13.08659], [80.19845, 13.08704], [80.19845, 13.08788], [80.1985, 13.09034], [80.19854, 13.09048], [80.19855, 13.09101], [80.19854, 13.09143], [80.19854, 13.09184], [80.19854, 13.09304], [80.19854, 13.09378], [80.19854, 13.09654], [80.19854, 13.09706], [80.19848, 13.09739], [80.19841, 13.09764], [80.19834, 13.09777], [80.19825, 13.0979], [80.19796, 13.09817], [80.19772, 13.09832], [80.19747, 13.0984], [80.19714, 13.09849], [80.19675, 13.09861], [80.19645, 13.09863], [80.19626, 13.09867], [80.19577, 13.09892], [80.19546, 13.09911], [80.19502, 13.09949], [80.19473, 13.09985], [80.1946, 13.10007], [80.19443, 13.10045], [80.19436, 13.10068], [80.19431, 13.10087], [80.19427, 13.10106], [80.19422, 13.10123], [80.19415, 13.10136], [80.194, 13.1016], [80.19389, 13.10173], [80.19386, 13.1018], [80.19386, 13.10184], [80.19364, 13.10187], [80.19352, 13.10186], [80.19285, 13.10174], [80.1907, 13.10138], [80.18989, 13.10114], [80.18969, 13.10107], [80.18947, 13.10094], [80.189, 13.1006], [80.1888, 13.10047], [80.18856, 13.10033], [80.18803, 13.10009], [80.18778, 13.1], [80.18718, 13.09983], [80.18653, 13.09968], [80.18572, 13.0995], [80.18471, 13.09925], [80.18407, 13.09905], [80.18271, 13.09863], [80.18068, 13.09817], [80.17974, 13.09794], [80.17941, 13.09786], [80.17904, 13.09781], [80.17851, 13.0978], [80.17818, 13.09782], [80.17724, 13.0979], [80.17669, 13.09797], [80.17622, 13.09806], [80.17587, 13.09811], [80.17519, 13.09813], [80.17492, 13.09817], [80.17454, 13.09827], [80.17382, 13.09854], [80.17307, 13.09889], [80.17219, 13.09921], [80.17109, 13.09957], [80.1708, 13.09965], [80.17043, 13.09971], [80.17032, 13.09972], [80.16964, 13.0998], [80.16877, 13.09989], [80.16751, 13.09999], [80.16703, 13.10005], [80.16669, 13.10014], [80.16405, 13.101], [80.16326, 13.10122], [80.16308, 13.10125], [80.16251, 13.10132], [80.16249, 13.10133], [80.16145, 13.10142], [80.16009, 13.1014], [80.15984, 13.10144], [80.15972, 13.10148], [80.1595, 13.10161], [80.15927, 13.10182], [80.15912, 13.10199], [80.1588, 13.10234], [80.15837, 13.10279], [80.15803, 13.10312], [80.15791, 13.1032], [80.15768, 13.10331], [80.15721, 13.10347], [80.15668, 13.10359], [80.15442, 13.10411], [80.15401, 13.10422], [80.15369, 13.10434], [80.15313, 13.10464], [80.15281, 13.10487], [80.15263, 13.10503], [80.15251, 13.10517], [80.15239, 13.1054], [80.15233, 13.10557], [80.15226, 13.10615], [80.15224, 13.10707], [80.15222, 13.10758], [80.15219, 13.10856], [80.15217, 13.10912], [80.15225, 13.10993], [80.15227, 13.11011], [80.15221, 13.11024], [80.15214, 13.11033], [80.15194, 13.11054], [80.15181, 13.11073], [80.15169, 13.11111], [80.15161, 13.11126], [80.1515, 13.11139], [80.1511, 13.11169], [80.15076, 13.11196], [80.15058, 13.11213], [80.15049, 13.11225], [80.15032, 13.11258], [80.1502, 13.11276], [80.15003, 13.11298], [80.14987, 13.11308], [80.14955, 13.11317], [80.14907, 13.11328], [80.14898, 13.11335], [80.14878, 13.11341], [80.14867, 13.11348], [80.14851, 13.11363], [80.14837, 13.11386], [80.14825, 13.11418], [80.14803, 13.11479], [80.1479, 13.11509], [80.14785, 13.11524], [80.14779, 13.11534], [80.14778, 13.1154], [80.14781, 13.11577], [80.14787, 13.11603], [80.14793, 13.11619], [80.14812, 13.11649], [80.14825, 13.11663], [80.14889, 13.11716], [80.14933, 13.11754], [80.1494, 13.11764], [80.14945, 13.11775], [80.1495, 13.11795], [80.14973, 13.11913], [80.14977, 13.11945], [80.14976, 13.11968], [80.14972, 13.11982], [80.14957, 13.12005], [80.14917, 13.12041], [80.14901, 13.12057], [80.14891, 13.1207], [80.14861, 13.1212], [80.14849, 13.12142], [80.14815, 13.12171], [80.148, 13.12181], [80.14764, 13.12204], [80.14716, 13.12224], [80.14517, 13.12345], [80.1437, 13.12435], [80.14359, 13.12443], [80.14328, 13.12466], [80.14304, 13.1248], [80.14166, 13.12565], [80.14133, 13.12594], [80.14098, 13.12636], [80.14017, 13.12741], [80.13968, 13.12807], [80.13898, 13.12902], [80.13838, 13.12973], [80.13806, 13.13003], [80.13789, 13.13016], [80.13778, 13.13021], [80.13743, 13.13031], [80.13634, 13.13051], [80.13518, 13.13068], [80.13484, 13.13072], [80.13453, 13.13073], [80.13208, 13.13075], [80.13112, 13.13076], [80.13076, 13.13077], [80.13037, 13.13082], [80.12861, 13.13125], [80.12831, 13.13133], [80.1281, 13.13137], [80.12782, 13.13139], [80.12745, 13.13136], [80.12715, 13.13128], [80.127, 13.1312], [80.12674, 13.13102], [80.12637, 13.13078], [80.12583, 13.13039], [80.12526, 13.12992], [80.12511, 13.12979], [80.12499, 13.12967], [80.12475, 13.12944], [80.1237, 13.12855], [80.12293, 13.12793], [80.12185, 13.12705], [80.1212, 13.12649], [80.12092, 13.12636], [80.12035, 13.12617], [80.12024, 13.12614], [80.11981, 13.12604], [80.11943, 13.12589], [80.11912, 13.12583], [80.11873, 13.12572], [80.11769, 13.12533], [80.11549, 13.12448], [80.11249, 13.12339], [80.11128, 13.12326], [80.1109, 13.12322], [80.11037, 13.12304], [80.10984, 13.12268], [80.10902, 13.12207], [80.10775, 13.12085], [80.10737, 13.12051], [80.10653, 13.12018], [80.10576, 13.11997], [80.1045, 13.11971], [80.1032, 13.1196], [80.10201, 13.11966], [80.10174, 13.11967], [80.10177, 13.12018], [80.10201, 13.12023]]}}]}