{"type": "FeatureCollection", "features": [{"type": "Feature", "properties": {"route_name": "S1", "stop_id": "YgIDKSrB", "name": "Sakthi Nagar", "city": "CHENNAI"}, "geometry": {"type": "Point", "coordinates": [80.17680662086677, 12.964366346826264]}}, {"type": "Feature", "properties": {"route_name": "S1", "stop_id": "hiDanrSK", "name": "Union Carbide Colony", "city": "CHENNAI"}, "geometry": {"type": "Point", "coordinates": [80.17228774049283, 12.965317139112031]}}, {"type": "Feature", "properties": {"route_name": "S1", "stop_id": "jAdmOYhG", "name": "Sara Nagar", "city": "CHENNAI"}, "geometry": {"type": "Point", "coordinates": [80.17176424508045, 12.963091930738862]}}, {"type": "Feature", "properties": {"route_name": "S1", "stop_id": "FJNjoexf", "name": "Heba Matriculation High School", "city": "CHENNAI"}, "geometry": {"type": "Point", "coordinates": [80.16837509778824, 12.96313929506057]}}, {"type": "Feature", "properties": {"route_name": "S1", "stop_id": "TRQBxyXj", "name": "Sallon Church", "city": "CHENNAI"}, "geometry": {"type": "Point", "coordinates": [80.16575259478329, 12.96304974275612]}}, {"type": "Feature", "properties": {"route_name": "S1", "stop_id": "rDPqHrVG", "name": "Amman Temple", "city": "CHENNAI"}, "geometry": {"type": "Point", "coordinates": [80.16469996375538, 12.963289942212858]}}, {"type": "Feature", "properties": {"route_name": "S1", "stop_id": "LuQddhDt", "name": "Jains Green Acres", "city": "CHENNAI"}, "geometry": {"type": "Point", "coordinates": [80.16365363414491, 12.963386778962535]}}, {"type": "Feature", "properties": {"route_name": "S1", "stop_id": "hCvTESej", "name": "Dharga", "city": "CHENNAI"}, "geometry": {"type": "Point", "coordinates": [80.16162682179524, 12.963030831871308]}}, {"type": "Feature", "properties": {"route_name": "S1", "stop_id": "kszfdkvq", "name": "Pallavaram Railway Station", "city": "CHENNAI"}, "geometry": {"type": "Point", "coordinates": [80.1535690224416, 12.96801067406213]}}, {"type": "Feature", "properties": {"name": "S1"}, "geometry": {"type": "LineString", "coordinates": [[80.17681, 12.96439], [80.17688, 12.96439], [80.17692, 12.96484], [80.17659, 12.96489], [80.17526, 12.96505], [80.17361, 12.96521], [80.17229, 12.96534], [80.17206, 12.96536], [80.17204, 12.96527], [80.17195, 12.96455], [80.17169, 12.96453], [80.17167, 12.96445], [80.17156, 12.96399], [80.17148, 12.9636], [80.17149, 12.96356], [80.17179, 12.96311], [80.17151, 12.96316], [80.17076, 12.96338], [80.16993, 12.96369], [80.16986, 12.9637], [80.16946, 12.96371], [80.16907, 12.96371], [80.1689, 12.96369], [80.16885, 12.96364], [80.16877, 12.96353], [80.16863, 12.96327], [80.16853, 12.96322], [80.16837, 12.96316], [80.16725, 12.96275], [80.16644, 12.96287], [80.16576, 12.96308], [80.16516, 12.96324], [80.1647, 12.96332], [80.16415, 12.96337], [80.16366, 12.96341], [80.16326, 12.96344], [80.16298, 12.96342], [80.16257, 12.9633], [80.16227, 12.96317], [80.16205, 12.96313], [80.16182, 12.96312], [80.16166, 12.96308], [80.16161, 12.96305], [80.16132, 12.96289], [80.16114, 12.96277], [80.16092, 12.96252], [80.16075, 12.96238], [80.1603, 12.96221], [80.15946, 12.96191], [80.15941, 12.9619], [80.15898, 12.96196], [80.15748, 12.96217], [80.15707, 12.96229], [80.15672, 12.96243], [80.15539, 12.96304], [80.15499, 12.96319], [80.15446, 12.96345], [80.15414, 12.9636], [80.15378, 12.96381], [80.1527, 12.96434], [80.15229, 12.96453], [80.15184, 12.96469], [80.15173, 12.96474], [80.15171, 12.96477], [80.15165, 12.96481], [80.15136, 12.96491], [80.15144, 12.96528], [80.15163, 12.96608], [80.15182, 12.96666], [80.15194, 12.96683], [80.15206, 12.96693], [80.15213, 12.96694], [80.15223, 12.96697], [80.1523, 12.96701], [80.15235, 12.96706], [80.15245, 12.96717], [80.1525, 12.96717], [80.15255, 12.9672], [80.1526, 12.96727], [80.15346, 12.9682], [80.15355, 12.96831], [80.15357, 12.96828], [80.15359, 12.96818], [80.15359, 12.96801]]}}]}