{"type": "FeatureCollection", "features": [{"type": "Feature", "properties": {"route_name": "18H", "stop_id": "uBISGQgW", "name": "Naduveerapattu Bus Stand", "city": "CHENNAI"}, "geometry": {"type": "Point", "coordinates": [80.05496039754456, 12.938622266086687]}}, {"type": "Feature", "properties": {"route_name": "18H", "stop_id": "rpnSKTkw", "name": "Naduveerapattu", "city": "CHENNAI"}, "geometry": {"type": "Point", "coordinates": [80.0495927669167, 12.94278058750039]}}, {"type": "Feature", "properties": {"route_name": "18H", "stop_id": "RaDKVQtj", "name": "Gandhi Nagar Naduveerapattu", "city": "CHENNAI"}, "geometry": {"type": "Point", "coordinates": [80.04827646513331, 12.94646544810303]}}, {"type": "Feature", "properties": {"route_name": "18H", "stop_id": "ImHOuyAc", "name": "Ramji Nagar", "city": "CHENNAI"}, "geometry": {"type": "Point", "coordinates": [80.04716310303093, 12.94864071565044]}}, {"type": "Feature", "properties": {"route_name": "18H", "stop_id": "qPRWBHIh", "name": "Somangalam Road Or NV Road Junction", "city": "CHENNAI"}, "geometry": {"type": "Point", "coordinates": [80.04554520390059, 12.951736333234479]}}, {"type": "Feature", "properties": {"route_name": "18H", "stop_id": "cWGPtAwF", "name": "Taar Plant", "city": "CHENNAI"}, "geometry": {"type": "Point", "coordinates": [80.05084807905189, 12.952607709165045]}}, {"type": "Feature", "properties": {"route_name": "18H", "stop_id": "SXdpUnkd", "name": "Sri Sairam Siddha Medical College", "city": "CHENNAI"}, "geometry": {"type": "Point", "coordinates": [80.05951743399055, 12.952632289424391]}}, {"type": "Feature", "properties": {"route_name": "18H", "stop_id": "NNAcmEYB", "name": "Ettiamman Kovil", "city": "CHENNAI"}, "geometry": {"type": "Point", "coordinates": [80.06474710919463, 12.948742253568076]}}, {"type": "Feature", "properties": {"route_name": "18H", "stop_id": "pKlyQyMp", "name": "Dharkast", "city": "CHENNAI"}, "geometry": {"type": "Point", "coordinates": [80.0716071816538, 12.942690203238802]}}, {"type": "Feature", "properties": {"route_name": "18H", "stop_id": "IojsotKp", "name": "Kishkintha", "city": "CHENNAI"}, "geometry": {"type": "Point", "coordinates": [80.08096818602348, 12.940929954229157]}}, {"type": "Feature", "properties": {"route_name": "18H", "stop_id": "QgJihzqk", "name": "Anjugam Nagar", "city": "CHENNAI"}, "geometry": {"type": "Point", "coordinates": [80.08514264784752, 12.94025169915463]}}, {"type": "Feature", "properties": {"route_name": "18H", "stop_id": "aXBkDCtb", "name": "Venkateshvara Nagar Darkash Salai", "city": "CHENNAI"}, "geometry": {"type": "Point", "coordinates": [80.08726003155152, 12.939350181283737]}}, {"type": "Feature", "properties": {"route_name": "18H", "stop_id": "gZsXxpWQ", "name": "Samathuva Periyar Nagar", "city": "CHENNAI"}, "geometry": {"type": "Point", "coordinates": [80.08882637533917, 12.939199032003858]}}, {"type": "Feature", "properties": {"route_name": "18H", "stop_id": "BJyyGCqV", "name": "Kannadapalayam", "city": "CHENNAI"}, "geometry": {"type": "Point", "coordinates": [80.10051652981542, 12.93607181231192]}}, {"type": "Feature", "properties": {"route_name": "18H", "stop_id": "yJFAEWOL", "name": "MGR Silai", "city": "CHENNAI"}, "geometry": {"type": "Point", "coordinates": [80.10442669675228, 12.933084896196181]}}, {"type": "Feature", "properties": {"route_name": "18H", "stop_id": "UfJzwqHV", "name": "RTO Office Tambaram", "city": "CHENNAI"}, "geometry": {"type": "Point", "coordinates": [80.10865670965677, 12.931452902779595]}}, {"type": "Feature", "properties": {"route_name": "18H", "stop_id": "XfgrRxbI", "name": "Seva Sadan Higher Secondary School", "city": "CHENNAI"}, "geometry": {"type": "Point", "coordinates": [80.11154637786217, 12.930752627862708]}}, {"type": "Feature", "properties": {"route_name": "18H", "stop_id": "ejMjPdTH", "name": "Tambaram West Bus Stand", "city": "CHENNAI"}, "geometry": {"type": "Point", "coordinates": [80.118864, 12.92758911]}}, {"type": "Feature", "properties": {"name": "18H"}, "geometry": {"type": "LineString", "coordinates": [[80.05495, 12.93861], [80.05441, 12.93885], [80.05439, 12.93889], [80.05438, 12.93938], [80.05428, 12.94065], [80.05424, 12.94077], [80.0542, 12.94082], [80.05413, 12.94087], [80.05297, 12.94128], [80.05252, 12.94146], [80.05161, 12.94189], [80.04975, 12.94271], [80.04974, 12.94279], [80.04969, 12.94335], [80.0496, 12.94396], [80.04941, 12.94436], [80.04903, 12.94514], [80.04839, 12.94635], [80.04831, 12.94648], [80.04795, 12.94723], [80.04748, 12.94815], [80.04723, 12.94863], [80.04721, 12.94867], [80.04694, 12.94916], [80.04669, 12.94967], [80.04642, 12.95018], [80.0461, 12.95081], [80.04561, 12.95176], [80.04557, 12.95184], [80.04749, 12.95212], [80.04913, 12.95235], [80.05085, 12.95259], [80.05274, 12.95281], [80.05373, 12.95294], [80.05405, 12.95301], [80.05533, 12.95329], [80.05544, 12.9533], [80.05559, 12.95327], [80.05615, 12.95312], [80.05679, 12.95292], [80.05726, 12.95278], [80.05766, 12.95267], [80.05804, 12.9526], [80.05952, 12.95262], [80.05954, 12.95262], [80.05986, 12.95259], [80.06007, 12.95252], [80.06074, 12.95219], [80.06139, 12.95188], [80.06154, 12.95179], [80.06173, 12.95163], [80.06224, 12.95115], [80.06388, 12.9497], [80.06431, 12.94927], [80.06454, 12.949], [80.06473, 12.94874], [80.06474, 12.94871], [80.06475, 12.9486], [80.06476, 12.94827], [80.06481, 12.948], [80.06497, 12.94719], [80.06526, 12.94631], [80.06533, 12.94621], [80.06544, 12.94613], [80.06555, 12.94606], [80.06613, 12.94576], [80.06745, 12.945], [80.06779, 12.94484], [80.06821, 12.94468], [80.06862, 12.94454], [80.06867, 12.94449], [80.06871, 12.94441], [80.06875, 12.94406], [80.06878, 12.94394], [80.06888, 12.94384], [80.06954, 12.94358], [80.07058, 12.94321], [80.07124, 12.94287], [80.07158, 12.94265], [80.07187, 12.9425], [80.07214, 12.94239], [80.07224, 12.94237], [80.07232, 12.94236], [80.07252, 12.94238], [80.07359, 12.94257], [80.07412, 12.94268], [80.07425, 12.94268], [80.07444, 12.94265], [80.07571, 12.94232], [80.07583, 12.94231], [80.07591, 12.94234], [80.07605, 12.9425], [80.07615, 12.94266], [80.07634, 12.94301], [80.0764, 12.9431], [80.07647, 12.94309], [80.07685, 12.94294], [80.07737, 12.9427], [80.07785, 12.94243], [80.07885, 12.94189], [80.07958, 12.94154], [80.08095, 12.9409], [80.0817, 12.9406], [80.08219, 12.94044], [80.08305, 12.94055], [80.08326, 12.94055], [80.08422, 12.94049], [80.08448, 12.94047], [80.08461, 12.94044], [80.08491, 12.94033], [80.08513, 12.94023], [80.08726, 12.93935], [80.08737, 12.93931], [80.08765, 12.93926], [80.08827, 12.93919], [80.08882, 12.93917], [80.09001, 12.93898], [80.09054, 12.93887], [80.09134, 12.93871], [80.09239, 12.93843], [80.09332, 12.93814], [80.09431, 12.93784], [80.09555, 12.93744], [80.09691, 12.93707], [80.09785, 12.93686], [80.09804, 12.9368], [80.09817, 12.93674], [80.09847, 12.93654], [80.09866, 12.93645], [80.0991, 12.93635], [80.09989, 12.93616], [80.10051, 12.93604], [80.10079, 12.93597], [80.10177, 12.93578], [80.10243, 12.93561], [80.10308, 12.93546], [80.10312, 12.93543], [80.10319, 12.93532], [80.10323, 12.93521], [80.10357, 12.93446], [80.10378, 12.93401], [80.10407, 12.93346], [80.10436, 12.93309], [80.1044, 12.93306], [80.10469, 12.93279], [80.10492, 12.93264], [80.10574, 12.93235], [80.1071, 12.93187], [80.10785, 12.93164], [80.10863, 12.93139], [80.10992, 12.93098], [80.11034, 12.93086], [80.11089, 12.93077], [80.11154, 12.93071], [80.11184, 12.93068], [80.11186, 12.9306], [80.11194, 12.93029], [80.11226, 12.92917], [80.11235, 12.92895], [80.11244, 12.92901], [80.11293, 12.9293], [80.11342, 12.92962], [80.11408, 12.92999], [80.11462, 12.93021], [80.11504, 12.93036], [80.1153, 12.93047], [80.11584, 12.93056], [80.11625, 12.93063], [80.11674, 12.93072], [80.1171, 12.93073], [80.11763, 12.93059], [80.11778, 12.93055], [80.11778, 12.9305], [80.11771, 12.92992], [80.11759, 12.92883], [80.11752, 12.92835], [80.11862, 12.92828], [80.11915, 12.92823], [80.1192, 12.92822], [80.11923, 12.92821], [80.11957, 12.92853], [80.12033, 12.92931], [80.12111, 12.93006], [80.12124, 12.92999], [80.1212, 12.92995], [80.12043, 12.92921], [80.11884, 12.92761]]}}]}