{"type": "FeatureCollection", "features": [{"type": "Feature", "properties": {"route_name": "10A", "stop_id": "ICtDTIBO", "name": "Saidapet West Bus Stand", "city": "CHENNAI"}, "geometry": {"type": "Point", "coordinates": [80.21274923544479, 13.0241908257749]}}, {"type": "Feature", "properties": {"route_name": "10A", "stop_id": "PKHBWIBu", "name": "Muthu School", "city": "CHENNAI"}, "geometry": {"type": "Point", "coordinates": [80.21680791794438, 13.024699421872052]}}, {"type": "Feature", "properties": {"route_name": "10A", "stop_id": "bCPROYRd", "name": "Manthoppu Hr Sec School", "city": "CHENNAI"}, "geometry": {"type": "Point", "coordinates": [80.21974529998263, 13.024995881693329]}}, {"type": "Feature", "properties": {"route_name": "10A", "stop_id": "nTVsVrjG", "name": "Mettupalayam", "city": "CHENNAI"}, "geometry": {"type": "Point", "coordinates": [80.22020396783478, 13.03230625515893]}}, {"type": "Feature", "properties": {"route_name": "10A", "stop_id": "TIKKmaif", "name": "Srinivasa Theater", "city": "CHENNAI"}, "geometry": {"type": "Point", "coordinates": [80.22367661231988, 13.031209765301139]}}, {"type": "Feature", "properties": {"route_name": "10A", "stop_id": "GVnbohJg", "name": "Aranganathan Subway", "city": "CHENNAI"}, "geometry": {"type": "Point", "coordinates": [80.22417372542509, 13.028635234661847]}}, {"type": "Feature", "properties": {"route_name": "10A", "stop_id": "jiufRClk", "name": "Kaveri Nager", "city": "CHENNAI"}, "geometry": {"type": "Point", "coordinates": [80.22709488938199, 13.028699655674641]}}, {"type": "Feature", "properties": {"route_name": "10A", "stop_id": "zfdolaES", "name": "Kannammapettai Burial Ground", "city": "CHENNAI"}, "geometry": {"type": "Point", "coordinates": [80.22808587732538, 13.030444023478132]}}, {"type": "Feature", "properties": {"route_name": "10A", "stop_id": "eTJQHplR", "name": "Thiyagaraya Nagar Bus Depot", "city": "CHENNAI"}, "geometry": {"type": "Point", "coordinates": [80.23005108, 13.03449501]}}, {"type": "Feature", "properties": {"route_name": "10A", "stop_id": "NFETpHWK", "name": "Burkit Road", "city": "CHENNAI"}, "geometry": {"type": "Point", "coordinates": [80.23561697085813, 13.034364050672794]}}, {"type": "Feature", "properties": {"route_name": "10A", "stop_id": "zAwPDfkg", "name": "Perumal Koil", "city": "CHENNAI"}, "geometry": {"type": "Point", "coordinates": [80.23678801748513, 13.035582362905718]}}, {"type": "Feature", "properties": {"route_name": "10A", "stop_id": "QgwCgjAi", "name": "Panagal Park", "city": "CHENNAI"}, "geometry": {"type": "Point", "coordinates": [80.23311542465956, 13.042139934739156]}}, {"type": "Feature", "properties": {"route_name": "10A", "stop_id": "nDzrviXX", "name": "Jeeva Park", "city": "CHENNAI"}, "geometry": {"type": "Point", "coordinates": [80.23772224093398, 13.043831508063153]}}, {"type": "Feature", "properties": {"route_name": "10A", "stop_id": "fRBexIzo", "name": "Kamarajar Illam", "city": "CHENNAI"}, "geometry": {"type": "Point", "coordinates": [80.23977553646, 13.04772552196662]}}, {"type": "Feature", "properties": {"route_name": "10A", "stop_id": "cEwgxjVO", "name": "Vidyodaya School Valluvar Kottam", "city": "CHENNAI"}, "geometry": {"type": "Point", "coordinates": [80.24045931666842, 13.051129778009896]}}, {"type": "Feature", "properties": {"route_name": "10A", "stop_id": "RfzcmazU", "name": "Valluvar Kottam", "city": "CHENNAI"}, "geometry": {"type": "Point", "coordinates": [80.24202386011893, 13.053769261938113]}}, {"type": "Feature", "properties": {"route_name": "10A", "stop_id": "YLjwrcCY", "name": "Corporation School Office", "city": "CHENNAI"}, "geometry": {"type": "Point", "coordinates": [80.2424910930149, 13.056498845024244]}}, {"type": "Feature", "properties": {"route_name": "10A", "stop_id": "sCyvkPkr", "name": "Nungambakkam Police Station", "city": "CHENNAI"}, "geometry": {"type": "Point", "coordinates": [80.24240336072728, 13.059340774362308]}}, {"type": "Feature", "properties": {"route_name": "10A", "stop_id": "XwcxmOai", "name": "Sterling Road Chetpat", "city": "CHENNAI"}, "geometry": {"type": "Point", "coordinates": [80.24317368782556, 13.062032636646551]}}, {"type": "Feature", "properties": {"route_name": "10A", "stop_id": "nrUfCQxz", "name": "Metrological Department Sterling Road", "city": "CHENNAI"}, "geometry": {"type": "Point", "coordinates": [80.24637379204353, 13.067777638778496]}}, {"type": "Feature", "properties": {"route_name": "10A", "stop_id": "rsJSqETv", "name": "Womens Christian College", "city": "CHENNAI"}, "geometry": {"type": "Point", "coordinates": [80.24831869430488, 13.067948242904333]}}, {"type": "Feature", "properties": {"route_name": "10A", "stop_id": "OCwYbEnq", "name": "D P I", "city": "CHENNAI"}, "geometry": {"type": "Point", "coordinates": [80.25359256453635, 13.067586375044606]}}, {"type": "Feature", "properties": {"route_name": "10A", "stop_id": "ExPvCHrU", "name": "Cooptex", "city": "CHENNAI"}, "geometry": {"type": "Point", "coordinates": [80.25497381355012, 13.067716719815126]}}, {"type": "Feature", "properties": {"route_name": "10A", "stop_id": "DjKGsdyb", "name": "Egmore Womens Hospital", "city": "CHENNAI"}, "geometry": {"type": "Point", "coordinates": [80.25930544055882, 13.071860017624843]}}, {"type": "Feature", "properties": {"route_name": "10A", "stop_id": "YvLYpMPH", "name": "Commissioner Office", "city": "CHENNAI"}, "geometry": {"type": "Point", "coordinates": [80.26177614284234, 13.073959726936492]}}, {"type": "Feature", "properties": {"route_name": "10A", "stop_id": "POdtxoZm", "name": "Albert Theatre", "city": "CHENNAI"}, "geometry": {"type": "Point", "coordinates": [80.2641397313298, 13.076113218593898]}}, {"type": "Feature", "properties": {"route_name": "10A", "stop_id": "GnsXgGJX", "name": "Hotel Everest", "city": "CHENNAI"}, "geometry": {"type": "Point", "coordinates": [80.26810708394851, 13.080814800082436]}}, {"type": "Feature", "properties": {"route_name": "10A", "stop_id": "PSjGjQXK", "name": "Park Station", "city": "CHENNAI"}, "geometry": {"type": "Point", "coordinates": [80.27331973115014, 13.081535577598643]}}, {"type": "Feature", "properties": {"route_name": "10A", "stop_id": "BQqYmuyR", "name": "Nurse Quarters", "city": "CHENNAI"}, "geometry": {"type": "Point", "coordinates": [80.27835642633545, 13.082243454275435]}}, {"type": "Feature", "properties": {"route_name": "10A", "stop_id": "YXOKWXAw", "name": "Payaigada Evening Bazar Rd", "city": "CHENNAI"}, "geometry": {"type": "Point", "coordinates": [80.27978372689631, 13.085629198977799]}}, {"type": "Feature", "properties": {"route_name": "10A", "stop_id": "fOfcyQgJ", "name": "Flower Bazzar", "city": "CHENNAI"}, "geometry": {"type": "Point", "coordinates": [80.28134094162169, 13.088298230966233]}}, {"type": "Feature", "properties": {"route_name": "10A", "stop_id": "cGoHBmgo", "name": "High Court", "city": "CHENNAI"}, "geometry": {"type": "Point", "coordinates": [80.28711089091621, 13.088636277043769]}}, {"type": "Feature", "properties": {"route_name": "10A", "stop_id": "gBkmsEyR", "name": "Parrys Corner", "city": "CHENNAI"}, "geometry": {"type": "Point", "coordinates": [80.29099080584331, 13.090762751453648]}}, {"type": "Feature", "properties": {"route_name": "10A", "stop_id": "ubZrQMid", "name": "Beach Station", "city": "CHENNAI"}, "geometry": {"type": "Point", "coordinates": [80.29223956369128, 13.094517419625104]}}, {"type": "Feature", "properties": {"route_name": "10A", "stop_id": "inJVXMtB", "name": "Collector Office", "city": "CHENNAI"}, "geometry": {"type": "Point", "coordinates": [80.29280498586172, 13.096287270506773]}}, {"type": "Feature", "properties": {"route_name": "10A", "stop_id": "vfdAIPGv", "name": "Clive Battery", "city": "CHENNAI"}, "geometry": {"type": "Point", "coordinates": [80.29406209, 13.10009011]}}, {"type": "Feature", "properties": {"route_name": "10A", "stop_id": "nsjiKPCz", "name": "Thambu Chetty Street", "city": "CHENNAI"}, "geometry": {"type": "Point", "coordinates": [80.29076617193198, 13.102620751001288]}}, {"type": "Feature", "properties": {"route_name": "10A", "stop_id": "AtcDBGpE", "name": "Royapuram Market", "city": "CHENNAI"}, "geometry": {"type": "Point", "coordinates": [80.29154386770256, 13.108789125032711]}}, {"type": "Feature", "properties": {"route_name": "10A", "stop_id": "Oslgxmkx", "name": "Kalmandapam Police Station", "city": "CHENNAI"}, "geometry": {"type": "Point", "coordinates": [80.29257859694428, 13.115708596116924]}}, {"type": "Feature", "properties": {"route_name": "10A", "stop_id": "JBpFxiqb", "name": "Kalaimagal Vidyalaya Or ESSO", "city": "CHENNAI"}, "geometry": {"type": "Point", "coordinates": [80.29312164816258, 13.118856643774002]}}, {"type": "Feature", "properties": {"route_name": "10A", "stop_id": "vwEcxUej", "name": "Kasimedu Police Station", "city": "CHENNAI"}, "geometry": {"type": "Point", "coordinates": [80.29354121651988, 13.120887995927692]}}, {"type": "Feature", "properties": {"route_name": "10A", "stop_id": "lBopHXdD", "name": "Kasimedu", "city": "CHENNAI"}, "geometry": {"type": "Point", "coordinates": [80.29436694298897, 13.124597618773638]}}, {"type": "Feature", "properties": {"route_name": "10A", "stop_id": "CdibamDB", "name": "Nagara Thottam", "city": "CHENNAI"}, "geometry": {"type": "Point", "coordinates": [80.29622969487457, 13.131506317420971]}}, {"type": "Feature", "properties": {"route_name": "10A", "stop_id": "DKPrUpnj", "name": "N4 Police Station", "city": "CHENNAI"}, "geometry": {"type": "Point", "coordinates": [80.29714205217965, 13.134418178035466]}}, {"type": "Feature", "properties": {"route_name": "10A", "stop_id": "NLDgVASg", "name": "Anna Nagar", "city": "CHENNAI"}, "geometry": {"type": "Point", "coordinates": [80.29846527468192, 13.139831263605902]}}, {"type": "Feature", "properties": {"route_name": "10A", "stop_id": "RkbXqAIs", "name": "Thangal Toll Gate", "city": "CHENNAI"}, "geometry": {"type": "Point", "coordinates": [80.29684030730448, 13.144705317373964]}}, {"type": "Feature", "properties": {"name": "10A"}, "geometry": {"type": "LineString", "coordinates": [[80.21275, 13.02418], [80.2136, 13.02423], [80.21397, 13.02428], [80.21442, 13.0243], [80.21532, 13.02448], [80.21681, 13.02468], [80.21734, 13.02472], [80.2183, 13.02477], [80.21921, 13.02486], [80.21976, 13.02492], [80.21976, 13.025], [80.21971, 13.02545], [80.21971, 13.02593], [80.21977, 13.02636], [80.21976, 13.02673], [80.21973, 13.02713], [80.21977, 13.02747], [80.21979, 13.02808], [80.21983, 13.02852], [80.2199, 13.02885], [80.22002, 13.02927], [80.2201, 13.02943], [80.22018, 13.02972], [80.22019, 13.02988], [80.22023, 13.03033], [80.22022, 13.03074], [80.22023, 13.03126], [80.22022, 13.03167], [80.2201, 13.032], [80.22, 13.03226], [80.2202, 13.03225], [80.22037, 13.03224], [80.22055, 13.03222], [80.22099, 13.03209], [80.2214, 13.032], [80.22164, 13.0319], [80.22174, 13.03184], [80.22227, 13.03159], [80.2227, 13.03133], [80.22285, 13.03127], [80.22302, 13.03123], [80.2234, 13.03119], [80.22359, 13.03118], [80.22368, 13.03118], [80.22398, 13.03119], [80.22429, 13.03122], [80.22429, 13.03104], [80.22428, 13.03003], [80.22429, 13.02932], [80.22427, 13.02909], [80.2242, 13.02899], [80.22411, 13.02889], [80.22407, 13.02884], [80.22405, 13.0288], [80.22405, 13.02857], [80.22415, 13.02854], [80.22539, 13.02825], [80.22615, 13.0281], [80.22668, 13.02798], [80.22684, 13.02796], [80.22691, 13.02798], [80.227, 13.02808], [80.22705, 13.02823], [80.22712, 13.02869], [80.22722, 13.0292], [80.22731, 13.02994], [80.22739, 13.03038], [80.22741, 13.03049], [80.22749, 13.03049], [80.22808, 13.03042], [80.22909, 13.03033], [80.22926, 13.03035], [80.22943, 13.0304], [80.22993, 13.0306], [80.23065, 13.03078], [80.23058, 13.03198], [80.23053, 13.03251], [80.23042, 13.03402], [80.23034, 13.03435], [80.23031, 13.03453], [80.23019, 13.035], [80.23018, 13.03501], [80.23017, 13.03503], [80.23017, 13.03508], [80.23019, 13.03513], [80.23023, 13.03515], [80.23028, 13.03514], [80.23032, 13.03511], [80.23033, 13.03506], [80.23033, 13.03504], [80.23121, 13.0349], [80.23346, 13.03459], [80.23523, 13.03438], [80.23558, 13.03433], [80.23561, 13.03433], [80.23662, 13.03421], [80.23693, 13.0342], [80.23711, 13.03422], [80.23723, 13.03424], [80.23756, 13.03444], [80.23682, 13.03561], [80.23641, 13.03624], [80.2356, 13.03752], [80.23455, 13.03917], [80.23425, 13.03961], [80.23373, 13.04046], [80.23358, 13.0406], [80.23279, 13.04077], [80.23219, 13.04096], [80.23214, 13.04099], [80.23212, 13.04102], [80.232, 13.04105], [80.23211, 13.04147], [80.23219, 13.04187], [80.23224, 13.04223], [80.2323, 13.04222], [80.23241, 13.04221], [80.23266, 13.04215], [80.23306, 13.04205], [80.23308, 13.04215], [80.23306, 13.04205], [80.23357, 13.04195], [80.23397, 13.04187], [80.23411, 13.04185], [80.2343, 13.04187], [80.23447, 13.04193], [80.2351, 13.04229], [80.23546, 13.04247], [80.23582, 13.0427], [80.23647, 13.04305], [80.23776, 13.04377], [80.23819, 13.04402], [80.23827, 13.04407], [80.23823, 13.04413], [80.23909, 13.04459], [80.23937, 13.04476], [80.24, 13.04513], [80.24005, 13.0453], [80.23964, 13.04596], [80.23959, 13.04604], [80.23952, 13.04627], [80.23961, 13.04671], [80.23982, 13.04772], [80.24037, 13.05051], [80.24049, 13.05112], [80.24067, 13.05203], [80.24081, 13.05246], [80.24084, 13.05254], [80.24095, 13.05253], [80.24123, 13.05255], [80.2415, 13.0526], [80.24164, 13.05263], [80.24176, 13.053], [80.24193, 13.05337], [80.24209, 13.05374], [80.24225, 13.05411], [80.2423, 13.05443], [80.24231, 13.05472], [80.24225, 13.05508], [80.24219, 13.05553], [80.24224, 13.0558], [80.24231, 13.05601], [80.24239, 13.05614], [80.24246, 13.05629], [80.24255, 13.05647], [80.2426, 13.05665], [80.24261, 13.0568], [80.2426, 13.05681], [80.24258, 13.05683], [80.24257, 13.05689], [80.24259, 13.05694], [80.24264, 13.05696], [80.24266, 13.05696], [80.24273, 13.05712], [80.24277, 13.05724], [80.24278, 13.05742], [80.24276, 13.05769], [80.24255, 13.0588], [80.24247, 13.05925], [80.24247, 13.05933], [80.24247, 13.05935], [80.24248, 13.05955], [80.24261, 13.05996], [80.24283, 13.06052], [80.243, 13.06099], [80.24312, 13.06141], [80.24321, 13.06203], [80.24346, 13.06348], [80.24344, 13.06367], [80.24346, 13.0638], [80.24346, 13.06411], [80.24353, 13.06478], [80.2435, 13.06552], [80.24349, 13.06571], [80.24353, 13.06587], [80.24361, 13.06598], [80.24378, 13.06614], [80.24451, 13.06624], [80.2448, 13.06631], [80.24523, 13.06637], [80.24547, 13.06639], [80.24565, 13.06645], [80.24582, 13.06655], [80.246, 13.06683], [80.24622, 13.06736], [80.24636, 13.0676], [80.24639, 13.06765], [80.24632, 13.06773], [80.24639, 13.06765], [80.24651, 13.06779], [80.24662, 13.06787], [80.24675, 13.06791], [80.24744, 13.06798], [80.24775, 13.06794], [80.24816, 13.06793], [80.24831, 13.06791], [80.2516, 13.06738], [80.25182, 13.06736], [80.25187, 13.06737], [80.2519, 13.06739], [80.25193, 13.06739], [80.25215, 13.06756], [80.25226, 13.06773], [80.25259, 13.06828], [80.2527, 13.06835], [80.25283, 13.06836], [80.25298, 13.0683], [80.25324, 13.06801], [80.25357, 13.06757], [80.25402, 13.06698], [80.25413, 13.06693], [80.25422, 13.06693], [80.25426, 13.06694], [80.2544, 13.06706], [80.25477, 13.06742], [80.25486, 13.06754], [80.255, 13.0677], [80.25524, 13.06797], [80.2553, 13.06808], [80.25543, 13.06821], [80.25601, 13.06879], [80.25674, 13.06948], [80.25767, 13.07038], [80.25838, 13.07104], [80.25853, 13.07115], [80.25893, 13.07144], [80.2591, 13.07156], [80.25914, 13.07163], [80.2592, 13.0717], [80.25933, 13.07183], [80.25958, 13.07207], [80.2608, 13.0731], [80.26078, 13.07312], [80.26077, 13.07316], [80.2608, 13.07326], [80.26089, 13.0733], [80.26098, 13.07326], [80.261, 13.07321], [80.26115, 13.07323], [80.26117, 13.07325], [80.26119, 13.07326], [80.26128, 13.07345], [80.26142, 13.07363], [80.2618, 13.07393], [80.26223, 13.0743], [80.26275, 13.07472], [80.26367, 13.07536], [80.26411, 13.07568], [80.26422, 13.07577], [80.26418, 13.076], [80.26417, 13.07612], [80.26407, 13.0771], [80.26403, 13.07723], [80.26396, 13.07737], [80.26371, 13.07772], [80.26335, 13.0781], [80.26332, 13.07809], [80.26325, 13.07809], [80.26322, 13.07811], [80.2632, 13.07818], [80.26322, 13.07826], [80.2633, 13.0783], [80.26334, 13.0783], [80.264, 13.07841], [80.26501, 13.07861], [80.26535, 13.07868], [80.26533, 13.07885], [80.26528, 13.07915], [80.26516, 13.07996], [80.26512, 13.08042], [80.26504, 13.08078], [80.26531, 13.08081], [80.26598, 13.08082], [80.26744, 13.0808], [80.26811, 13.08079], [80.27012, 13.08085], [80.27072, 13.08091], [80.27097, 13.08101], [80.2715, 13.08116], [80.27331, 13.08151], [80.27395, 13.08162], [80.27516, 13.08172], [80.27602, 13.08185], [80.27668, 13.08195], [80.27837, 13.08215], [80.27846, 13.0822], [80.27888, 13.08327], [80.27894, 13.08348], [80.27895, 13.08365], [80.27904, 13.08374], [80.27907, 13.0838], [80.27919, 13.08458], [80.27927, 13.08498], [80.27938, 13.08528], [80.2795, 13.08547], [80.27967, 13.08557], [80.27979, 13.08561], [80.28049, 13.08575], [80.28068, 13.08582], [80.28077, 13.08587], [80.28086, 13.08602], [80.28133, 13.08766], [80.28144, 13.08828], [80.2815, 13.08865], [80.28195, 13.08857], [80.28246, 13.08847], [80.28292, 13.08839], [80.28333, 13.0884], [80.28379, 13.08842], [80.28423, 13.08847], [80.28524, 13.08851], [80.28632, 13.08857], [80.28711, 13.0886], [80.28836, 13.08871], [80.28938, 13.08886], [80.28993, 13.08888], [80.29031, 13.08886], [80.29053, 13.08932], [80.29106, 13.09074], [80.29152, 13.09219], [80.29202, 13.09368], [80.29227, 13.09451], [80.29286, 13.09627], [80.2935, 13.09809], [80.29402, 13.09984], [80.29408, 13.10008], [80.29429, 13.10116], [80.29427, 13.10126], [80.29421, 13.10135], [80.29402, 13.10153], [80.2937, 13.10172], [80.29346, 13.10183], [80.2928, 13.10206], [80.29195, 13.10226], [80.29111, 13.10249], [80.29078, 13.10266], [80.29063, 13.10272], [80.29068, 13.10295], [80.29078, 13.10345], [80.29078, 13.10356], [80.29082, 13.10385], [80.29088, 13.10427], [80.29088, 13.10462], [80.29089, 13.10501], [80.29093, 13.10528], [80.29102, 13.10588], [80.29117, 13.10661], [80.29126, 13.10706], [80.29134, 13.10767], [80.29152, 13.10858], [80.29156, 13.10879], [80.29173, 13.10983], [80.29187, 13.1108], [80.2921, 13.11228], [80.2922, 13.11295], [80.29246, 13.11452], [80.29254, 13.11502], [80.29262, 13.1157], [80.2928, 13.11683], [80.29301, 13.11803], [80.29314, 13.11881], [80.29315, 13.11885], [80.29338, 13.11981], [80.29359, 13.12088], [80.29363, 13.12113], [80.29405, 13.12291], [80.29441, 13.12459], [80.29461, 13.12523], [80.2947, 13.12566], [80.29502, 13.12689], [80.2955, 13.12859], [80.29593, 13.13007], [80.29622, 13.131], [80.29634, 13.13148], [80.29666, 13.13271], [80.29682, 13.13328], [80.29698, 13.13374], [80.297, 13.13383], [80.29716, 13.13438], [80.29713, 13.13439], [80.29707, 13.1344], [80.29711, 13.13456], [80.29723, 13.13506], [80.29759, 13.13647], [80.29778, 13.13727], [80.2982, 13.13869], [80.29816, 13.13871], [80.29817, 13.13876], [80.29822, 13.13894], [80.29827, 13.13916], [80.29839, 13.13985], [80.29842, 13.14001], [80.29857, 13.14001], [80.29865, 13.14033], [80.29871, 13.14051], [80.29899, 13.14151], [80.29928, 13.14258], [80.2995, 13.14323], [80.29854, 13.14348], [80.29749, 13.14371], [80.2967, 13.14391], [80.29657, 13.14396], [80.29673, 13.14432], [80.29689, 13.14469]]}}]}