{"type": "FeatureCollection", "features": [{"type": "Feature", "properties": {"route_name": "91K", "stop_id": "YnUujGmz", "name": "Kilambakkam Bus Terminus", "city": "CHENNAI"}, "geometry": {"type": "Point", "coordinates": [80.07817166137694, 12.874405275808607]}}, {"type": "Feature", "properties": {"route_name": "91K", "stop_id": "CbcrfuAf", "name": "Vandalur Zoo", "city": "CHENNAI"}, "geometry": {"type": "Point", "coordinates": [80.08058627698756, 12.88094584155778]}}, {"type": "Feature", "properties": {"route_name": "91K", "stop_id": "gGkadTNm", "name": "Vandalur Gate", "city": "CHENNAI"}, "geometry": {"type": "Point", "coordinates": [80.0861980335012, 12.89323631083488]}}, {"type": "Feature", "properties": {"route_name": "91K", "stop_id": "RyPegcUV", "name": "Iraniyamman Koil", "city": "CHENNAI"}, "geometry": {"type": "Point", "coordinates": [80.08932019596341, 12.897432906791021]}}, {"type": "Feature", "properties": {"route_name": "91K", "stop_id": "qPtpgxic", "name": "Perungalattur", "city": "CHENNAI"}, "geometry": {"type": "Point", "coordinates": [80.09617808374855, 12.906468063975968]}}, {"type": "Feature", "properties": {"route_name": "91K", "stop_id": "szgsvNJG", "name": "Perungalatgur Lake View Stop", "city": "CHENNAI"}, "geometry": {"type": "Point", "coordinates": [80.09829411, 12.90905514]}}, {"type": "Feature", "properties": {"route_name": "91K", "stop_id": "SEVBrkvc", "name": "Irumbuliyur", "city": "CHENNAI"}, "geometry": {"type": "Point", "coordinates": [80.1058340174651, 12.916500866623101]}}, {"type": "Feature", "properties": {"route_name": "91K", "stop_id": "ojqTFFWy", "name": "Tambaram West Bus Stand", "city": "CHENNAI"}, "geometry": {"type": "Point", "coordinates": [80.11862628452741, 12.927652178598898]}}, {"type": "Feature", "properties": {"route_name": "91K", "stop_id": "zjKsBdNQ", "name": "Kadaperi", "city": "CHENNAI"}, "geometry": {"type": "Point", "coordinates": [80.12406423758796, 12.933095319064629]}}, {"type": "Feature", "properties": {"route_name": "91K", "stop_id": "puwcRgFs", "name": "Tambaram Sanatorium Bus Stand", "city": "CHENNAI"}, "geometry": {"type": "Point", "coordinates": [80.12748203125693, 12.937217648869067]}}, {"type": "Feature", "properties": {"route_name": "91K", "stop_id": "vyojaKRU", "name": "TB Hospital", "city": "CHENNAI"}, "geometry": {"type": "Point", "coordinates": [80.13450000658327, 12.944099170682174]}}, {"type": "Feature", "properties": {"route_name": "91K", "stop_id": "fzSWURzx", "name": "MIT Gate", "city": "CHENNAI"}, "geometry": {"type": "Point", "coordinates": [80.1374050176471, 12.947988238425095]}}, {"type": "Feature", "properties": {"route_name": "91K", "stop_id": "XiXLaJEL", "name": "Chromepet", "city": "CHENNAI"}, "geometry": {"type": "Point", "coordinates": [80.14007744716844, 12.95149481497275]}}, {"type": "Feature", "properties": {"route_name": "91K", "stop_id": "OyAyNkqZ", "name": "Saravana Store Chromepet", "city": "CHENNAI"}, "geometry": {"type": "Point", "coordinates": [80.14328253738302, 12.956911513898792]}}, {"type": "Feature", "properties": {"route_name": "91K", "stop_id": "SapgsLPr", "name": "Pallavaram New Bridge", "city": "CHENNAI"}, "geometry": {"type": "Point", "coordinates": [80.15034651322378, 12.958679855376774]}}, {"type": "Feature", "properties": {"route_name": "91K", "stop_id": "JPWycazw", "name": "Ganapathy Nagar", "city": "CHENNAI"}, "geometry": {"type": "Point", "coordinates": [80.15378461370764, 12.955670143952261]}}, {"type": "Feature", "properties": {"route_name": "91K", "stop_id": "wHHoYczm", "name": "Vels University", "city": "CHENNAI"}, "geometry": {"type": "Point", "coordinates": [80.15935878819391, 12.95450864037494]}}, {"type": "Feature", "properties": {"route_name": "91K", "stop_id": "wbJSAzcX", "name": "Pallava Garden Bus Stop or DJ Met School", "city": "CHENNAI"}, "geometry": {"type": "Point", "coordinates": [80.1714844152873, 12.951901317027213]}}, {"type": "Feature", "properties": {"route_name": "91K", "stop_id": "NNeqXfIi", "name": "Perumal Nagar", "city": "CHENNAI"}, "geometry": {"type": "Point", "coordinates": [80.1741832542375, 12.951420070899044]}}, {"type": "Feature", "properties": {"route_name": "91K", "stop_id": "FoqpqGcp", "name": "Eachangadu Junction", "city": "CHENNAI"}, "geometry": {"type": "Point", "coordinates": [80.18392044748953, 12.949354961716137]}}, {"type": "Feature", "properties": {"route_name": "91K", "stop_id": "QhiYKyAt", "name": "Sunnambu Kolathur", "city": "CHENNAI"}, "geometry": {"type": "Point", "coordinates": [80.19523072351524, 12.948686109529122]}}, {"type": "Feature", "properties": {"route_name": "91K", "stop_id": "ezYUwAMR", "name": "Puliyamaram Sunnambu Kolathur", "city": "CHENNAI"}, "geometry": {"type": "Point", "coordinates": [80.19920110796932, 12.948663791741216]}}, {"type": "Feature", "properties": {"route_name": "91K", "stop_id": "XWLETkPz", "name": "Sri Nagar", "city": "CHENNAI"}, "geometry": {"type": "Point", "coordinates": [80.2032668662531, 12.948652244378552]}}, {"type": "Feature", "properties": {"route_name": "91K", "stop_id": "EzNIKkYA", "name": "Kamatchi Hospital", "city": "CHENNAI"}, "geometry": {"type": "Point", "coordinates": [80.20970568267535, 12.948699239198694]}}, {"type": "Feature", "properties": {"route_name": "91K", "stop_id": "BTtHvEzM", "name": "Thoraipakkam Check Post 230 K V Tower", "city": "CHENNAI"}, "geometry": {"type": "Point", "coordinates": [80.22121476220241, 12.949479391919674]}}, {"type": "Feature", "properties": {"route_name": "91K", "stop_id": "wMslsCeS", "name": "Chennai One IT SEZ", "city": "CHENNAI"}, "geometry": {"type": "Point", "coordinates": [80.23286035276126, 12.950127434596833]}}, {"type": "Feature", "properties": {"route_name": "91K", "stop_id": "iMMoIvpS", "name": "Nagathamman Temple", "city": "CHENNAI"}, "geometry": {"type": "Point", "coordinates": [80.23994845996151, 12.94939673970215]}}, {"type": "Feature", "properties": {"route_name": "91K", "stop_id": "FaHpkwNs", "name": "Seevaram", "city": "CHENNAI"}, "geometry": {"type": "Point", "coordinates": [80.24123143189831, 12.951040325394723]}}, {"type": "Feature", "properties": {"route_name": "91K", "stop_id": "DpeufCiu", "name": "Perungudi", "city": "CHENNAI"}, "geometry": {"type": "Point", "coordinates": [80.24428318538433, 12.958837152218576]}}, {"type": "Feature", "properties": {"route_name": "91K", "stop_id": "SGVPbDEb", "name": "Kandanchavadi", "city": "CHENNAI"}, "geometry": {"type": "Point", "coordinates": [80.24782736363784, 12.96693486906636]}}, {"type": "Feature", "properties": {"route_name": "91K", "stop_id": "MtINPaKl", "name": "I G P", "city": "CHENNAI"}, "geometry": {"type": "Point", "coordinates": [80.25036841247538, 12.974300093869873]}}, {"type": "Feature", "properties": {"route_name": "91K", "stop_id": "RuAJZyMI", "name": "SRP Tools", "city": "CHENNAI"}, "geometry": {"type": "Point", "coordinates": [80.25223488499046, 12.978552510802254]}}, {"type": "Feature", "properties": {"route_name": "91K", "stop_id": "WRVBvtIE", "name": "Tidel Park", "city": "CHENNAI"}, "geometry": {"type": "Point", "coordinates": [80.25237359661696, 12.988092020112994]}}, {"type": "Feature", "properties": {"route_name": "91K", "stop_id": "aWeSqqrV", "name": "Jayanthi Theatre", "city": "CHENNAI"}, "geometry": {"type": "Point", "coordinates": [80.25624227705453, 12.987714488977852]}}, {"type": "Feature", "properties": {"route_name": "91K", "stop_id": "gyQqEnFq", "name": "Thiruvanmiyur Depot", "city": "CHENNAI"}, "geometry": {"type": "Point", "coordinates": [80.2592892551454, 12.98684992620367]}}, {"type": "Feature", "properties": {"name": "91K"}, "geometry": {"type": "LineString", "coordinates": [[80.0782, 12.8744], [80.07841, 12.87487], [80.07859, 12.87532], [80.07869, 12.87548], [80.07865, 12.87562], [80.07897, 12.87643], [80.07905, 12.87664], [80.07908, 12.87683], [80.07918, 12.87727], [80.07939, 12.87782], [80.07954, 12.87824], [80.07997, 12.87918], [80.08034, 12.88027], [80.08056, 12.88093], [80.08059, 12.88127], [80.08075, 12.88172], [80.08102, 12.88236], [80.08126, 12.88295], [80.08155, 12.88367], [80.08177, 12.88415], [80.08199, 12.88462], [80.08215, 12.88496], [80.0824, 12.88528], [80.0826, 12.88544], [80.08288, 12.88606], [80.08306, 12.88644], [80.08395, 12.88867], [80.08478, 12.89068], [80.08487, 12.89078], [80.08486, 12.89086], [80.08488, 12.89107], [80.08502, 12.89144], [80.08511, 12.89161], [80.08538, 12.89213], [80.08568, 12.89262], [80.08571, 12.89275], [80.08448, 12.89299], [80.08406, 12.89306], [80.08292, 12.89327], [80.08165, 12.89352], [80.08106, 12.89358], [80.08103, 12.89358], [80.08104, 12.89367], [80.08155, 12.89363], [80.08201, 12.89354], [80.08386, 12.89319], [80.08527, 12.89293], [80.08573, 12.89287], [80.08584, 12.89288], [80.08589, 12.89291], [80.08592, 12.89292], [80.08594, 12.89298], [80.08615, 12.89327], [80.08739, 12.89496], [80.08793, 12.89537], [80.08838, 12.89603], [80.08941, 12.89737], [80.09005, 12.89826], [80.09136, 12.89998], [80.09334, 12.90258], [80.09396, 12.90326], [80.09438, 12.90378], [80.09467, 12.90418], [80.09437, 12.9044], [80.09413, 12.90456], [80.09393, 12.90466], [80.09338, 12.90491], [80.09318, 12.90502], [80.09361, 12.90602], [80.0938, 12.90643], [80.09386, 12.90664], [80.09379, 12.90678], [80.09349, 12.90715], [80.09285, 12.90802], [80.09238, 12.90867], [80.09234, 12.90872], [80.09241, 12.90872], [80.09252, 12.90871], [80.09256, 12.90869], [80.09347, 12.90746], [80.09351, 12.90741], [80.09374, 12.9072], [80.09387, 12.90711], [80.09396, 12.90705], [80.09414, 12.90694], [80.09451, 12.90677], [80.09528, 12.90643], [80.09571, 12.90623], [80.09594, 12.90613], [80.09599, 12.90619], [80.0961, 12.90635], [80.09619, 12.90646], [80.09745, 12.90809], [80.09794, 12.90866], [80.09813, 12.90884], [80.09834, 12.90893], [80.09837, 12.90896], [80.09881, 12.90929], [80.09948, 12.90969], [80.10034, 12.91018], [80.10071, 12.91046], [80.10098, 12.91078], [80.1012, 12.91119], [80.10133, 12.91168], [80.10137, 12.912], [80.10146, 12.91294], [80.10149, 12.91322], [80.10154, 12.91384], [80.10158, 12.91386], [80.10161, 12.91391], [80.10168, 12.91425], [80.1018, 12.91458], [80.10188, 12.91472], [80.1021, 12.91504], [80.10223, 12.91517], [80.10248, 12.91537], [80.10271, 12.91549], [80.10298, 12.91558], [80.10317, 12.91563], [80.10336, 12.91566], [80.10409, 12.91572], [80.10417, 12.91579], [80.10437, 12.9158], [80.10471, 12.91585], [80.10498, 12.91592], [80.10521, 12.91603], [80.10582, 12.91638], [80.10588, 12.91641], [80.10632, 12.91663], [80.10686, 12.91693], [80.10725, 12.91712], [80.10778, 12.91746], [80.1081, 12.91771], [80.10825, 12.91784], [80.10842, 12.91795], [80.10895, 12.91839], [80.10966, 12.91899], [80.11067, 12.91979], [80.11101, 12.92007], [80.11231, 12.92131], [80.11315, 12.9221], [80.11423, 12.9232], [80.11555, 12.92452], [80.11749, 12.92641], [80.1174, 12.92632], [80.11744, 12.92636], [80.11778, 12.92675], [80.11804, 12.92703], [80.11836, 12.9273], [80.11867, 12.92761], [80.11957, 12.92853], [80.12034, 12.92929], [80.12135, 12.9303], [80.12214, 12.93113], [80.12317, 12.93214], [80.12411, 12.93305], [80.12551, 12.93443], [80.1265, 12.93554], [80.12704, 12.93615], [80.12743, 12.93662], [80.12726, 12.93677], [80.12757, 12.93715], [80.12726, 12.93677], [80.12743, 12.93662], [80.12767, 12.9369], [80.12871, 12.93808], [80.12931, 12.93876], [80.1303, 12.93995], [80.13065, 12.94028], [80.13212, 12.94164], [80.13307, 12.94259], [80.13354, 12.94301], [80.13382, 12.94329], [80.13403, 12.9435], [80.13429, 12.94376], [80.13454, 12.94407], [80.1345, 12.9441], [80.13454, 12.94407], [80.13462, 12.94417], [80.13494, 12.94459], [80.13496, 12.94477], [80.13499, 12.94481], [80.13551, 12.94544], [80.13595, 12.94603], [80.13639, 12.94658], [80.13672, 12.94705], [80.13677, 12.94715], [80.13688, 12.9473], [80.13703, 12.94751], [80.13735, 12.94802], [80.13783, 12.94867], [80.13857, 12.94959], [80.13864, 12.94966], [80.13873, 12.94971], [80.13886, 12.94975], [80.1391, 12.95004], [80.13958, 12.95069], [80.13964, 12.95089], [80.13973, 12.95108], [80.13999, 12.95148], [80.14003, 12.95153], [80.14032, 12.95189], [80.14041, 12.95196], [80.14053, 12.952], [80.14065, 12.95205], [80.14071, 12.95211], [80.14089, 12.95235], [80.14136, 12.95301], [80.14181, 12.9538], [80.14208, 12.9543], [80.14244, 12.95495], [80.14277, 12.95566], [80.14289, 12.95591], [80.14312, 12.95633], [80.1434, 12.95685], [80.14403, 12.95799], [80.14421, 12.9583], [80.1442, 12.95847], [80.14472, 12.95947], [80.14515, 12.96037], [80.14519, 12.96046], [80.14525, 12.96056], [80.1453, 12.96059], [80.14536, 12.96061], [80.14547, 12.96058], [80.14554, 12.9605], [80.14555, 12.96044], [80.14573, 12.96037], [80.14642, 12.9602], [80.14692, 12.9601], [80.14772, 12.95993], [80.14922, 12.95962], [80.14946, 12.95953], [80.14966, 12.95941], [80.14984, 12.95924], [80.1503, 12.95865], [80.15031, 12.95862], [80.15169, 12.95695], [80.15208, 12.95651], [80.15226, 12.95634], [80.1524, 12.95623], [80.15266, 12.95605], [80.15313, 12.95585], [80.15378, 12.95566], [80.15395, 12.95561], [80.15449, 12.95546], [80.15581, 12.95518], [80.1568, 12.95498], [80.15753, 12.95482], [80.15935, 12.95445], [80.1633, 12.95364], [80.16521, 12.95323], [80.16651, 12.95292], [80.1672, 12.95275], [80.1679, 12.95255], [80.16843, 12.95241], [80.16894, 12.95231], [80.17, 12.95212], [80.17148, 12.95188], [80.17314, 12.95158], [80.174, 12.9514], [80.17417, 12.95137], [80.17561, 12.95106], [80.17704, 12.95073], [80.17941, 12.95009], [80.18006, 12.94995], [80.18135, 12.94975], [80.18192, 12.94963], [80.18289, 12.94948], [80.18355, 12.94938], [80.18374, 12.94935], [80.18391, 12.94932], [80.18391, 12.94936], [80.18391, 12.94932], [80.18408, 12.9493], [80.18437, 12.94926], [80.18521, 12.94919], [80.18781, 12.94898], [80.18856, 12.94895], [80.18945, 12.94886], [80.19142, 12.9487], [80.19421, 12.94862], [80.19523, 12.94861], [80.19775, 12.94857], [80.1992, 12.94862], [80.20004, 12.94863], [80.20064, 12.94867], [80.20159, 12.94869], [80.2029, 12.94872], [80.20496, 12.9488], [80.20606, 12.94881], [80.20633, 12.9488], [80.20632, 12.94871], [80.20582, 12.94872], [80.20489, 12.9487], [80.20327, 12.94865], [80.20168, 12.94862], [80.2009, 12.94859], [80.19891, 12.94851], [80.19893, 12.94862], [80.20004, 12.94863], [80.2007, 12.94867], [80.20163, 12.94869], [80.20309, 12.94873], [80.20509, 12.94881], [80.20633, 12.9488], [80.2084, 12.94866], [80.2097, 12.94857], [80.21, 12.94854], [80.21099, 12.94851], [80.21121, 12.94851], [80.21201, 12.94853], [80.21267, 12.94857], [80.2137, 12.94865], [80.21756, 12.94903], [80.21804, 12.94907], [80.22123, 12.94939], [80.22245, 12.94947], [80.22334, 12.94952], [80.22956, 12.94984], [80.23201, 12.95001], [80.23256, 12.95005], [80.23286, 12.95008], [80.234, 12.95013], [80.23473, 12.95007], [80.23587, 12.94994], [80.23794, 12.94963], [80.23837, 12.94958], [80.23852, 12.94964], [80.23857, 12.94965], [80.23901, 12.94957], [80.23994, 12.94937], [80.24052, 12.94924], [80.24063, 12.94924], [80.24071, 12.94925], [80.24077, 12.94929], [80.24084, 12.94948], [80.24081, 12.94952], [80.24081, 12.94957], [80.2412, 12.95089], [80.24124, 12.95104], [80.24164, 12.95213], [80.24205, 12.95321], [80.24237, 12.95398], [80.24267, 12.95476], [80.24278, 12.95494], [80.24283, 12.95496], [80.24305, 12.95558], [80.24334, 12.95638], [80.24362, 12.95704], [80.24408, 12.95799], [80.24403, 12.95804], [80.24403, 12.95809], [80.24433, 12.95882], [80.24457, 12.95938], [80.24523, 12.96071], [80.246, 12.9624], [80.24633, 12.96307], [80.24642, 12.96327], [80.24647, 12.9633], [80.24652, 12.96329], [80.24666, 12.96359], [80.24684, 12.96396], [80.24727, 12.96514], [80.24746, 12.96566], [80.2476, 12.96604], [80.24776, 12.96638], [80.24793, 12.96675], [80.24783, 12.96677], [80.24789, 12.96691], [80.24852, 12.9683], [80.24878, 12.96905], [80.24905, 12.9697], [80.24936, 12.97046], [80.24955, 12.97101], [80.24984, 12.97213], [80.25001, 12.97279], [80.25021, 12.97351], [80.25041, 12.97429], [80.2506, 12.9749], [80.25074, 12.97534], [80.25089, 12.97594], [80.25117, 12.9769], [80.25134, 12.97729], [80.25149, 12.97756], [80.25185, 12.978], [80.25216, 12.9784], [80.25226, 12.97854], [80.25243, 12.97887], [80.25249, 12.97907], [80.25254, 12.97932], [80.25257, 12.97963], [80.25255, 12.97975], [80.2525, 12.97983], [80.25241, 12.97988], [80.25225, 12.97993], [80.2521, 12.98004], [80.25069, 12.98044], [80.24988, 12.98062], [80.24933, 12.98072], [80.24893, 12.98075], [80.24801, 12.98082], [80.24803, 12.98092], [80.24836, 12.9809], [80.24895, 12.98084], [80.24951, 12.98078], [80.25011, 12.98066], [80.25078, 12.98051], [80.25119, 12.98039], [80.25227, 12.98011], [80.25244, 12.98015], [80.25254, 12.98024], [80.25265, 12.98041], [80.25263, 12.98157], [80.25262, 12.9819], [80.25257, 12.98302], [80.25251, 12.98339], [80.25228, 12.98435], [80.25183, 12.98596], [80.25142, 12.98757], [80.25136, 12.9878], [80.25134, 12.98787], [80.25146, 12.98789], [80.25181, 12.98796], [80.25219, 12.98804], [80.25237, 12.98804], [80.25499, 12.98782], [80.25511, 12.9878], [80.25586, 12.98773], [80.25607, 12.98768], [80.25624, 12.98767], [80.2572, 12.98759], [80.25857, 12.98749], [80.25959, 12.98737], [80.25957, 12.9873], [80.25954, 12.98679], [80.25953, 12.98671], [80.2595, 12.98666], [80.25944, 12.98664], [80.25929, 12.98664]]}}]}