{"type": "FeatureCollection", "features": [{"type": "Feature", "properties": {"route_name": "1B", "stop_id": "VQfPRvUw", "name": "Thiruvottiyur Bus Stand", "city": "CHENNAI"}, "geometry": {"type": "Point", "coordinates": [80.30621356946263, 13.175091563802843]}}, {"type": "Feature", "properties": {"route_name": "1B", "stop_id": "qGgPbtbT", "name": "Thiruvottiyur Ajax Bus Depot", "city": "CHENNAI"}, "geometry": {"type": "Point", "coordinates": [80.30544519466298, 13.172191073074865]}}, {"type": "Feature", "properties": {"route_name": "1B", "stop_id": "lDHqxCQW", "name": "Vellayan Chettiyar School", "city": "CHENNAI"}, "geometry": {"type": "Point", "coordinates": [80.30445629374913, 13.168450664865885]}}, {"type": "Feature", "properties": {"route_name": "1B", "stop_id": "bbaQRYSI", "name": "Thiruvottiyur Market", "city": "CHENNAI"}, "geometry": {"type": "Point", "coordinates": [80.30349663148138, 13.164379324478022]}}, {"type": "Feature", "properties": {"route_name": "1B", "stop_id": "JvVxAKet", "name": "Thiruvotriyur Temple", "city": "CHENNAI"}, "geometry": {"type": "Point", "coordinates": [80.30300134742993, 13.161989989820752]}}, {"type": "Feature", "properties": {"route_name": "1B", "stop_id": "oVNIhiyF", "name": "Theradi", "city": "CHENNAI"}, "geometry": {"type": "Point", "coordinates": [80.30257620339978, 13.160632530111483]}}, {"type": "Feature", "properties": {"route_name": "1B", "stop_id": "TurKlwMz", "name": "Ellaiamman Kovil", "city": "CHENNAI"}, "geometry": {"type": "Point", "coordinates": [80.30155602891318, 13.157016559479278]}}, {"type": "Feature", "properties": {"route_name": "1B", "stop_id": "NkWMDpBL", "name": "Thiruvottiyur Police Station", "city": "CHENNAI"}, "geometry": {"type": "Point", "coordinates": [80.30054447896669, 13.153835589046228]}}, {"type": "Feature", "properties": {"route_name": "1B", "stop_id": "EXHVDpee", "name": "Raja Kaladi", "city": "CHENNAI"}, "geometry": {"type": "Point", "coordinates": [80.29976819757633, 13.151361529652869]}}, {"type": "Feature", "properties": {"route_name": "1B", "stop_id": "NuwmOhpA", "name": "Thangal", "city": "CHENNAI"}, "geometry": {"type": "Point", "coordinates": [80.29827951957066, 13.147757917641558]}}, {"type": "Feature", "properties": {"route_name": "1B", "stop_id": "CLjYTiBy", "name": "Thangal Toll Gate", "city": "CHENNAI"}, "geometry": {"type": "Point", "coordinates": [80.29689126927576, 13.144352706302309]}}, {"type": "Feature", "properties": {"route_name": "1B", "stop_id": "GfBReROC", "name": "Anna Nagar", "city": "CHENNAI"}, "geometry": {"type": "Point", "coordinates": [80.29878512810694, 13.139845956014707]}}, {"type": "Feature", "properties": {"route_name": "1B", "stop_id": "zXtHnUiq", "name": "N4 Police Station", "city": "CHENNAI"}, "geometry": {"type": "Point", "coordinates": [80.29726174575694, 13.134136403901213]}}, {"type": "Feature", "properties": {"route_name": "1B", "stop_id": "hEhmxyDr", "name": "Nagara Thottam", "city": "CHENNAI"}, "geometry": {"type": "Point", "coordinates": [80.296577040942, 13.13196473570511]}}, {"type": "Feature", "properties": {"route_name": "1B", "stop_id": "tWKcfmbS", "name": "Kasimedu", "city": "CHENNAI"}, "geometry": {"type": "Point", "coordinates": [80.29452043875358, 13.124353770473034]}}, {"type": "Feature", "properties": {"route_name": "1B", "stop_id": "cfShLPmI", "name": "Kalmandapam Police Station", "city": "CHENNAI"}, "geometry": {"type": "Point", "coordinates": [80.29263794081874, 13.115107780102829]}}, {"type": "Feature", "properties": {"route_name": "1B", "stop_id": "cCEhgrAc", "name": "Royapuram Market", "city": "CHENNAI"}, "geometry": {"type": "Point", "coordinates": [80.29176514994629, 13.109058193210455]}}, {"type": "Feature", "properties": {"route_name": "1B", "stop_id": "udlIzhJE", "name": "Clive Battery", "city": "CHENNAI"}, "geometry": {"type": "Point", "coordinates": [80.29398430861647, 13.099302796304345]}}, {"type": "Feature", "properties": {"route_name": "1B", "stop_id": "OsBkWRQx", "name": "Beach Station", "city": "CHENNAI"}, "geometry": {"type": "Point", "coordinates": [80.29227074, 13.09407689]}}, {"type": "Feature", "properties": {"route_name": "1B", "stop_id": "TsaeiIGv", "name": "Parrys Corner", "city": "CHENNAI"}, "geometry": {"type": "Point", "coordinates": [80.29078394, 13.08959104]}}, {"type": "Feature", "properties": {"route_name": "1B", "stop_id": "KqLiJxJl", "name": "High Court", "city": "CHENNAI"}, "geometry": {"type": "Point", "coordinates": [80.28444838412122, 13.085267438728206]}}, {"type": "Feature", "properties": {"route_name": "1B", "stop_id": "TShNRujB", "name": "Mgr Central Station Or Rajiv Gandhi Government General Hospital", "city": "CHENNAI"}, "geometry": {"type": "Point", "coordinates": [80.27666299527485, 13.081750493356726]}}, {"type": "Feature", "properties": {"route_name": "1B", "stop_id": "hxSTJhOz", "name": "Pallavan Salai", "city": "CHENNAI"}, "geometry": {"type": "Point", "coordinates": [80.27638522507527, 13.075417794179309]}}, {"type": "Feature", "properties": {"route_name": "1B", "stop_id": "rDSiGFpR", "name": "Simson Or Periyar Bridge", "city": "CHENNAI"}, "geometry": {"type": "Point", "coordinates": [80.27388174341809, 13.070529313285379]}}, {"type": "Feature", "properties": {"route_name": "1B", "stop_id": "NBopaFdP", "name": "Lic", "city": "CHENNAI"}, "geometry": {"type": "Point", "coordinates": [80.2663441938297, 13.06467874213801]}}, {"type": "Feature", "properties": {"route_name": "1B", "stop_id": "mHRdWDIt", "name": "Spensor Plaza TVS", "city": "CHENNAI"}, "geometry": {"type": "Point", "coordinates": [80.2599162395787, 13.059476027356299]}}, {"type": "Feature", "properties": {"route_name": "1B", "stop_id": "XFLojCJa", "name": "Anand Theatre", "city": "CHENNAI"}, "geometry": {"type": "Point", "coordinates": [80.25718621, 13.05641246]}}, {"type": "Feature", "properties": {"route_name": "1B", "stop_id": "qpacHTVx", "name": "Church Park School", "city": "CHENNAI"}, "geometry": {"type": "Point", "coordinates": [80.25381812534101, 13.054320507629198]}}, {"type": "Feature", "properties": {"route_name": "1B", "stop_id": "LPfgjVyT", "name": "DMS", "city": "CHENNAI"}, "geometry": {"type": "Point", "coordinates": [80.24861385254701, 13.046978028476232]}}, {"type": "Feature", "properties": {"route_name": "1B", "stop_id": "cniBuICf", "name": "Vanavil", "city": "CHENNAI"}, "geometry": {"type": "Point", "coordinates": [80.24742096301384, 13.041493303435086]}}, {"type": "Feature", "properties": {"route_name": "1B", "stop_id": "WtPVEKaC", "name": "Teynampet Metro or SIET College", "city": "CHENNAI"}, "geometry": {"type": "Point", "coordinates": [80.24651083106585, 13.037120995799397]}}, {"type": "Feature", "properties": {"route_name": "1B", "stop_id": "BYsSDXCP", "name": "Nandanam Metro", "city": "CHENNAI"}, "geometry": {"type": "Point", "coordinates": [80.24112919587397, 13.031649101433104]}}, {"type": "Feature", "properties": {"route_name": "1B", "stop_id": "zjSAMvDn", "name": "Nandanam YMCA", "city": "CHENNAI"}, "geometry": {"type": "Point", "coordinates": [80.2366264217136, 13.02885415557313]}}, {"type": "Feature", "properties": {"route_name": "1B", "stop_id": "fubLBmAl", "name": "Saidapet Veterinary Hospital Or Raja Hostel", "city": "CHENNAI"}, "geometry": {"type": "Point", "coordinates": [80.22976399085928, 13.025144344408464]}}, {"type": "Feature", "properties": {"route_name": "1B", "stop_id": "DOGyniWl", "name": "Saidapet Metro", "city": "CHENNAI"}, "geometry": {"type": "Point", "coordinates": [80.2281859358351, 13.023758074666299]}}, {"type": "Feature", "properties": {"route_name": "1B", "stop_id": "GbYxEXTt", "name": "Tamil Nadu Open University Or Panagal Maligai", "city": "CHENNAI"}, "geometry": {"type": "Point", "coordinates": [80.22567676852101, 13.021143761114198]}}, {"type": "Feature", "properties": {"route_name": "1B", "stop_id": "YmkUpvHU", "name": "Chinnamalai B S or Saidapet Court", "city": "CHENNAI"}, "geometry": {"type": "Point", "coordinates": [80.22645940770053, 13.0139397637957]}}, {"type": "Feature", "properties": {"route_name": "1B", "stop_id": "rRGVruPM", "name": "Raj Bhavan Quarters", "city": "CHENNAI"}, "geometry": {"type": "Point", "coordinates": [80.22517469844684, 13.010580746325664]}}, {"type": "Feature", "properties": {"route_name": "1B", "stop_id": "GpnhEWuy", "name": "Concorde or Chellammal College", "city": "CHENNAI"}, "geometry": {"type": "Point", "coordinates": [80.22194994, 13.01186343]}}, {"type": "Feature", "properties": {"route_name": "1B", "stop_id": "QDIpIlEK", "name": "Guindy Railway Station", "city": "CHENNAI"}, "geometry": {"type": "Point", "coordinates": [80.21333453957197, 13.008223468910234]}}, {"type": "Feature", "properties": {"route_name": "1B", "stop_id": "GiONHkbf", "name": "Maduvankarai", "city": "CHENNAI"}, "geometry": {"type": "Point", "coordinates": [80.21229393909084, 13.00458785205742]}}, {"type": "Feature", "properties": {"route_name": "1B", "stop_id": "WFZVQzrl", "name": "Guindy M K N Salai", "city": "CHENNAI"}, "geometry": {"type": "Point", "coordinates": [80.20971883, 13.00723642]}}, {"type": "Feature", "properties": {"route_name": "1B", "stop_id": "GgLRqpEG", "name": "Kathipara Urban Square", "city": "CHENNAI"}, "geometry": {"type": "Point", "coordinates": [80.20373346896257, 13.006824793878286]}}, {"type": "Feature", "properties": {"route_name": "1B", "stop_id": "uhUmvvRs", "name": "Alandur Metro", "city": "CHENNAI"}, "geometry": {"type": "Point", "coordinates": [80.20129584, 13.00412247]}}, {"type": "Feature", "properties": {"route_name": "1B", "stop_id": "lQIpGOTn", "name": "St Thomas Mount Head Post Office", "city": "CHENNAI"}, "geometry": {"type": "Point", "coordinates": [80.1972223156829, 13.001938458082947]}}, {"type": "Feature", "properties": {"route_name": "1B", "stop_id": "lEwLedpG", "name": "Alandur", "city": "CHENNAI"}, "geometry": {"type": "Point", "coordinates": [80.1890026083795, 12.99562167829451]}}, {"type": "Feature", "properties": {"route_name": "1B", "stop_id": "ysSWNERo", "name": "Meeanambakkam International Airport", "city": "CHENNAI"}, "geometry": {"type": "Point", "coordinates": [80.17430849877292, 12.986066570693998]}}, {"type": "Feature", "properties": {"route_name": "1B", "stop_id": "jFRqfnFl", "name": "Thirusoolam National Airport", "city": "CHENNAI"}, "geometry": {"type": "Point", "coordinates": [80.16225610684478, 12.979372299463616]}}, {"type": "Feature", "properties": {"route_name": "1B", "stop_id": "qeXIqBgp", "name": "Pallavaram Bus Stand", "city": "CHENNAI"}, "geometry": {"type": "Point", "coordinates": [80.15020472965345, 12.969321927480118]}}, {"type": "Feature", "properties": {"route_name": "1B", "stop_id": "BZCtSmhk", "name": "Saravana Store Chromepet", "city": "CHENNAI"}, "geometry": {"type": "Point", "coordinates": [80.14344682, 12.95656648]}}, {"type": "Feature", "properties": {"route_name": "1B", "stop_id": "ywuGpANM", "name": "Chromepet", "city": "CHENNAI"}, "geometry": {"type": "Point", "coordinates": [80.14056159, 12.95162355]}}, {"type": "Feature", "properties": {"route_name": "1B", "stop_id": "eaNsVWDR", "name": "Tambaram Sanatorium Bus Stand", "city": "CHENNAI"}, "geometry": {"type": "Point", "coordinates": [80.12809022215106, 12.937055899909849]}}, {"type": "Feature", "properties": {"route_name": "1B", "stop_id": "CKorGRkE", "name": "Kadaperi", "city": "CHENNAI"}, "geometry": {"type": "Point", "coordinates": [80.12469723891547, 12.93337144029531]}}, {"type": "Feature", "properties": {"route_name": "1B", "stop_id": "ojqTFFWy", "name": "Tambaram West Bus Stand", "city": "CHENNAI"}, "geometry": {"type": "Point", "coordinates": [80.11862628452741, 12.927652178598898]}}, {"type": "Feature", "properties": {"name": "1B"}, "geometry": {"type": "LineString", "coordinates": [[80.30619, 13.1751], [80.30574, 13.17346], [80.30554, 13.17271], [80.3054, 13.1722], [80.30491, 13.17037], [80.30471, 13.16951], [80.30457, 13.16897], [80.30447, 13.16863], [80.30442, 13.16846], [80.30421, 13.16773], [80.30402, 13.16694], [80.30383, 13.16611], [80.30356, 13.16514], [80.30347, 13.16438], [80.30341, 13.16329], [80.30343, 13.16317], [80.30342, 13.16303], [80.30336, 13.1629], [80.30299, 13.16199], [80.30285, 13.16166], [80.30257, 13.16073], [80.30255, 13.16064], [80.30232, 13.15956], [80.30211, 13.15881], [80.302, 13.15849], [80.30177, 13.15798], [80.3017, 13.15778], [80.3015, 13.15703], [80.30137, 13.15652], [80.30115, 13.1558], [80.30079, 13.1548], [80.30059, 13.15421], [80.30051, 13.15391], [80.3005, 13.15384], [80.30037, 13.15317], [80.30031, 13.15283], [80.30019, 13.15253], [80.29973, 13.15138], [80.29957, 13.15101], [80.29899, 13.14965], [80.29839, 13.14818], [80.29824, 13.14777], [80.29808, 13.14737], [80.29781, 13.14681], [80.29764, 13.14637], [80.29734, 13.14558], [80.29724, 13.14532], [80.29687, 13.14436], [80.2967, 13.14391], [80.29749, 13.14371], [80.29854, 13.14348], [80.2995, 13.14323], [80.29964, 13.14318], [80.29968, 13.14314], [80.29969, 13.14307], [80.2996, 13.1428], [80.29941, 13.14221], [80.29909, 13.14105], [80.29889, 13.14045], [80.29872, 13.13986], [80.29854, 13.13929], [80.29837, 13.13862], [80.29809, 13.13765], [80.29802, 13.13733], [80.29793, 13.13672], [80.29786, 13.13645], [80.29776, 13.13614], [80.29763, 13.13566], [80.29735, 13.1345], [80.29728, 13.13452], [80.29725, 13.13436], [80.2972, 13.13415], [80.29713, 13.13381], [80.29697, 13.13348], [80.2967, 13.13258], [80.29654, 13.13198], [80.29623, 13.13076], [80.29593, 13.12981], [80.29559, 13.12856], [80.29526, 13.12737], [80.29508, 13.12676], [80.29487, 13.12596], [80.29478, 13.12565], [80.29473, 13.12541], [80.2946, 13.12495], [80.29452, 13.1245], [80.29448, 13.12436], [80.29392, 13.12195], [80.29372, 13.12108], [80.29365, 13.12061], [80.29349, 13.11976], [80.29319, 13.11847], [80.29273, 13.11595], [80.29262, 13.11511], [80.29255, 13.11452], [80.29241, 13.11379], [80.29224, 13.11272], [80.29192, 13.11048], [80.29173, 13.10918], [80.2917, 13.10907], [80.29152, 13.10804], [80.29144, 13.10767], [80.2912, 13.10639], [80.29122, 13.10627], [80.2913, 13.10614], [80.29138, 13.1061], [80.29159, 13.10605], [80.29195, 13.10603], [80.29206, 13.10601], [80.29257, 13.10612], [80.29291, 13.10612], [80.29301, 13.10608], [80.29368, 13.10586], [80.29463, 13.10553], [80.29503, 13.10533], [80.2951, 13.10528], [80.29524, 13.10514], [80.29532, 13.10496], [80.29534, 13.10481], [80.29533, 13.10466], [80.29528, 13.10446], [80.29492, 13.10341], [80.29474, 13.10271], [80.29454, 13.10183], [80.29436, 13.10109], [80.29423, 13.10046], [80.29414, 13.09998], [80.29411, 13.09986], [80.29394, 13.09931], [80.29396, 13.09931], [80.29375, 13.09858], [80.29332, 13.09735], [80.29285, 13.096], [80.29267, 13.09546], [80.29258, 13.0951], [80.29224, 13.09409], [80.29161, 13.09214], [80.29083, 13.08977], [80.29076, 13.0896], [80.29043, 13.08878], [80.28997, 13.08781], [80.28991, 13.08767], [80.28966, 13.0868], [80.28949, 13.08618], [80.28942, 13.08589], [80.28939, 13.08584], [80.28923, 13.0857], [80.28862, 13.08534], [80.28832, 13.08524], [80.2879, 13.08516], [80.2877, 13.08515], [80.28685, 13.0852], [80.28567, 13.0853], [80.28523, 13.08535], [80.28482, 13.08538], [80.28463, 13.08537], [80.28445, 13.08537], [80.28442, 13.08536], [80.28388, 13.08509], [80.28359, 13.08491], [80.28327, 13.08464], [80.2829, 13.08409], [80.28194, 13.08256], [80.28169, 13.08219], [80.28159, 13.08227], [80.28142, 13.08228], [80.28108, 13.08229], [80.28051, 13.08225], [80.27925, 13.08214], [80.27852, 13.08209], [80.27838, 13.08209], [80.27796, 13.08201], [80.27668, 13.0818], [80.27666, 13.08179], [80.27604, 13.08168], [80.27572, 13.08164], [80.2755, 13.08156], [80.27532, 13.08152], [80.27527, 13.08149], [80.27524, 13.08144], [80.27525, 13.08117], [80.27529, 13.08069], [80.27534, 13.07998], [80.27534, 13.07973], [80.27529, 13.07939], [80.27518, 13.07885], [80.27519, 13.07876], [80.27522, 13.07867], [80.27528, 13.07856], [80.27537, 13.07845], [80.27544, 13.07841], [80.27573, 13.0783], [80.27606, 13.07819], [80.27616, 13.07807], [80.27622, 13.07786], [80.27633, 13.07542], [80.27642, 13.0742], [80.27647, 13.0738], [80.27652, 13.0737], [80.27589, 13.07309], [80.27512, 13.0724], [80.27469, 13.072], [80.2745, 13.07174], [80.27445, 13.07158], [80.27435, 13.07127], [80.27416, 13.07087], [80.27399, 13.0707], [80.27385, 13.07056], [80.27337, 13.07014], [80.27259, 13.06953], [80.27249, 13.06943], [80.27226, 13.06916], [80.27206, 13.06877], [80.27187, 13.0685], [80.27176, 13.0684], [80.27163, 13.06828], [80.27125, 13.06802], [80.27103, 13.06785], [80.27027, 13.06708], [80.2698, 13.06667], [80.26956, 13.06651], [80.26938, 13.06643], [80.26918, 13.06637], [80.26875, 13.06633], [80.26847, 13.06633], [80.26839, 13.06629], [80.26787, 13.06595], [80.2663, 13.06473], [80.26507, 13.06373], [80.26461, 13.06339], [80.26383, 13.06264], [80.26326, 13.06221], [80.26247, 13.06161], [80.26146, 13.06077], [80.26138, 13.06069], [80.2599, 13.05949], [80.25902, 13.05877], [80.25836, 13.05824], [80.25771, 13.05768], [80.25776, 13.05662], [80.25761, 13.05659], [80.25728, 13.05652], [80.25717, 13.05649], [80.25715, 13.05648], [80.25689, 13.05642], [80.25667, 13.05639], [80.25651, 13.05639], [80.25625, 13.05618], [80.25454, 13.05494], [80.25417, 13.05463], [80.2538, 13.05434], [80.25188, 13.05295], [80.2508, 13.05214], [80.25071, 13.05206], [80.25037, 13.05167], [80.25027, 13.05152], [80.25014, 13.05117], [80.25001, 13.05052], [80.24997, 13.05022], [80.24988, 13.04957], [80.24984, 13.04934], [80.24977, 13.04874], [80.24966, 13.04846], [80.24954, 13.04828], [80.24924, 13.04791], [80.24875, 13.04744], [80.24865, 13.0473], [80.24858, 13.04713], [80.24855, 13.047], [80.2483, 13.04599], [80.24822, 13.04556], [80.24813, 13.04496], [80.24785, 13.04355], [80.24762, 13.04253], [80.2474, 13.0415], [80.2472, 13.04048], [80.24704, 13.03946], [80.24697, 13.0392], [80.24685, 13.03872], [80.24656, 13.03748], [80.24649, 13.03713], [80.24611, 13.03555], [80.24606, 13.03533], [80.24592, 13.03504], [80.24581, 13.03491], [80.24567, 13.03478], [80.24489, 13.03416], [80.24462, 13.03396], [80.24429, 13.03373], [80.24299, 13.03274], [80.24254, 13.03244], [80.24229, 13.03229], [80.24141, 13.03181], [80.24121, 13.0317], [80.24112, 13.03166], [80.24019, 13.03123], [80.23974, 13.031], [80.23785, 13.02991], [80.23735, 13.0296], [80.23706, 13.02936], [80.23657, 13.02892], [80.23562, 13.02808], [80.23548, 13.02796], [80.2348, 13.02759], [80.23306, 13.02657], [80.2326, 13.02635], [80.23236, 13.02627], [80.23215, 13.02622], [80.2314, 13.02603], [80.23108, 13.02592], [80.23089, 13.02586], [80.23051, 13.02571], [80.23024, 13.02557], [80.22973, 13.02518], [80.22835, 13.02408], [80.22809, 13.02386], [80.22772, 13.02352], [80.22757, 13.02338], [80.22631, 13.02197], [80.22569, 13.02114], [80.22513, 13.02039], [80.22497, 13.02023], [80.22468, 13.01979], [80.22459, 13.01965], [80.22452, 13.01949], [80.22446, 13.01919], [80.22447, 13.01893], [80.22514, 13.01725], [80.22537, 13.01666], [80.22545, 13.01641], [80.22569, 13.01577], [80.22622, 13.01442], [80.22641, 13.01392], [80.22677, 13.01294], [80.22751, 13.01108], [80.22792, 13.01013], [80.22796, 13.00986], [80.22794, 13.00965], [80.22789, 13.00958], [80.22779, 13.00953], [80.22769, 13.00952], [80.22747, 13.00959], [80.22629, 13.01014], [80.22615, 13.01018], [80.22607, 13.01018], [80.22541, 13.0105], [80.22519, 13.01061], [80.22492, 13.01074], [80.22486, 13.01075], [80.22467, 13.01083], [80.22358, 13.01129], [80.22204, 13.01192], [80.22198, 13.01194], [80.22196, 13.0119], [80.22136, 13.01211], [80.22113, 13.01219], [80.22101, 13.01216], [80.22021, 13.01189], [80.21913, 13.01155], [80.21816, 13.01123], [80.21773, 13.01106], [80.21689, 13.01073], [80.21656, 13.01056], [80.21619, 13.01039], [80.21618, 13.01034], [80.21613, 13.01029], [80.21601, 13.01021], [80.21542, 13.00995], [80.21501, 13.00972], [80.21487, 13.00962], [80.21468, 13.00946], [80.21413, 13.00903], [80.21362, 13.00864], [80.21343, 13.00842], [80.21332, 13.00823], [80.21331, 13.00823], [80.21321, 13.00803], [80.21296, 13.00771], [80.21291, 13.00763], [80.21285, 13.00747], [80.21275, 13.00692], [80.21274, 13.00682], [80.21275, 13.00661], [80.21277, 13.00642], [80.21294, 13.00603], [80.213, 13.00587], [80.21297, 13.00571], [80.21293, 13.00562], [80.21283, 13.00553], [80.21263, 13.00522], [80.2123, 13.00467], [80.21227, 13.0046], [80.2122, 13.00445], [80.21209, 13.00411], [80.21201, 13.00378], [80.21201, 13.00372], [80.21169, 13.00369], [80.2115, 13.00369], [80.21117, 13.00374], [80.21081, 13.00368], [80.20976, 13.00355], [80.20952, 13.00356], [80.20881, 13.00371], [80.20871, 13.00374], [80.20865, 13.0038], [80.2086, 13.0039], [80.20861, 13.00405], [80.20932, 13.00566], [80.20954, 13.00625], [80.2097, 13.00682], [80.20979, 13.00722], [80.20998, 13.00808], [80.20996, 13.00816], [80.20991, 13.00822], [80.20984, 13.00827], [80.20972, 13.00822], [80.20946, 13.00813], [80.20919, 13.00805], [80.20866, 13.00798], [80.20706, 13.00774], [80.20595, 13.00761], [80.20589, 13.00756], [80.20565, 13.00748], [80.20535, 13.00739], [80.20493, 13.00723], [80.2048, 13.0073], [80.20472, 13.00731], [80.20424, 13.00728], [80.20414, 13.00728], [80.20407, 13.00721], [80.20389, 13.00701], [80.20372, 13.00684], [80.20364, 13.00672], [80.2035, 13.00649], [80.20345, 13.00633], [80.20315, 13.00611], [80.20283, 13.00591], [80.20246, 13.00573], [80.20223, 13.00563], [80.20205, 13.00551], [80.20185, 13.00538], [80.20172, 13.00526], [80.20159, 13.00511], [80.20144, 13.005], [80.20135, 13.00486], [80.20121, 13.00459], [80.20109, 13.00417], [80.20089, 13.00341], [80.20075, 13.00282], [80.20057, 13.00233], [80.20045, 13.00216], [80.2003, 13.00201], [80.20005, 13.00184], [80.1998, 13.00179], [80.19944, 13.00174], [80.19913, 13.00172], [80.19894, 13.00175], [80.19825, 13.00186], [80.19731, 13.00197], [80.19722, 13.00198], [80.19695, 13.00195], [80.19667, 13.00186], [80.19633, 13.00164], [80.196, 13.00139], [80.19447, 13.00017], [80.19371, 12.99957], [80.19294, 12.99899], [80.19214, 12.99833], [80.19119, 12.99759], [80.19054, 12.99709], [80.19013, 12.99673], [80.18967, 12.99628], [80.18913, 12.99585], [80.18893, 12.99572], [80.18798, 12.99522], [80.18733, 12.99488], [80.18631, 12.99438], [80.18545, 12.99396], [80.18471, 12.99352], [80.18368, 12.99297], [80.18307, 12.99262], [80.18277, 12.99241], [80.18225, 12.99205], [80.18087, 12.99101], [80.17964, 12.99002], [80.17924, 12.98969], [80.17892, 12.98947], [80.17791, 12.98865], [80.17731, 12.98822], [80.17593, 12.98725], [80.17582, 12.98718], [80.17427, 12.98611], [80.17214, 12.98468], [80.17102, 12.984], [80.1683, 12.98235], [80.16671, 12.98142], [80.16575, 12.98086], [80.16531, 12.98063], [80.16505, 12.98052], [80.16474, 12.98039], [80.16401, 12.98016], [80.1631, 12.97991], [80.16288, 12.97983], [80.16254, 12.97968], [80.16211, 12.9794], [80.1622, 12.97931], [80.16211, 12.9794], [80.16166, 12.9791], [80.16007, 12.97798], [80.15894, 12.97721], [80.15717, 12.97607], [80.15604, 12.97528], [80.15415, 12.97398], [80.15197, 12.97253], [80.15163, 12.97223], [80.15151, 12.9721], [80.1513, 12.97184], [80.15108, 12.97143], [80.15051, 12.97025], [80.15017, 12.96954], [80.1501, 12.96937], [80.14983, 12.96878], [80.14949, 12.96811], [80.14918, 12.9674], [80.14886, 12.96674], [80.14842, 12.96582], [80.14764, 12.96445], [80.14715, 12.96357], [80.14572, 12.96098], [80.14535, 12.96028], [80.144, 12.95773], [80.14366, 12.95707], [80.14341, 12.95658], [80.14296, 12.95575], [80.14253, 12.95492], [80.14175, 12.95349], [80.14143, 12.95292], [80.14134, 12.95278], [80.14092, 12.95225], [80.14049, 12.95167], [80.13904, 12.94979], [80.1384, 12.94908], [80.13785, 12.94834], [80.13693, 12.94704], [80.13542, 12.94508], [80.13463, 12.94406], [80.13441, 12.9438], [80.13361, 12.94296], [80.13319, 12.94253], [80.13309, 12.94244], [80.13224, 12.94162], [80.13146, 12.94087], [80.13096, 12.94032], [80.13073, 12.94013], [80.13047, 12.93986], [80.12986, 12.93919], [80.12834, 12.93743], [80.12804, 12.9371], [80.12706, 12.93597], [80.12528, 12.93403], [80.12465, 12.93341], [80.12106, 12.92987], [80.11778, 12.93056], [80.11756, 12.92841], [80.11913, 12.92827], [80.11883, 12.92798]]}}]}