{"type": "FeatureCollection", "features": [{"type": "Feature", "properties": {"route_name": "B70CT", "stop_id": "BJjcRhiE", "name": "Devi Eswari Nagar", "city": "CHENNAI"}, "geometry": {"type": "Point", "coordinates": [80.14210279731196, 13.139999617050654]}}, {"type": "Feature", "properties": {"route_name": "B70CT", "stop_id": "EaDTtGYp", "name": "Thendral Nagar", "city": "CHENNAI"}, "geometry": {"type": "Point", "coordinates": [80.14190238793981, 13.136851902079313]}}, {"type": "Feature", "properties": {"route_name": "B70CT", "stop_id": "jUsnmWea", "name": "Tea Kadai Saraswati Nagar", "city": "CHENNAI"}, "geometry": {"type": "Point", "coordinates": [80.1413582908724, 13.134420476614409]}}, {"type": "Feature", "properties": {"route_name": "B70CT", "stop_id": "JcXDDijg", "name": "Saraswathi Nagar", "city": "CHENNAI"}, "geometry": {"type": "Point", "coordinates": [80.14048375617313, 13.132395921873115]}}, {"type": "Feature", "properties": {"route_name": "B70CT", "stop_id": "IfTbUocE", "name": "Saraswathi Nagar CTH Salai", "city": "CHENNAI"}, "geometry": {"type": "Point", "coordinates": [80.13987862294346, 13.12807361272438]}}, {"type": "Feature", "properties": {"route_name": "B70CT", "stop_id": "xqQnPHkt", "name": "Stedford Hospital", "city": "CHENNAI"}, "geometry": {"type": "Point", "coordinates": [80.1436556437576, 13.124488178779586]}}, {"type": "Feature", "properties": {"route_name": "B70CT", "stop_id": "Plxavose", "name": "Raaki Theatre", "city": "CHENNAI"}, "geometry": {"type": "Point", "coordinates": [80.14861108973128, 13.122222915040638]}}, {"type": "Feature", "properties": {"route_name": "B70CT", "stop_id": "QpprBOSr", "name": "Ambattur OT Bus Stand", "city": "CHENNAI"}, "geometry": {"type": "Point", "coordinates": [80.15007887148772, 13.119684942237221]}}, {"type": "Feature", "properties": {"route_name": "B70CT", "stop_id": "FYhykdTj", "name": "Uzhavar Santhai", "city": "CHENNAI"}, "geometry": {"type": "Point", "coordinates": [80.14802145634985, 13.115318451229832]}}, {"type": "Feature", "properties": {"route_name": "B70CT", "stop_id": "SOVcCDqR", "name": "Canara Bank", "city": "CHENNAI"}, "geometry": {"type": "Point", "coordinates": [80.15226541093693, 13.110403046158668]}}, {"type": "Feature", "properties": {"route_name": "B70CT", "stop_id": "bPdCVhrp", "name": "Dr BR Ambedkar Statue", "city": "CHENNAI"}, "geometry": {"type": "Point", "coordinates": [80.15232173812433, 13.107834319548227]}}, {"type": "Feature", "properties": {"route_name": "B70CT", "stop_id": "LhgNVAOU", "name": "Dunlop", "city": "CHENNAI"}, "geometry": {"type": "Point", "coordinates": [80.1523700587012, 13.10617659968523]}}, {"type": "Feature", "properties": {"route_name": "B70CT", "stop_id": "RinxBkUZ", "name": "TI Miller", "city": "CHENNAI"}, "geometry": {"type": "Point", "coordinates": [80.15645534211137, 13.103835475795279]}}, {"type": "Feature", "properties": {"route_name": "B70CT", "stop_id": "YpVxAvQG", "name": "Telephone Exchange", "city": "CHENNAI"}, "geometry": {"type": "Point", "coordinates": [80.16233215169586, 13.101555514854645]}}, {"type": "Feature", "properties": {"route_name": "B70CT", "stop_id": "YJykDsrc", "name": "Ambattur Industrial Estate", "city": "CHENNAI"}, "geometry": {"type": "Point", "coordinates": [80.17032620718533, 13.099830856686363]}}, {"type": "Feature", "properties": {"route_name": "B70CT", "stop_id": "fcSUqaEW", "name": "Mannurpet", "city": "CHENNAI"}, "geometry": {"type": "Point", "coordinates": [80.17514709452757, 13.098279196878257]}}, {"type": "Feature", "properties": {"route_name": "B70CT", "stop_id": "isWzWnoW", "name": "Britannia Bus Stop Padi", "city": "CHENNAI"}, "geometry": {"type": "Point", "coordinates": [80.1806570432027, 13.09829331883448]}}, {"type": "Feature", "properties": {"route_name": "B70CT", "stop_id": "EzivGHuE", "name": "Yadhava Street", "city": "CHENNAI"}, "geometry": {"type": "Point", "coordinates": [80.18487886591106, 13.099416843963256]}}, {"type": "Feature", "properties": {"route_name": "B70CT", "stop_id": "RYTcAdhr", "name": "Korrattur Signal Or East Avenue", "city": "CHENNAI"}, "geometry": {"type": "Point", "coordinates": [80.18684056887321, 13.09988204237078]}}, {"type": "Feature", "properties": {"route_name": "B70CT", "stop_id": "yLFlKjKg", "name": "Padi Lucas TVS", "city": "CHENNAI"}, "geometry": {"type": "Point", "coordinates": [80.18980611106076, 13.101293500280995]}}, {"type": "Feature", "properties": {"route_name": "B70CT", "stop_id": "qGnNRXVR", "name": "Anna Nagar West Depot", "city": "CHENNAI"}, "geometry": {"type": "Point", "coordinates": [80.19875925408053, 13.09401835540949]}}, {"type": "Feature", "properties": {"route_name": "B70CT", "stop_id": "TcEVvOUM", "name": "Thirumangalam", "city": "CHENNAI"}, "geometry": {"type": "Point", "coordinates": [80.19873013740937, 13.090757158375393]}}, {"type": "Feature", "properties": {"route_name": "B70CT", "stop_id": "TCqyxHhF", "name": "CPWD Quarters", "city": "CHENNAI"}, "geometry": {"type": "Point", "coordinates": [80.19871929521139, 13.082247031161224]}}, {"type": "Feature", "properties": {"route_name": "B70CT", "stop_id": "AszcEtOu", "name": "Koyambedu Chathiram", "city": "CHENNAI"}, "geometry": {"type": "Point", "coordinates": [80.20035161971282, 13.073937556098661]}}, {"type": "Feature", "properties": {"route_name": "B70CT", "stop_id": "BpAiVnps", "name": "CMBT Koyembedu Bus Depot", "city": "CHENNAI"}, "geometry": {"type": "Point", "coordinates": [80.20518932458458, 13.068981607807045]}}, {"type": "Feature", "properties": {"route_name": "B70CT", "stop_id": "fmQEzQWV", "name": "MMDA Colony Road Junction", "city": "CHENNAI"}, "geometry": {"type": "Point", "coordinates": [80.21126128835749, 13.06518054252823]}}, {"type": "Feature", "properties": {"route_name": "B70CT", "stop_id": "IubGYoNi", "name": "Thirunagar", "city": "CHENNAI"}, "geometry": {"type": "Point", "coordinates": [80.21166068, 13.05789635]}}, {"type": "Feature", "properties": {"route_name": "B70CT", "stop_id": "jIerKxIb", "name": "Vadapalani", "city": "CHENNAI"}, "geometry": {"type": "Point", "coordinates": [80.21239284135243, 13.047240670280491]}}, {"type": "Feature", "properties": {"route_name": "B70CT", "stop_id": "wDpyEsxh", "name": "Ashok Nagar Canara Bank", "city": "CHENNAI"}, "geometry": {"type": "Point", "coordinates": [80.21241378154525, 13.040150388883035]}}, {"type": "Feature", "properties": {"route_name": "B70CT", "stop_id": "vSdfqYeK", "name": "Ashok Pillar", "city": "CHENNAI"}, "geometry": {"type": "Point", "coordinates": [80.21208679, 13.03354348]}}, {"type": "Feature", "properties": {"route_name": "B70CT", "stop_id": "QdnKSSsO", "name": "KK Nagar Telephone Exchange Jaffarkhanpet", "city": "CHENNAI"}, "geometry": {"type": "Point", "coordinates": [80.20959417283757, 13.031601513770136]}}, {"type": "Feature", "properties": {"route_name": "B70CT", "stop_id": "KjuJaNsu", "name": "Kalaimagal Nagar", "city": "CHENNAI"}, "geometry": {"type": "Point", "coordinates": [80.20702986, 13.02456277]}}, {"type": "Feature", "properties": {"route_name": "B70CT", "stop_id": "HcPkwFHM", "name": "Ekkattuthangal Or Ambal Nagar", "city": "CHENNAI"}, "geometry": {"type": "Point", "coordinates": [80.20635784175875, 13.019221472051377]}}, {"type": "Feature", "properties": {"route_name": "B70CT", "stop_id": "svgtEcQx", "name": "CIPET", "city": "CHENNAI"}, "geometry": {"type": "Point", "coordinates": [80.20484126, 13.01454542]}}, {"type": "Feature", "properties": {"route_name": "B70CT", "stop_id": "mnkgCFDT", "name": "Guindy Bus Terminus", "city": "CHENNAI"}, "geometry": {"type": "Point", "coordinates": [80.21114278309233, 13.009411553087547]}}, {"type": "Feature", "properties": {"name": "B70CT"}, "geometry": {"type": "LineString", "coordinates": [[80.14206, 13.14], [80.14199, 13.13932], [80.14192, 13.13924], [80.14188, 13.1392], [80.14188, 13.13868], [80.14186, 13.13736], [80.14188, 13.13685], [80.14191, 13.13587], [80.14189, 13.13575], [80.14167, 13.13521], [80.14153, 13.13482], [80.14135, 13.13446], [80.14133, 13.13443], [80.14101, 13.13365], [80.14065, 13.13291], [80.14046, 13.13241], [80.13984, 13.13103], [80.13957, 13.13043], [80.13935, 13.12984], [80.13922, 13.12952], [80.13908, 13.12916], [80.13902, 13.12906], [80.1395, 13.12845], [80.13981, 13.12803], [80.1408, 13.12669], [80.1412, 13.12619], [80.14146, 13.12592], [80.14162, 13.12579], [80.14331, 13.1247], [80.14364, 13.12447], [80.1456, 13.12328], [80.14686, 13.12252], [80.14703, 13.12245], [80.14713, 13.12243], [80.14728, 13.12243], [80.14759, 13.12249], [80.14788, 13.12257], [80.14814, 13.12262], [80.14831, 13.12268], [80.14844, 13.12274], [80.1485, 13.12274], [80.14856, 13.12266], [80.14857, 13.12258], [80.14856, 13.12248], [80.14859, 13.12235], [80.14854, 13.12224], [80.14853, 13.12193], [80.14858, 13.12149], [80.1486, 13.12142], [80.14874, 13.12113], [80.14901, 13.12067], [80.14913, 13.12055], [80.14952, 13.12021], [80.14977, 13.11996], [80.14985, 13.11984], [80.1501, 13.11981], [80.14985, 13.11984], [80.14988, 13.11968], [80.14986, 13.11929], [80.14959, 13.1179], [80.14952, 13.11769], [80.14944, 13.11757], [80.14932, 13.11742], [80.14874, 13.11694], [80.14839, 13.11664], [80.14822, 13.11646], [80.14812, 13.11634], [80.14804, 13.11619], [80.14796, 13.11602], [80.14794, 13.11591], [80.14789, 13.11548], [80.14789, 13.11534], [80.14786, 13.11521], [80.14795, 13.11497], [80.14814, 13.11448], [80.14828, 13.11408], [80.14839, 13.11381], [80.14847, 13.11368], [80.14858, 13.11355], [80.14872, 13.11344], [80.14898, 13.11335], [80.1492, 13.11336], [80.14934, 13.11334], [80.14966, 13.11327], [80.14983, 13.11321], [80.14999, 13.11313], [80.15007, 13.11306], [80.15024, 13.11284], [80.15055, 13.11229], [80.15066, 13.11217], [80.15082, 13.11204], [80.15149, 13.11151], [80.15163, 13.11137], [80.15171, 13.11125], [80.1518, 13.11107], [80.15188, 13.11083], [80.15196, 13.11067], [80.15207, 13.11054], [80.15223, 13.11037], [80.15233, 13.11021], [80.15232, 13.10993], [80.15228, 13.10964], [80.15224, 13.10912], [80.15224, 13.10885], [80.15226, 13.10856], [80.15227, 13.10827], [80.15228, 13.10783], [80.15235, 13.10618], [80.15239, 13.10574], [80.15247, 13.10548], [80.1526, 13.10519], [80.15282, 13.10494], [80.15326, 13.10464], [80.15375, 13.1044], [80.15412, 13.10426], [80.15473, 13.1041], [80.15543, 13.10396], [80.15644, 13.1037], [80.15643, 13.10371], [80.15656, 13.10368], [80.15736, 13.10352], [80.15765, 13.1034], [80.15808, 13.10317], [80.15854, 13.10275], [80.15926, 13.10197], [80.1597, 13.10159], [80.15988, 13.1015], [80.16031, 13.10148], [80.16161, 13.10151], [80.1623, 13.10148], [80.16232, 13.10147], [80.16286, 13.10138], [80.16322, 13.10132], [80.16366, 13.1012], [80.16467, 13.10087], [80.1664, 13.10032], [80.16705, 13.10013], [80.16781, 13.10006], [80.16951, 13.0999], [80.17006, 13.09981], [80.17032, 13.09979], [80.17112, 13.09964], [80.17234, 13.09923], [80.1731, 13.09895], [80.17412, 13.09851], [80.17456, 13.09835], [80.17496, 13.09825], [80.17514, 13.09822], [80.17552, 13.09819], [80.17585, 13.09818], [80.17624, 13.09814], [80.1766, 13.09805], [80.17699, 13.09799], [80.17758, 13.09792], [80.1782, 13.09788], [80.17866, 13.09788], [80.17922, 13.09793], [80.17948, 13.09797], [80.18023, 13.09815], [80.18066, 13.09827], [80.18174, 13.09852], [80.1827, 13.09873], [80.18377, 13.09905], [80.18462, 13.09932], [80.18489, 13.0994], [80.18685, 13.09985], [80.18688, 13.09985], [80.18715, 13.09992], [80.18758, 13.10006], [80.18782, 13.10014], [80.18819, 13.10028], [80.18857, 13.10045], [80.18888, 13.10064], [80.18916, 13.10083], [80.1895, 13.10112], [80.18968, 13.10121], [80.18982, 13.10126], [80.19041, 13.10144], [80.19096, 13.10154], [80.19211, 13.10172], [80.19335, 13.10191], [80.19382, 13.10202], [80.19389, 13.10204], [80.1939, 13.10206], [80.19394, 13.10211], [80.19398, 13.10215], [80.19403, 13.10219], [80.19417, 13.10223], [80.19429, 13.10224], [80.19441, 13.1022], [80.19451, 13.10214], [80.19456, 13.1021], [80.19457, 13.10207], [80.19459, 13.10201], [80.19459, 13.10189], [80.19454, 13.10174], [80.19453, 13.10172], [80.19455, 13.10168], [80.19457, 13.10163], [80.19458, 13.10152], [80.19458, 13.10118], [80.1946, 13.10093], [80.19471, 13.10053], [80.19484, 13.10022], [80.19494, 13.10005], [80.19514, 13.09976], [80.19534, 13.09956], [80.19547, 13.09943], [80.19576, 13.09923], [80.19612, 13.09904], [80.19666, 13.09885], [80.19679, 13.09875], [80.19681, 13.09872], [80.1973, 13.09857], [80.19743, 13.09853], [80.19769, 13.09847], [80.19797, 13.09835], [80.19823, 13.09815], [80.19838, 13.09799], [80.19855, 13.09772], [80.19869, 13.09734], [80.19872, 13.09711], [80.19871, 13.09622], [80.19872, 13.0949], [80.19868, 13.09402], [80.19865, 13.0936], [80.19865, 13.09294], [80.19867, 13.09241], [80.19868, 13.09184], [80.19866, 13.09123], [80.19866, 13.09076], [80.19866, 13.09046], [80.19863, 13.09036], [80.19862, 13.09013], [80.19863, 13.08939], [80.19862, 13.08615], [80.19863, 13.08464], [80.19859, 13.08245], [80.1986, 13.0823], [80.19863, 13.08221], [80.19861, 13.08207], [80.19862, 13.08128], [80.19866, 13.08056], [80.19873, 13.08002], [80.19884, 13.07905], [80.19886, 13.07844], [80.19904, 13.07703], [80.19916, 13.07604], [80.19932, 13.07518], [80.19953, 13.07474], [80.19974, 13.07447], [80.2, 13.07417], [80.20029, 13.07388], [80.20163, 13.07275], [80.20315, 13.07148], [80.20407, 13.07067], [80.20557, 13.06963], [80.2058, 13.06952], [80.20567, 13.06931], [80.20553, 13.0692], [80.20542, 13.06906], [80.20541, 13.06893], [80.20542, 13.06881], [80.20513, 13.06894], [80.20515, 13.06894], [80.20487, 13.06909], [80.20474, 13.06915], [80.20477, 13.06945], [80.20482, 13.06964], [80.2049, 13.06978], [80.20507, 13.06997], [80.20576, 13.06957], [80.20618, 13.06937], [80.20648, 13.0692], [80.20692, 13.06895], [80.20712, 13.06881], [80.20771, 13.06836], [80.20816, 13.068], [80.20947, 13.06714], [80.20971, 13.06695], [80.20994, 13.06669], [80.21045, 13.06612], [80.21076, 13.06574], [80.21117, 13.06517], [80.21118, 13.06514], [80.21119, 13.06514], [80.21153, 13.06448], [80.21166, 13.06376], [80.21172, 13.06278], [80.21173, 13.06205], [80.21165, 13.05999], [80.21158, 13.05865], [80.21157, 13.0579], [80.21153, 13.05544], [80.21154, 13.05472], [80.21156, 13.05454], [80.21183, 13.05328], [80.21201, 13.05271], [80.21202, 13.0525], [80.21213, 13.05196], [80.21214, 13.05171], [80.21212, 13.05104], [80.21206, 13.05032], [80.21204, 13.0496], [80.21207, 13.04906], [80.21214, 13.0485], [80.21229, 13.04723], [80.21228, 13.04723], [80.21238, 13.04517], [80.21239, 13.04469], [80.21239, 13.04446], [80.21235, 13.04334], [80.21235, 13.04288], [80.21234, 13.04188], [80.21237, 13.04015], [80.2124, 13.03905], [80.21239, 13.03824], [80.2124, 13.03744], [80.21235, 13.03595], [80.21229, 13.0353], [80.21224, 13.03482], [80.21208, 13.03417], [80.21198, 13.03355], [80.21176, 13.03199], [80.21174, 13.03189], [80.21119, 13.03198], [80.21018, 13.03211], [80.20967, 13.0322], [80.20962, 13.03202], [80.2095, 13.03163], [80.20876, 13.02904], [80.20863, 13.02861], [80.20848, 13.02816], [80.20831, 13.02773], [80.20797, 13.02718], [80.20763, 13.02662], [80.20725, 13.02592], [80.20718, 13.02577], [80.20708, 13.02549], [80.2069, 13.02467], [80.20688, 13.02459], [80.20665, 13.02332], [80.20648, 13.02252], [80.20642, 13.02207], [80.20643, 13.02129], [80.20642, 13.02065], [80.20638, 13.01982], [80.20634, 13.01949], [80.20628, 13.01924], [80.2058, 13.01772], [80.20544, 13.01666], [80.20503, 13.01562], [80.2048, 13.01491], [80.20469, 13.01471], [80.2041, 13.01294], [80.20386, 13.01135], [80.20377, 13.01004], [80.20385, 13.00884], [80.20411, 13.0084], [80.20533, 13.00783], [80.20714, 13.00791], [80.20892, 13.00819], [80.21032, 13.00853], [80.21072, 13.00904], [80.21105, 13.00947], [80.21112, 13.00943]]}}]}