{"type": "FeatureCollection", "features": [{"type": "Feature", "properties": {"route_name": "202", "stop_id": "ogOCBKAf", "name": "Avadi Terminal", "city": "CHENNAI"}, "geometry": {"type": "Point", "coordinates": [80.10204658205703, 13.120113061821396]}}, {"type": "Feature", "properties": {"route_name": "202", "stop_id": "dWLNxRJP", "name": "Avadi Check Post", "city": "CHENNAI"}, "geometry": {"type": "Point", "coordinates": [80.09453817956704, 13.119329352991436]}}, {"type": "Feature", "properties": {"route_name": "202", "stop_id": "ZOuLYtJj", "name": "Kavarapalayam", "city": "CHENNAI"}, "geometry": {"type": "Point", "coordinates": [80.0862265496803, 13.118734304116337]}}, {"type": "Feature", "properties": {"route_name": "202", "stop_id": "dZoxKDmD", "name": "Sekkadu", "city": "CHENNAI"}, "geometry": {"type": "Point", "coordinates": [80.07960858809611, 13.119261962312038]}}, {"type": "Feature", "properties": {"route_name": "202", "stop_id": "FoxIDeQY", "name": "Hindu College", "city": "CHENNAI"}, "geometry": {"type": "Point", "coordinates": [80.07380072796752, 13.119134716103817]}}, {"type": "Feature", "properties": {"route_name": "202", "stop_id": "PHuvYJrP", "name": "Vao Office", "city": "CHENNAI"}, "geometry": {"type": "Point", "coordinates": [80.06758647829963, 13.120150243171528]}}, {"type": "Feature", "properties": {"route_name": "202", "stop_id": "ngNzeSzC", "name": "Pattabiram", "city": "CHENNAI"}, "geometry": {"type": "Point", "coordinates": [80.06492902234822, 13.120903523352926]}}, {"type": "Feature", "properties": {"route_name": "202", "stop_id": "alaJPSTW", "name": "Thandurai", "city": "CHENNAI"}, "geometry": {"type": "Point", "coordinates": [80.06329329447749, 13.115859142835808]}}, {"type": "Feature", "properties": {"route_name": "202", "stop_id": "pGpZhRvq", "name": "Thandurai Palla Street", "city": "CHENNAI"}, "geometry": {"type": "Point", "coordinates": [80.06240435858967, 13.112791959203504]}}, {"type": "Feature", "properties": {"route_name": "202", "stop_id": "XeinAhyy", "name": "Thandurai Pond", "city": "CHENNAI"}, "geometry": {"type": "Point", "coordinates": [80.06100447515723, 13.109560611563278]}}, {"type": "Feature", "properties": {"route_name": "202", "stop_id": "MlYFoaez", "name": "Annaikattucherry", "city": "CHENNAI"}, "geometry": {"type": "Point", "coordinates": [80.05845381605809, 13.104757902200447]}}, {"type": "Feature", "properties": {"route_name": "202", "stop_id": "UXEWVZzP", "name": "Amudurmedu", "city": "CHENNAI"}, "geometry": {"type": "Point", "coordinates": [80.05798091027339, 13.10033161222955]}}, {"type": "Feature", "properties": {"route_name": "202", "stop_id": "clVXMHJf", "name": "JJ Nagar Thandurai", "city": "CHENNAI"}, "geometry": {"type": "Point", "coordinates": [80.05776869161127, 13.096293499413978]}}, {"type": "Feature", "properties": {"route_name": "202", "stop_id": "nfCzcTzh", "name": "Sitharkadu Bypass", "city": "CHENNAI"}, "geometry": {"type": "Point", "coordinates": [80.05735290647931, 13.089503783408068]}}, {"type": "Feature", "properties": {"route_name": "202", "stop_id": "riNnsYaQ", "name": "Varadharajapuram", "city": "CHENNAI"}, "geometry": {"type": "Point", "coordinates": [80.08270115500363, 13.0527892785233]}}, {"type": "Feature", "properties": {"route_name": "202", "stop_id": "ykQYJtnJ", "name": "Malayambakkam Stalin Nagar", "city": "CHENNAI"}, "geometry": {"type": "Point", "coordinates": [80.09121598180377, 13.028505231558064]}}, {"type": "Feature", "properties": {"route_name": "202", "stop_id": "UrOuumcZ", "name": "Chikkarayapuram", "city": "CHENNAI"}, "geometry": {"type": "Point", "coordinates": [80.09454110337413, 13.01465629302559]}}, {"type": "Feature", "properties": {"route_name": "202", "stop_id": "BaMKWhPW", "name": "Kundrathur Lake View Road", "city": "CHENNAI"}, "geometry": {"type": "Point", "coordinates": [80.09181849870879, 13.007691958450811]}}, {"type": "Feature", "properties": {"route_name": "202", "stop_id": "PrbXVSIs", "name": "Kundrathur Natham Murugan Temple", "city": "CHENNAI"}, "geometry": {"type": "Point", "coordinates": [80.08998510244282, 12.982222033961328]}}, {"type": "Feature", "properties": {"route_name": "202", "stop_id": "MEUYJwAC", "name": "Thirumudivakkam SIDCO", "city": "CHENNAI"}, "geometry": {"type": "Point", "coordinates": [80.09032412758108, 12.969277254065416]}}, {"type": "Feature", "properties": {"route_name": "202", "stop_id": "OTWTQCls", "name": "Pazhanthandalam", "city": "CHENNAI"}, "geometry": {"type": "Point", "coordinates": [80.0907602124422, 12.960100476077354]}}, {"type": "Feature", "properties": {"route_name": "202", "stop_id": "TqATzVvV", "name": "Erumaiyur", "city": "CHENNAI"}, "geometry": {"type": "Point", "coordinates": [80.08871515576948, 12.95211883653706]}}, {"type": "Feature", "properties": {"route_name": "202", "stop_id": "ZcOxufIN", "name": "Varadharajapuram Kishkinda", "city": "CHENNAI"}, "geometry": {"type": "Point", "coordinates": [80.0835787591684, 12.93868689785895]}}, {"type": "Feature", "properties": {"route_name": "202", "stop_id": "WQOJAyxG", "name": "Varadharajapuram Rayappa Nagar", "city": "CHENNAI"}, "geometry": {"type": "Point", "coordinates": [80.0779831505206, 12.923682016167461]}}, {"type": "Feature", "properties": {"route_name": "202", "stop_id": "KlSqKJQr", "name": "Madanapuram", "city": "CHENNAI"}, "geometry": {"type": "Point", "coordinates": [80.07723322016489, 12.915595227090087]}}, {"type": "Feature", "properties": {"route_name": "202", "stop_id": "qYsYtTjJ", "name": "Parwati Nagar", "city": "CHENNAI"}, "geometry": {"type": "Point", "coordinates": [80.08164478822016, 12.918335810611323]}}, {"type": "Feature", "properties": {"route_name": "202", "stop_id": "XpaxRhYo", "name": "Old Perungalathur or Ambedkar Statue", "city": "CHENNAI"}, "geometry": {"type": "Point", "coordinates": [80.08356154634316, 12.91911438945539]}}, {"type": "Feature", "properties": {"route_name": "202", "stop_id": "YfaruHLV", "name": "Gandhi Nagar", "city": "CHENNAI"}, "geometry": {"type": "Point", "coordinates": [80.0897709624868, 12.920980814399377]}}, {"type": "Feature", "properties": {"route_name": "202", "stop_id": "nIbIRswk", "name": "Barathi Nagar", "city": "CHENNAI"}, "geometry": {"type": "Point", "coordinates": [80.09250098702228, 12.921639539343058]}}, {"type": "Feature", "properties": {"route_name": "202", "stop_id": "zZZsLLct", "name": "Lakshmipuram", "city": "CHENNAI"}, "geometry": {"type": "Point", "coordinates": [80.10130619075517, 12.925559833206304]}}, {"type": "Feature", "properties": {"route_name": "202", "stop_id": "ojqTFFWy", "name": "Tambaram West Bus Stand", "city": "CHENNAI"}, "geometry": {"type": "Point", "coordinates": [80.11862628452741, 12.927652178598898]}}, {"type": "Feature", "properties": {"name": "202"}, "geometry": {"type": "LineString", "coordinates": [[80.10202, 13.11977], [80.10279, 13.11972], [80.10304, 13.11972], [80.10305, 13.11963], [80.10234, 13.11967], [80.10209, 13.11969], [80.10159, 13.11974], [80.10127, 13.11975], [80.10103, 13.11972], [80.10035, 13.11964], [80.09964, 13.11958], [80.09843, 13.11953], [80.09738, 13.11948], [80.09703, 13.11947], [80.09582, 13.11944], [80.09454, 13.11936], [80.0941, 13.11934], [80.09309, 13.11922], [80.09256, 13.11914], [80.09204, 13.11904], [80.09149, 13.11892], [80.09083, 13.11879], [80.09017, 13.11865], [80.08979, 13.11861], [80.08853, 13.11866], [80.08709, 13.11872], [80.08623, 13.11878], [80.0858, 13.11881], [80.08378, 13.11886], [80.08203, 13.11886], [80.08118, 13.11898], [80.07961, 13.11928], [80.07958, 13.11929], [80.079, 13.11935], [80.07874, 13.11935], [80.07624, 13.11923], [80.0743, 13.11914], [80.0738, 13.11916], [80.07203, 13.11921], [80.0717, 13.11925], [80.07103, 13.11935], [80.06977, 13.11962], [80.06926, 13.11974], [80.06866, 13.11991], [80.0676, 13.12018], [80.06681, 13.12041], [80.0658, 13.12069], [80.06529, 13.12082], [80.06494, 13.12093], [80.06451, 13.12109], [80.0624, 13.12208], [80.06242, 13.12192], [80.06246, 13.12183], [80.06252, 13.12178], [80.06261, 13.12175], [80.06296, 13.12173], [80.06306, 13.1217], [80.06338, 13.12156], [80.06404, 13.12125], [80.0645, 13.12102], [80.06462, 13.12093], [80.0647, 13.1208], [80.06472, 13.12072], [80.06471, 13.12058], [80.06451, 13.12012], [80.06386, 13.11885], [80.0637, 13.11841], [80.06354, 13.11762], [80.06324, 13.11599], [80.06321, 13.11588], [80.06294, 13.1146], [80.06282, 13.1138], [80.06254, 13.11315], [80.06245, 13.11297], [80.06235, 13.11284], [80.06231, 13.11277], [80.06225, 13.11261], [80.06218, 13.1123], [80.06208, 13.11195], [80.06194, 13.11148], [80.06183, 13.11129], [80.0617, 13.11111], [80.06143, 13.11041], [80.06136, 13.1102], [80.06127, 13.11005], [80.06097, 13.10968], [80.06093, 13.1096], [80.06091, 13.10957], [80.06061, 13.109], [80.06037, 13.10854], [80.05976, 13.10774], [80.05925, 13.10701], [80.05886, 13.10644], [80.05861, 13.10607], [80.05841, 13.10573], [80.05838, 13.10565], [80.05837, 13.10554], [80.05838, 13.10497], [80.0584, 13.10475], [80.05849, 13.10383], [80.0585, 13.1037], [80.05844, 13.1035], [80.05837, 13.10332], [80.05831, 13.10317], [80.05828, 13.10303], [80.05825, 13.10278], [80.05822, 13.10218], [80.05818, 13.10162], [80.05813, 13.10109], [80.05808, 13.10086], [80.05799, 13.10057], [80.05795, 13.10034], [80.05795, 13.10031], [80.05792, 13.09981], [80.05794, 13.09941], [80.05796, 13.09899], [80.05796, 13.09835], [80.05789, 13.09745], [80.05786, 13.09723], [80.05773, 13.09631], [80.05773, 13.0963], [80.05764, 13.09571], [80.05752, 13.09417], [80.05743, 13.09285], [80.05738, 13.09227], [80.05728, 13.0914], [80.05715, 13.09042], [80.05713, 13.09023], [80.05714, 13.09008], [80.05724, 13.08978], [80.05739, 13.08954], [80.05714, 13.08962], [80.05731, 13.08947], [80.05773, 13.08902], [80.05801, 13.08882], [80.05869, 13.08797], [80.06084, 13.08568], [80.06238, 13.08402], [80.06293, 13.08343], [80.06393, 13.08224], [80.06514, 13.08065], [80.06611, 13.07934], [80.0665, 13.0788], [80.0667, 13.07857], [80.06712, 13.07819], [80.06715, 13.0781], [80.06721, 13.07798], [80.06704, 13.07789], [80.06717, 13.07785], [80.06725, 13.0778], [80.06735, 13.0775], [80.06741, 13.07737], [80.06915, 13.07449], [80.07056, 13.07225], [80.07143, 13.0709], [80.07154, 13.07072], [80.07243, 13.06933], [80.07347, 13.06765], [80.07427, 13.06641], [80.07764, 13.06104], [80.07919, 13.05867], [80.08123, 13.05578], [80.0816, 13.05517], [80.08195, 13.05445], [80.08249, 13.05311], [80.08268, 13.05278], [80.08258, 13.05177], [80.08988, 13.03053], [80.0912, 13.0285], [80.09129, 13.02819], [80.09131, 13.02794], [80.09207, 13.02586], [80.09335, 13.02267], [80.09383, 13.02131], [80.09425, 13.02008], [80.09478, 13.01871], [80.09497, 13.0181], [80.09508, 13.01759], [80.09512, 13.01705], [80.09507, 13.01656], [80.095, 13.01616], [80.09461, 13.01511], [80.09462, 13.01508], [80.09451, 13.01467], [80.09432, 13.01428], [80.09429, 13.01427], [80.09395, 13.0135], [80.09351, 13.01242], [80.09324, 13.0117], [80.093, 13.01112], [80.09252, 13.0098], [80.09187, 13.00811], [80.09187, 13.00799], [80.09182, 13.00777], [80.09179, 13.0077], [80.0917, 13.00749], [80.09159, 13.00731], [80.09155, 13.00729], [80.09147, 13.00708], [80.09132, 13.00661], [80.09127, 13.00634], [80.09123, 13.00614], [80.09115, 13.00596], [80.09106, 13.00573], [80.09071, 13.00513], [80.09037, 13.00429], [80.08981, 13.00281], [80.08922, 13.00131], [80.08911, 13.00129], [80.08898, 13.00095], [80.08852, 12.9998], [80.08799, 12.99845], [80.08778, 12.99775], [80.08764, 12.99693], [80.08761, 12.99652], [80.08761, 12.99584], [80.08763, 12.99544], [80.08772, 12.99485], [80.08787, 12.9942], [80.08802, 12.99375], [80.08825, 12.99319], [80.08879, 12.99189], [80.089, 12.99128], [80.08915, 12.99078], [80.08932, 12.99001], [80.08939, 12.98935], [80.08944, 12.98864], [80.08951, 12.98745], [80.08954, 12.98698], [80.08963, 12.98691], [80.08966, 12.98642], [80.08976, 12.98489], [80.08994, 12.98222], [80.08999, 12.98053], [80.09009, 12.9751], [80.09013, 12.9745], [80.09021, 12.97414], [80.09027, 12.97379], [80.09018, 12.97293], [80.09022, 12.97113], [80.09023, 12.97039], [80.09026, 12.96927], [80.09037, 12.96715], [80.09041, 12.96696], [80.09046, 12.96655], [80.09044, 12.96619], [80.09041, 12.96599], [80.09042, 12.96521], [80.0905, 12.96266], [80.09061, 12.9601], [80.09063, 12.9592], [80.09062, 12.9585], [80.09055, 12.95774], [80.09048, 12.95736], [80.09036, 12.95696], [80.09004, 12.95607], [80.08927, 12.95398], [80.08859, 12.95216], [80.08723, 12.94862], [80.08601, 12.94534], [80.08471, 12.9419], [80.08408, 12.94011], [80.08382, 12.93954], [80.08352, 12.93871], [80.08275, 12.93663], [80.082, 12.93467], [80.0808, 12.9314], [80.07945, 12.92772], [80.07905, 12.92669], [80.078, 12.92386], [80.07794, 12.9237], [80.07791, 12.92361], [80.07766, 12.92289], [80.07764, 12.92271], [80.07746, 12.92208], [80.07705, 12.92063], [80.07657, 12.91888], [80.07635, 12.9181], [80.07617, 12.91753], [80.07599, 12.91702], [80.07579, 12.91638], [80.07573, 12.91588], [80.07575, 12.91569], [80.0758, 12.91562], [80.07594, 12.91556], [80.07652, 12.91555], [80.07723, 12.91554], [80.07805, 12.91552], [80.07822, 12.91555], [80.07832, 12.91558], [80.0786, 12.91573], [80.07894, 12.91601], [80.08085, 12.91796], [80.08094, 12.91803], [80.08116, 12.91813], [80.08165, 12.91832], [80.0822, 12.91854], [80.08301, 12.91882], [80.08355, 12.91904], [80.08358, 12.91905], [80.08477, 12.91947], [80.08515, 12.91956], [80.08627, 12.91974], [80.08662, 12.91977], [80.087, 12.9198], [80.08723, 12.91985], [80.08745, 12.9199], [80.08759, 12.91996], [80.08848, 12.92042], [80.08906, 12.92074], [80.08923, 12.92082], [80.08972, 12.92095], [80.08978, 12.92096], [80.09251, 12.92162], [80.09449, 12.92214], [80.09485, 12.92225], [80.09525, 12.9223], [80.09546, 12.92237], [80.09582, 12.92255], [80.09615, 12.92272], [80.09696, 12.92323], [80.0973, 12.92344], [80.09778, 12.92377], [80.09823, 12.92408], [80.0985, 12.92428], [80.09867, 12.92436], [80.09964, 12.92477], [80.09971, 12.9248], [80.10008, 12.92493], [80.10024, 12.92502], [80.10081, 12.92532], [80.10114, 12.92546], [80.10132, 12.92552], [80.10183, 12.92567], [80.10209, 12.92572], [80.10242, 12.92574], [80.10324, 12.92567], [80.10376, 12.92559], [80.10406, 12.92558], [80.10425, 12.92558], [80.10535, 12.92579], [80.10566, 12.92582], [80.10609, 12.92582], [80.10681, 12.92574], [80.10735, 12.92564], [80.10852, 12.92541], [80.11116, 12.92497], [80.11287, 12.92471], [80.11421, 12.92447], [80.11506, 12.9243], [80.11513, 12.92428], [80.1153, 12.92446], [80.11538, 12.92452], [80.11545, 12.92458], [80.11594, 12.92505], [80.1167, 12.92578], [80.11704, 12.92607], [80.11736, 12.92628], [80.11778, 12.92677], [80.11805, 12.92704], [80.11849, 12.92744], [80.11867, 12.92761]]}}]}