{"type": "FeatureCollection", "features": [{"type": "Feature", "properties": {"route_name": "32B", "stop_id": "NgDeDdfx", "name": "Korukkupet Bus Stand", "city": "CHENNAI"}, "geometry": {"type": "Point", "coordinates": [80.27727935, 13.11672905]}}, {"type": "Feature", "properties": {"route_name": "32B", "stop_id": "sjphZSiX", "name": "Kannan Street", "city": "CHENNAI"}, "geometry": {"type": "Point", "coordinates": [80.27711355109523, 13.114545027029974]}}, {"type": "Feature", "properties": {"route_name": "32B", "stop_id": "jBnsfrlR", "name": "Pencil Factory", "city": "CHENNAI"}, "geometry": {"type": "Point", "coordinates": [80.27783952, 13.11126106]}}, {"type": "Feature", "properties": {"route_name": "32B", "stop_id": "zGyJMIkT", "name": "Mint Bus Terminal Or Vallalar Nagar", "city": "CHENNAI"}, "geometry": {"type": "Point", "coordinates": [80.27999624, 13.1060348]}}, {"type": "Feature", "properties": {"route_name": "32B", "stop_id": "yolIeCeg", "name": "Stanley Hospital", "city": "CHENNAI"}, "geometry": {"type": "Point", "coordinates": [80.28438249586668, 13.105075135976971]}}, {"type": "Feature", "properties": {"route_name": "32B", "stop_id": "XEuSRnsw", "name": "Bharathi Arts College", "city": "CHENNAI"}, "geometry": {"type": "Point", "coordinates": [80.28684458334305, 13.103586920173074]}}, {"type": "Feature", "properties": {"route_name": "32B", "stop_id": "inRETCYL", "name": "Mannady Police Quarters", "city": "CHENNAI"}, "geometry": {"type": "Point", "coordinates": [80.28659178048804, 13.097674401460973]}}, {"type": "Feature", "properties": {"route_name": "32B", "stop_id": "LTDgdyOW", "name": "Loyer Square Or Univesity Club Minerva", "city": "CHENNAI"}, "geometry": {"type": "Point", "coordinates": [80.28617357595704, 13.093509586342794]}}, {"type": "Feature", "properties": {"route_name": "32B", "stop_id": "nprusgCY", "name": "Lone Square", "city": "CHENNAI"}, "geometry": {"type": "Point", "coordinates": [80.28574, 13.091069]}}, {"type": "Feature", "properties": {"route_name": "32B", "stop_id": "zVYhNTdK", "name": "Flower Bazzar", "city": "CHENNAI"}, "geometry": {"type": "Point", "coordinates": [80.28141873, 13.08750696]}}, {"type": "Feature", "properties": {"route_name": "32B", "stop_id": "xbiDwIOu", "name": "Payaigada Evening Bazar", "city": "CHENNAI"}, "geometry": {"type": "Point", "coordinates": [80.28017343, 13.08554921]}}, {"type": "Feature", "properties": {"route_name": "32B", "stop_id": "TShNRujB", "name": "Mgr Central Station Or Rajiv Gandhi Government General Hospital", "city": "CHENNAI"}, "geometry": {"type": "Point", "coordinates": [80.27666299527485, 13.081750493356726]}}, {"type": "Feature", "properties": {"route_name": "32B", "stop_id": "hxSTJhOz", "name": "Pallavan Salai", "city": "CHENNAI"}, "geometry": {"type": "Point", "coordinates": [80.27638522507527, 13.075417794179309]}}, {"type": "Feature", "properties": {"route_name": "32B", "stop_id": "rDSiGFpR", "name": "Simson Or Periyar Bridge", "city": "CHENNAI"}, "geometry": {"type": "Point", "coordinates": [80.27388174341809, 13.070529313285379]}}, {"type": "Feature", "properties": {"route_name": "32B", "stop_id": "gFAsBeQM", "name": "D1 Police Station", "city": "CHENNAI"}, "geometry": {"type": "Point", "coordinates": [80.27244713439109, 13.067990578513818]}}, {"type": "Feature", "properties": {"route_name": "32B", "stop_id": "BxuxHloR", "name": "Adham Market", "city": "CHENNAI"}, "geometry": {"type": "Point", "coordinates": [80.27384461507927, 13.065450084408027]}}, {"type": "Feature", "properties": {"route_name": "32B", "stop_id": "VMviwLNE", "name": "Triplicane Post Office", "city": "CHENNAI"}, "geometry": {"type": "Point", "coordinates": [80.27434632368147, 13.060490496735868]}}, {"type": "Feature", "properties": {"route_name": "32B", "stop_id": "XPasGtVj", "name": "Kelet High School", "city": "CHENNAI"}, "geometry": {"type": "Point", "coordinates": [80.27405236027357, 13.057291744204418]}}, {"type": "Feature", "properties": {"route_name": "32B", "stop_id": "fTOPrrgc", "name": "Ice House Police Station", "city": "CHENNAI"}, "geometry": {"type": "Point", "coordinates": [80.27371755440322, 13.052820895202263]}}, {"type": "Feature", "properties": {"route_name": "32B", "stop_id": "DRkcXziO", "name": "N K T Girls High School", "city": "CHENNAI"}, "geometry": {"type": "Point", "coordinates": [80.27500670944062, 13.052419473298178]}}, {"type": "Feature", "properties": {"route_name": "32B", "stop_id": "ppabfQGz", "name": "Swami Vivekananda House", "city": "CHENNAI"}, "geometry": {"type": "Point", "coordinates": [80.28088296237695, 13.050370120124452]}}, {"type": "Feature", "properties": {"name": "32B"}, "geometry": {"type": "LineString", "coordinates": [[80.27724, 13.11674], [80.27711, 13.11631], [80.27699, 13.11564], [80.27698, 13.11541], [80.27699, 13.11507], [80.27705, 13.11454], [80.27706, 13.11382], [80.27712, 13.11324], [80.27711, 13.11249], [80.27739, 13.11191], [80.27779, 13.11145], [80.27816, 13.11102], [80.27863, 13.11039], [80.2804, 13.10949], [80.2807, 13.10911], [80.28068, 13.10854], [80.28031, 13.10733], [80.28002, 13.10625], [80.27996, 13.10604], [80.27995, 13.10592], [80.28004, 13.10581], [80.28014, 13.10571], [80.28019, 13.10568], [80.28051, 13.10566], [80.28125, 13.10561], [80.28213, 13.1055], [80.28219, 13.10543], [80.28377, 13.10516], [80.28412, 13.10507], [80.28438, 13.10503], [80.28527, 13.10488], [80.28547, 13.10484], [80.28571, 13.10475], [80.28643, 13.10454], [80.28675, 13.10449], [80.28677, 13.1045], [80.28679, 13.1045], [80.28688, 13.10448], [80.28692, 13.10445], [80.28694, 13.1044], [80.28689, 13.1043], [80.28685, 13.10428], [80.28676, 13.10403], [80.28678, 13.10358], [80.28682, 13.10275], [80.28688, 13.10184], [80.28675, 13.09998], [80.28664, 13.09902], [80.28663, 13.09849], [80.28657, 13.09768], [80.28653, 13.09685], [80.28632, 13.09501], [80.2862, 13.09402], [80.28614, 13.09371], [80.28611, 13.09352], [80.2857, 13.09107], [80.28562, 13.09048], [80.28555, 13.09037], [80.28553, 13.09011], [80.28544, 13.08966], [80.28529, 13.08865], [80.28534, 13.08851], [80.28533, 13.08839], [80.28479, 13.08839], [80.28416, 13.08837], [80.28347, 13.08833], [80.28291, 13.08832], [80.28261, 13.08833], [80.28227, 13.08828], [80.28204, 13.08823], [80.28184, 13.08815], [80.28164, 13.08804], [80.28156, 13.08799], [80.28153, 13.08794], [80.2814, 13.08751], [80.28095, 13.08603], [80.28087, 13.08583], [80.28083, 13.08578], [80.28076, 13.08575], [80.28024, 13.0856], [80.28016, 13.08559], [80.27982, 13.08551], [80.27957, 13.08537], [80.27943, 13.08516], [80.27937, 13.08497], [80.27928, 13.08459], [80.27914, 13.08376], [80.27898, 13.08332], [80.27883, 13.08295], [80.27864, 13.08243], [80.27854, 13.08216], [80.27852, 13.08209], [80.27838, 13.08209], [80.27668, 13.0818], [80.27666, 13.08179], [80.27604, 13.08168], [80.27572, 13.08164], [80.2755, 13.08156], [80.27532, 13.08152], [80.27527, 13.08149], [80.27524, 13.08144], [80.27525, 13.08117], [80.27529, 13.08069], [80.27534, 13.07998], [80.27534, 13.07973], [80.27529, 13.07939], [80.27518, 13.07885], [80.27519, 13.07876], [80.27522, 13.07867], [80.27528, 13.07856], [80.27537, 13.07845], [80.27544, 13.07841], [80.27573, 13.0783], [80.27606, 13.07819], [80.27616, 13.07807], [80.27622, 13.07786], [80.27633, 13.07542], [80.27642, 13.0742], [80.27647, 13.0738], [80.27652, 13.0737], [80.27589, 13.07309], [80.27512, 13.0724], [80.27469, 13.072], [80.2745, 13.07174], [80.27445, 13.07158], [80.27435, 13.07127], [80.27416, 13.07087], [80.27399, 13.0707], [80.27385, 13.07056], [80.27386, 13.07056], [80.27351, 13.07032], [80.27279, 13.06971], [80.27251, 13.06941], [80.27217, 13.069], [80.27204, 13.06875], [80.27204, 13.0686], [80.27205, 13.06845], [80.27213, 13.0682], [80.27219, 13.06811], [80.27227, 13.06803], [80.27238, 13.06792], [80.27297, 13.06743], [80.27372, 13.06689], [80.27383, 13.06682], [80.27374, 13.06661], [80.27374, 13.06624], [80.27376, 13.06589], [80.2738, 13.06545], [80.27387, 13.06494], [80.27395, 13.06453], [80.27404, 13.06377], [80.27414, 13.06318], [80.27419, 13.06258], [80.27431, 13.06205], [80.27436, 13.06157], [80.27437, 13.06125], [80.27432, 13.06049], [80.27433, 13.06029], [80.27428, 13.05965], [80.27425, 13.05929], [80.27406, 13.05769], [80.27403, 13.05756], [80.274, 13.0573], [80.27389, 13.05597], [80.27379, 13.05458], [80.2737, 13.05319], [80.27369, 13.05282], [80.27371, 13.05279], [80.27414, 13.05267], [80.27499, 13.05237], [80.27548, 13.0522], [80.27625, 13.05192], [80.27702, 13.05162], [80.27836, 13.05112], [80.27872, 13.051], [80.27918, 13.05081], [80.27976, 13.0506], [80.28014, 13.05058], [80.28029, 13.05061], [80.28072, 13.05083], [80.2808, 13.05085], [80.28074, 13.05039]]}}]}