{"type": "FeatureCollection", "features": [{"type": "Feature", "properties": {"route_name": "2A", "stop_id": "HTcmpFUD", "name": "Kaviarasu Kannadasan Nagar Bus Stand", "city": "CHENNAI"}, "geometry": {"type": "Point", "coordinates": [80.25700447879262, 13.136187606976225]}}, {"type": "Feature", "properties": {"route_name": "2A", "stop_id": "LciqyJfg", "name": "Chinnandi Madam", "city": "CHENNAI"}, "geometry": {"type": "Point", "coordinates": [80.2555356758287, 13.1365028446204]}}, {"type": "Feature", "properties": {"route_name": "2A", "stop_id": "CorDNIJt", "name": "Muthamizh Nagar Or Ambedkar Statue", "city": "CHENNAI"}, "geometry": {"type": "Point", "coordinates": [80.25359820070912, 13.134062530676227]}}, {"type": "Feature", "properties": {"route_name": "2A", "stop_id": "zdEUiAFY", "name": "Vyasarpadi Sidco", "city": "CHENNAI"}, "geometry": {"type": "Point", "coordinates": [80.25298093952279, 13.131601688441599]}}, {"type": "Feature", "properties": {"route_name": "2A", "stop_id": "vMBlttbG", "name": "T N E B Office", "city": "CHENNAI"}, "geometry": {"type": "Point", "coordinates": [80.2588739012125, 13.131177093151761]}}, {"type": "Feature", "properties": {"route_name": "2A", "stop_id": "CPPLrzGV", "name": "M K B Nagar", "city": "CHENNAI"}, "geometry": {"type": "Point", "coordinates": [80.25926020542954, 13.124772828324614]}}, {"type": "Feature", "properties": {"route_name": "2A", "stop_id": "cMinRgYB", "name": "Mullai Nagar Bus Stand", "city": "CHENNAI"}, "geometry": {"type": "Point", "coordinates": [80.26585474294815, 13.12235573493373]}}, {"type": "Feature", "properties": {"route_name": "2A", "stop_id": "ZBkAAevT", "name": "Vyasarpadi Sathiyamoorthy Nagar", "city": "CHENNAI"}, "geometry": {"type": "Point", "coordinates": [80.26580970574355, 13.119531819599631]}}, {"type": "Feature", "properties": {"route_name": "2A", "stop_id": "kZdBhxvo", "name": "Vyasarpadi Ashok Pillar", "city": "CHENNAI"}, "geometry": {"type": "Point", "coordinates": [80.26574993496206, 13.115407047727002]}}, {"type": "Feature", "properties": {"route_name": "2A", "stop_id": "gRuqifBH", "name": "Vyasarpadi", "city": "CHENNAI"}, "geometry": {"type": "Point", "coordinates": [80.26572369270468, 13.111378386552888]}}, {"type": "Feature", "properties": {"route_name": "2A", "stop_id": "awOEKaEj", "name": "Ramalingapuram Toll", "city": "CHENNAI"}, "geometry": {"type": "Point", "coordinates": [80.26735193234299, 13.10905860209348]}}, {"type": "Feature", "properties": {"route_name": "2A", "stop_id": "TPFTQSyz", "name": "Moolakothalam", "city": "CHENNAI"}, "geometry": {"type": "Point", "coordinates": [80.27383789807436, 13.104101773364562]}}, {"type": "Feature", "properties": {"route_name": "2A", "stop_id": "qdrjbHYS", "name": "Vallalar Nagar Bus Depot", "city": "CHENNAI"}, "geometry": {"type": "Point", "coordinates": [80.27580342110537, 13.1045538453887]}}, {"type": "Feature", "properties": {"route_name": "2A", "stop_id": "uiYVYPQX", "name": "Vallalar Nagar Bus Depot", "city": "CHENNAI"}, "geometry": {"type": "Point", "coordinates": [80.27614104416512, 13.103956594134822]}}, {"type": "Feature", "properties": {"route_name": "2A", "stop_id": "osddylgA", "name": "Padmanaba Theatre", "city": "CHENNAI"}, "geometry": {"type": "Point", "coordinates": [80.27487761007752, 13.10117700888111]}}, {"type": "Feature", "properties": {"route_name": "2A", "stop_id": "znFDupZg", "name": "Thirupalli Street", "city": "CHENNAI"}, "geometry": {"type": "Point", "coordinates": [80.2753190003242, 13.098165128661396]}}, {"type": "Feature", "properties": {"route_name": "2A", "stop_id": "MURlCahD", "name": "Elephant Gate", "city": "CHENNAI"}, "geometry": {"type": "Point", "coordinates": [80.2753230094288, 13.091647345953511]}}, {"type": "Feature", "properties": {"route_name": "2A", "stop_id": "KRQMLlbw", "name": "Blue Star Othavadi Street", "city": "CHENNAI"}, "geometry": {"type": "Point", "coordinates": [80.2755446202209, 13.088579605707448]}}, {"type": "Feature", "properties": {"route_name": "2A", "stop_id": "JJRlkmgp", "name": "Central Wall Tax Road", "city": "CHENNAI"}, "geometry": {"type": "Point", "coordinates": [80.27616431872013, 13.083432082111118]}}, {"type": "Feature", "properties": {"route_name": "2A", "stop_id": "TShNRujB", "name": "Mgr Central Station Or Rajiv Gandhi Government General Hospital", "city": "CHENNAI"}, "geometry": {"type": "Point", "coordinates": [80.27666299527485, 13.081750493356726]}}, {"type": "Feature", "properties": {"route_name": "2A", "stop_id": "hxSTJhOz", "name": "Pallavan Salai", "city": "CHENNAI"}, "geometry": {"type": "Point", "coordinates": [80.27638522507527, 13.075417794179309]}}, {"type": "Feature", "properties": {"route_name": "2A", "stop_id": "rDSiGFpR", "name": "Simson Or Periyar Bridge", "city": "CHENNAI"}, "geometry": {"type": "Point", "coordinates": [80.27388174341809, 13.070529313285379]}}, {"type": "Feature", "properties": {"route_name": "2A", "stop_id": "gFAsBeQM", "name": "D1 Police Station", "city": "CHENNAI"}, "geometry": {"type": "Point", "coordinates": [80.27244713439109, 13.067990578513818]}}, {"type": "Feature", "properties": {"route_name": "2A", "stop_id": "UaWwvNMO", "name": "Kalaivanar Arangam", "city": "CHENNAI"}, "geometry": {"type": "Point", "coordinates": [80.27556276417477, 13.066227915962186]}}, {"type": "Feature", "properties": {"route_name": "2A", "stop_id": "eeSdZFhf", "name": "Bells Road", "city": "CHENNAI"}, "geometry": {"type": "Point", "coordinates": [80.27828820578952, 13.064105843947184]}}, {"type": "Feature", "properties": {"route_name": "2A", "stop_id": "NKCxdwhs", "name": "Gosha Or Kasthuribai Hospital", "city": "CHENNAI"}, "geometry": {"type": "Point", "coordinates": [80.27777776642802, 13.060957918253562]}}, {"type": "Feature", "properties": {"route_name": "2A", "stop_id": "mYoRZvtc", "name": "Triplicane", "city": "CHENNAI"}, "geometry": {"type": "Point", "coordinates": [80.27777454405555, 13.058207414404125]}}, {"type": "Feature", "properties": {"route_name": "2A", "stop_id": "RFaTWaew", "name": "Kannagi Statue Or Presidency College", "city": "CHENNAI"}, "geometry": {"type": "Point", "coordinates": [80.28155974114793, 13.057704419772119]}}, {"type": "Feature", "properties": {"route_name": "2A", "stop_id": "FTwVCxQy", "name": "Marina Beach", "city": "CHENNAI"}, "geometry": {"type": "Point", "coordinates": [80.28275206242665, 13.061415983604778]}}, {"type": "Feature", "properties": {"route_name": "2A", "stop_id": "pSVDMeCH", "name": "Madras University", "city": "CHENNAI"}, "geometry": {"type": "Point", "coordinates": [80.2836325989881, 13.06540783148406]}}, {"type": "Feature", "properties": {"route_name": "2A", "stop_id": "KplKuAnp", "name": "War Memorial", "city": "CHENNAI"}, "geometry": {"type": "Point", "coordinates": [80.28520575363859, 13.073113747429415]}}, {"type": "Feature", "properties": {"route_name": "2A", "stop_id": "gaLZwYvS", "name": "Anna Square", "city": "CHENNAI"}, "geometry": {"type": "Point", "coordinates": [80.2844001598744, 13.066389593658073]}}, {"type": "Feature", "properties": {"name": "2A"}, "geometry": {"type": "LineString", "coordinates": [[80.25699, 13.13644], [80.25653, 13.13651], [80.25606, 13.13654], [80.25555, 13.13656], [80.25554, 13.13656], [80.25553, 13.13656], [80.25553, 13.13655], [80.25542, 13.13649], [80.25523, 13.13636], [80.255, 13.13608], [80.25464, 13.13577], [80.25436, 13.13542], [80.25401, 13.13492], [80.25386, 13.13469], [80.25366, 13.13431], [80.25357, 13.13406], [80.25348, 13.13305], [80.25342, 13.13265], [80.25331, 13.13237], [80.25325, 13.13228], [80.25306, 13.13207], [80.25303, 13.132], [80.25297, 13.13195], [80.25252, 13.13162], [80.25263, 13.13159], [80.25275, 13.13156], [80.25288, 13.13155], [80.25298, 13.13155], [80.25502, 13.13148], [80.25686, 13.13141], [80.2575, 13.13142], [80.25819, 13.13142], [80.25878, 13.13141], [80.25879, 13.13117], [80.25888, 13.12953], [80.25894, 13.12919], [80.25898, 13.12849], [80.25903, 13.12789], [80.25904, 13.12761], [80.25901, 13.12733], [80.25902, 13.12681], [80.25907, 13.12617], [80.25914, 13.12497], [80.25922, 13.12499], [80.25923, 13.12477], [80.25924, 13.12477], [80.25924, 13.12499], [80.25914, 13.12497], [80.25915, 13.1249], [80.25916, 13.12432], [80.2592, 13.12377], [80.25922, 13.12301], [80.26033, 13.12299], [80.26284, 13.12292], [80.26472, 13.12289], [80.26575, 13.12288], [80.26578, 13.12266], [80.26577, 13.12248], [80.26576, 13.12232], [80.26585, 13.12232], [80.2658, 13.12211], [80.26573, 13.12042], [80.26581, 13.11949], [80.26574, 13.11953], [80.26573, 13.11819], [80.26569, 13.11654], [80.26573, 13.11541], [80.26572, 13.11484], [80.26568, 13.11412], [80.26575, 13.11412], [80.26573, 13.1135], [80.26572, 13.11234], [80.26571, 13.11138], [80.2657, 13.11116], [80.26575, 13.11095], [80.26576, 13.11068], [80.26578, 13.11065], [80.26613, 13.11019], [80.26646, 13.10976], [80.26647, 13.10978], [80.26667, 13.10986], [80.26672, 13.10982], [80.26712, 13.10932], [80.26738, 13.10909], [80.26733, 13.10904], [80.26871, 13.10766], [80.26916, 13.10727], [80.27051, 13.10593], [80.27082, 13.10562], [80.27091, 13.10549], [80.27104, 13.10515], [80.27126, 13.10469], [80.27138, 13.1045], [80.27181, 13.10438], [80.27191, 13.10433], [80.27207, 13.1042], [80.27236, 13.10394], [80.27245, 13.10388], [80.27263, 13.10384], [80.27316, 13.10393], [80.27385, 13.10405], [80.27515, 13.1043], [80.27582, 13.10452], [80.27676, 13.10484], [80.27723, 13.105], [80.27735, 13.10506], [80.27766, 13.10517], [80.27807, 13.1053], [80.27949, 13.1057], [80.27957, 13.10564], [80.27963, 13.10556], [80.27964, 13.10546], [80.27923, 13.10529], [80.27805, 13.10482], [80.27784, 13.10473], [80.27745, 13.10456], [80.27709, 13.10438], [80.2767, 13.10422], [80.27629, 13.10407], [80.27593, 13.10394], [80.276, 13.10363], [80.27602, 13.10351], [80.27607, 13.10314], [80.27612, 13.10236], [80.27614, 13.10213], [80.27552, 13.10208], [80.27514, 13.10204], [80.27452, 13.10194], [80.27445, 13.10192], [80.27472, 13.10134], [80.27479, 13.10115], [80.27503, 13.1005], [80.27514, 13.1001], [80.27525, 13.09926], [80.27527, 13.09817], [80.27525, 13.09667], [80.27526, 13.09555], [80.27525, 13.09364], [80.27529, 13.09271], [80.2753, 13.09232], [80.27528, 13.09165], [80.27528, 13.09118], [80.27534, 13.09035], [80.27552, 13.08858], [80.27553, 13.08855], [80.27573, 13.08661], [80.27591, 13.08512], [80.27615, 13.08343], [80.27629, 13.08228], [80.27636, 13.08185], [80.27804, 13.08212], [80.27802, 13.08259], [80.27805, 13.08303], [80.27809, 13.0834], [80.27889, 13.08364], [80.27895, 13.08365], [80.27903, 13.08346], [80.27894, 13.08324], [80.27875, 13.08278], [80.27861, 13.08233], [80.27852, 13.08209], [80.27838, 13.08209], [80.27796, 13.08201], [80.27668, 13.0818], [80.27671, 13.08181], [80.27666, 13.08179], [80.27604, 13.08168], [80.27572, 13.08164], [80.2755, 13.08156], [80.27532, 13.08152], [80.27527, 13.08149], [80.27524, 13.08144], [80.27525, 13.08117], [80.27529, 13.08069], [80.27534, 13.07998], [80.27534, 13.07973], [80.27529, 13.07939], [80.27518, 13.07885], [80.27519, 13.07876], [80.27522, 13.07867], [80.27528, 13.07856], [80.27537, 13.07845], [80.27544, 13.07841], [80.27573, 13.0783], [80.27606, 13.07819], [80.27616, 13.07807], [80.27622, 13.07786], [80.27633, 13.07542], [80.27642, 13.0742], [80.27647, 13.0738], [80.27652, 13.0737], [80.27589, 13.07309], [80.27512, 13.0724], [80.27469, 13.072], [80.2745, 13.07174], [80.27445, 13.07158], [80.27435, 13.07127], [80.27416, 13.07087], [80.27399, 13.0707], [80.27385, 13.07056], [80.27387, 13.07061], [80.27386, 13.07056], [80.27351, 13.07032], [80.27279, 13.06971], [80.27251, 13.06941], [80.27217, 13.069], [80.27204, 13.06875], [80.27204, 13.0686], [80.27205, 13.06845], [80.27213, 13.0682], [80.27219, 13.06811], [80.27227, 13.06803], [80.27238, 13.06792], [80.27297, 13.06743], [80.27372, 13.06689], [80.27383, 13.06682], [80.27461, 13.06653], [80.27553, 13.06615], [80.27654, 13.06578], [80.27686, 13.06563], [80.2784, 13.06488], [80.27835, 13.06475], [80.27828, 13.06444], [80.27825, 13.06411], [80.27819, 13.06379], [80.27787, 13.06179], [80.27769, 13.06097], [80.27749, 13.05973], [80.2773, 13.05851], [80.27726, 13.05818], [80.27754, 13.05812], [80.27776, 13.05809], [80.27886, 13.05797], [80.27984, 13.05781], [80.28111, 13.05766], [80.28154, 13.0576], [80.28204, 13.05753], [80.28207, 13.05771], [80.28214, 13.05806], [80.28246, 13.05963], [80.28267, 13.06062], [80.28285, 13.06139], [80.28335, 13.06379], [80.2834, 13.06401], [80.28338, 13.06414], [80.2834, 13.06423], [80.28367, 13.0654], [80.28415, 13.06764], [80.28417, 13.06779], [80.2842, 13.06808], [80.28476, 13.07033], [80.2853, 13.07242], [80.28531, 13.07312], [80.28528, 13.07334], [80.28529, 13.07352], [80.28531, 13.07369], [80.28534, 13.07378], [80.28547, 13.0739], [80.28562, 13.07399], [80.28572, 13.07403], [80.28582, 13.07401], [80.28591, 13.07395], [80.28596, 13.07388], [80.28601, 13.0737], [80.28602, 13.07348], [80.28592, 13.07329], [80.28577, 13.07306], [80.2855, 13.07255], [80.28542, 13.07232], [80.28513, 13.07124], [80.28437, 13.06815], [80.28436, 13.06809], [80.28433, 13.06763], [80.28428, 13.06741], [80.28438, 13.06707], [80.2844, 13.06681], [80.28431, 13.06642]]}}]}