{"type": "FeatureCollection", "features": [{"type": "Feature", "properties": {"route_name": "121CT", "stop_id": "BpAiVnps", "name": "CMBT Koyembedu Bus Depot", "city": "CHENNAI"}, "geometry": {"type": "Point", "coordinates": [80.20518932458458, 13.068981607807045]}}, {"type": "Feature", "properties": {"route_name": "121CT", "stop_id": "RVGhYAxc", "name": "Koyambedu Chathiram", "city": "CHENNAI"}, "geometry": {"type": "Point", "coordinates": [80.19986513405274, 13.074022468293892]}}, {"type": "Feature", "properties": {"route_name": "121CT", "stop_id": "tDDddUJb", "name": "CPWD Quarters", "city": "CHENNAI"}, "geometry": {"type": "Point", "coordinates": [80.19837966049488, 13.082223517801985]}}, {"type": "Feature", "properties": {"route_name": "121CT", "stop_id": "lmZJehpq", "name": "Thirumangalam", "city": "CHENNAI"}, "geometry": {"type": "Point", "coordinates": [80.19845386988084, 13.090937421165162]}}, {"type": "Feature", "properties": {"route_name": "121CT", "stop_id": "EmkugZPX", "name": "Anna Nagar West Depot", "city": "CHENNAI"}, "geometry": {"type": "Point", "coordinates": [80.1984805710307, 13.093776863124802]}}, {"type": "Feature", "properties": {"route_name": "121CT", "stop_id": "xTOrUJFO", "name": "Kovarthanagiri", "city": "CHENNAI"}, "geometry": {"type": "Point", "coordinates": [80.19695999999999, 13.098490776245674]}}, {"type": "Feature", "properties": {"route_name": "121CT", "stop_id": "KjgVoxgR", "name": "Wheels India Road Junction", "city": "CHENNAI"}, "geometry": {"type": "Point", "coordinates": [80.19431607624301, 13.101426887338741]}}, {"type": "Feature", "properties": {"route_name": "121CT", "stop_id": "HFYkXdPG", "name": "Agrakaram", "city": "CHENNAI"}, "geometry": {"type": "Point", "coordinates": [80.19847503158019, 13.119017937025482]}}, {"type": "Feature", "properties": {"route_name": "121CT", "stop_id": "TvGyfQSI", "name": "Senthil Nagar", "city": "CHENNAI"}, "geometry": {"type": "Point", "coordinates": [80.20203456394643, 13.12364430854919]}}, {"type": "Feature", "properties": {"route_name": "121CT", "stop_id": "NGAodVTg", "name": "Ambedkar Nagar", "city": "CHENNAI"}, "geometry": {"type": "Point", "coordinates": [80.20702228039602, 13.12643119141678]}}, {"type": "Feature", "properties": {"route_name": "121CT", "stop_id": "mXwfazRz", "name": "Retteri Junction", "city": "CHENNAI"}, "geometry": {"type": "Point", "coordinates": [80.21316637742791, 13.129989359538518]}}, {"type": "Feature", "properties": {"route_name": "121CT", "stop_id": "fJdABIlw", "name": "RTO Or Kolathur Shastri Nagar", "city": "CHENNAI"}, "geometry": {"type": "Point", "coordinates": [80.21634011439858, 13.136140683154789]}}, {"type": "Feature", "properties": {"route_name": "121CT", "stop_id": "oUmVLfUX", "name": "Madhavaram Bypass", "city": "CHENNAI"}, "geometry": {"type": "Point", "coordinates": [80.2184871321432, 13.141271690381386]}}, {"type": "Feature", "properties": {"route_name": "121CT", "stop_id": "HEshVETB", "name": "Madhavaram Rountana", "city": "CHENNAI"}, "geometry": {"type": "Point", "coordinates": [80.2210846887445, 13.144021064037789]}}, {"type": "Feature", "properties": {"route_name": "121CT", "stop_id": "WKWTpoqQ", "name": "MMBT", "city": "CHENNAI"}, "geometry": {"type": "Point", "coordinates": [80.221506, 13.145276]}}, {"type": "Feature", "properties": {"name": "121CT"}, "geometry": {"type": "LineString", "coordinates": [[80.20514, 13.06893], [80.20473, 13.06913], [80.20476, 13.06935], [80.2048, 13.06958], [80.20488, 13.06975], [80.20475, 13.06988], [80.20443, 13.07011], [80.20365, 13.07072], [80.20345, 13.07092], [80.20326, 13.07103], [80.20281, 13.07145], [80.20202, 13.07214], [80.20158, 13.0725], [80.20041, 13.07357], [80.19988, 13.07404], [80.1997, 13.07421], [80.19944, 13.07446], [80.19929, 13.07466], [80.1992, 13.07481], [80.19908, 13.07516], [80.19906, 13.07532], [80.19902, 13.07543], [80.19905, 13.07592], [80.19902, 13.07646], [80.19893, 13.07739], [80.19851, 13.08055], [80.19848, 13.08103], [80.19848, 13.08151], [80.1985, 13.08221], [80.1985, 13.08397], [80.19849, 13.08485], [80.19847, 13.08563], [80.1985, 13.08743], [80.19855, 13.08958], [80.19858, 13.09024], [80.19857, 13.09038], [80.19854, 13.09048], [80.19855, 13.09094], [80.19854, 13.09378], [80.19855, 13.09491], [80.19855, 13.09705], [80.19852, 13.09733], [80.19843, 13.09758], [80.1983, 13.09784], [80.19808, 13.09808], [80.19789, 13.09824], [80.19776, 13.09832], [80.1975, 13.09841], [80.19711, 13.0985], [80.19698, 13.09854], [80.19635, 13.09874], [80.19596, 13.0989], [80.19561, 13.0991], [80.19534, 13.09932], [80.19514, 13.09952], [80.19489, 13.09984], [80.19475, 13.10005], [80.19456, 13.10044], [80.19446, 13.10073], [80.19437, 13.10115], [80.19434, 13.10143], [80.1943, 13.10197], [80.19439, 13.10291], [80.19443, 13.10361], [80.19457, 13.10548], [80.19464, 13.10581], [80.19471, 13.10603], [80.19506, 13.10682], [80.19539, 13.1074], [80.1959, 13.10829], [80.19657, 13.10957], [80.19681, 13.11019], [80.19691, 13.11078], [80.19707, 13.11213], [80.19738, 13.11451], [80.19769, 13.117], [80.19782, 13.11751], [80.19802, 13.11805], [80.19834, 13.11874], [80.1985, 13.11901], [80.19914, 13.12003], [80.19922, 13.12018], [80.19969, 13.12116], [80.20004, 13.12179], [80.20017, 13.12199], [80.20039, 13.12226], [80.20065, 13.12255], [80.20088, 13.12276], [80.20124, 13.12302], [80.20184, 13.12338], [80.20226, 13.12363], [80.2022, 13.12373], [80.20204, 13.12364], [80.20323, 13.12432], [80.20415, 13.12484], [80.20468, 13.12511], [80.20637, 13.12606], [80.20703, 13.12642], [80.20853, 13.12726], [80.209, 13.12753], [80.20994, 13.12811], [80.2103, 13.12831], [80.21092, 13.12869], [80.21267, 13.12966], [80.21318, 13.12997], [80.21366, 13.13011], [80.21535, 13.13359], [80.21653, 13.13636], [80.21633, 13.13614], [80.21668, 13.13698], [80.21751, 13.13881], [80.21772, 13.13934], [80.21777, 13.13943], [80.218, 13.13963], [80.21806, 13.1398], [80.21828, 13.14033], [80.21833, 13.14061], [80.21859, 13.14123], [80.21968, 13.1439], [80.21973, 13.14415], [80.21972, 13.14423], [80.21969, 13.14432], [80.21964, 13.14443], [80.21963, 13.1446], [80.21965, 13.14475], [80.21971, 13.14486], [80.21977, 13.14494], [80.21989, 13.14502], [80.21997, 13.14506], [80.22006, 13.14507], [80.22023, 13.14506], [80.22038, 13.14499], [80.2205, 13.14488], [80.22059, 13.14474], [80.22061, 13.14469], [80.22061, 13.14463], [80.22086, 13.14413], [80.22105, 13.14397], [80.22198, 13.14327], [80.22238, 13.14296], [80.22299, 13.1444], [80.22224, 13.14472], [80.22179, 13.1449]]}}]}