{"type": "FeatureCollection", "features": [{"type": "Feature", "properties": {"route_name": "S56", "stop_id": "gcrnRTRu", "name": "Manali Bus Terminal", "city": "CHENNAI"}, "geometry": {"type": "Point", "coordinates": [80.25739394562535, 13.170109696679264]}}, {"type": "Feature", "properties": {"route_name": "S56", "stop_id": "yGEvOQma", "name": "Manali Church", "city": "CHENNAI"}, "geometry": {"type": "Point", "coordinates": [80.25825469386575, 13.16816640893727]}}, {"type": "Feature", "properties": {"route_name": "S56", "stop_id": "PqoYMtMO", "name": "Manali Government School", "city": "CHENNAI"}, "geometry": {"type": "Point", "coordinates": [80.25855965105166, 13.16625714513757]}}, {"type": "Feature", "properties": {"route_name": "S56", "stop_id": "ClDeGdta", "name": "Manali Market", "city": "CHENNAI"}, "geometry": {"type": "Point", "coordinates": [80.2594187171793, 13.163431202864771]}}, {"type": "Feature", "properties": {"route_name": "S56", "stop_id": "zoqWMrrO", "name": "Manali Metro Water", "city": "CHENNAI"}, "geometry": {"type": "Point", "coordinates": [80.26435145766595, 13.162038357167743]}}, {"type": "Feature", "properties": {"route_name": "S56", "stop_id": "exnIZrMP", "name": "Chennai Petroleum Corporation Limited", "city": "CHENNAI"}, "geometry": {"type": "Point", "coordinates": [80.26891912378278, 13.161410747574008]}}, {"type": "Feature", "properties": {"route_name": "S56", "stop_id": "aWeAvoyP", "name": "MFL Labour Gate", "city": "CHENNAI"}, "geometry": {"type": "Point", "coordinates": [80.2716372736171, 13.170049807418001]}}, {"type": "Feature", "properties": {"route_name": "S56", "stop_id": "sonNAVmZ", "name": "MFL", "city": "CHENNAI"}, "geometry": {"type": "Point", "coordinates": [80.2699172949317, 13.177591449552573]}}, {"type": "Feature", "properties": {"route_name": "S56", "stop_id": "XxhwFmzZ", "name": "Petro Araldit", "city": "CHENNAI"}, "geometry": {"type": "Point", "coordinates": [80.27783007277696, 13.176743846091707]}}, {"type": "Feature", "properties": {"route_name": "S56", "stop_id": "JyqrAKLu", "name": "TPL", "city": "CHENNAI"}, "geometry": {"type": "Point", "coordinates": [80.28004108749906, 13.17637196421058]}}, {"type": "Feature", "properties": {"route_name": "S56", "stop_id": "TCMQvOqy", "name": "Sathangadu Police Station", "city": "CHENNAI"}, "geometry": {"type": "Point", "coordinates": [80.28662615726898, 13.175467302377022]}}, {"type": "Feature", "properties": {"route_name": "S56", "stop_id": "NmilzqZp", "name": "Sathya Moorthy Nagar", "city": "CHENNAI"}, "geometry": {"type": "Point", "coordinates": [80.29456419149756, 13.176536560050616]}}, {"type": "Feature", "properties": {"route_name": "S56", "stop_id": "JdZarNsv", "name": "TKS Nagar", "city": "CHENNAI"}, "geometry": {"type": "Point", "coordinates": [80.29767050611065, 13.180106236170047]}}, {"type": "Feature", "properties": {"route_name": "S56", "stop_id": "rAizOLWV", "name": "Jothi Nagar", "city": "CHENNAI"}, "geometry": {"type": "Point", "coordinates": [80.29880683159843, 13.181408318714176]}}, {"type": "Feature", "properties": {"route_name": "S56", "stop_id": "xuEvBBdE", "name": "Murugappa Nagar", "city": "CHENNAI"}, "geometry": {"type": "Point", "coordinates": [80.30108189676878, 13.183738564306497]}}, {"type": "Feature", "properties": {"route_name": "S56", "stop_id": "VXthmpcS", "name": "Mullai Nagar", "city": "CHENNAI"}, "geometry": {"type": "Point", "coordinates": [80.30359469285952, 13.186246866563875]}}, {"type": "Feature", "properties": {"route_name": "S56", "stop_id": "vCGIyJLJ", "name": "Lift Gate Police Station", "city": "CHENNAI"}, "geometry": {"type": "Point", "coordinates": [80.3116831347968, 13.18491092712335]}}, {"type": "Feature", "properties": {"route_name": "S56", "stop_id": "WQdyWhSR", "name": "I T C", "city": "CHENNAI"}, "geometry": {"type": "Point", "coordinates": [80.30865525532772, 13.183669209231324]}}, {"type": "Feature", "properties": {"route_name": "S56", "stop_id": "VCGhveHG", "name": "Wimco Nagar Or MRF Tyre Factory", "city": "CHENNAI"}, "geometry": {"type": "Point", "coordinates": [80.307356794994, 13.179096284220213]}}, {"type": "Feature", "properties": {"route_name": "S56", "stop_id": "VQfPRvUw", "name": "Thiruvottiyur Bus Stand", "city": "CHENNAI"}, "geometry": {"type": "Point", "coordinates": [80.30621356946263, 13.175091563802843]}}, {"type": "Feature", "properties": {"route_name": "S56", "stop_id": "qGgPbtbT", "name": "Thiruvottiyur Ajax Bus Depot", "city": "CHENNAI"}, "geometry": {"type": "Point", "coordinates": [80.30544519466298, 13.172191073074865]}}, {"type": "Feature", "properties": {"name": "S56"}, "geometry": {"type": "LineString", "coordinates": [[80.25733, 13.17008], [80.25767, 13.16941], [80.25778, 13.16909], [80.2581, 13.16835], [80.2582, 13.16814], [80.25829, 13.16795], [80.25839, 13.16768], [80.25845, 13.16742], [80.2585, 13.16625], [80.25857, 13.16473], [80.2586, 13.16412], [80.25859, 13.16373], [80.25857, 13.16359], [80.25924, 13.16347], [80.25941, 13.1634], [80.26, 13.1632], [80.2604, 13.16303], [80.26082, 13.16281], [80.26107, 13.16271], [80.26185, 13.16255], [80.26316, 13.16233], [80.26337, 13.16227], [80.26362, 13.16219], [80.26391, 13.16207], [80.26424, 13.162], [80.26434, 13.16198], [80.26571, 13.16183], [80.26708, 13.16168], [80.2682, 13.16148], [80.2689, 13.16134], [80.26903, 13.16131], [80.26908, 13.16138], [80.26912, 13.16148], [80.26913, 13.16165], [80.26911, 13.16193], [80.26915, 13.16247], [80.26928, 13.16334], [80.26934, 13.16362], [80.26941, 13.16386], [80.26956, 13.16416], [80.2698, 13.16444], [80.2701, 13.16474], [80.27077, 13.16532], [80.27107, 13.16559], [80.27159, 13.1661], [80.27193, 13.16651], [80.27212, 13.16682], [80.27219, 13.16701], [80.27226, 13.16723], [80.27228, 13.16741], [80.27231, 13.16775], [80.27186, 13.16969], [80.27176, 13.17008], [80.27068, 13.17454], [80.27046, 13.17565], [80.27027, 13.17636], [80.2701, 13.17727], [80.27006, 13.17761], [80.27002, 13.17799], [80.27046, 13.17797], [80.27184, 13.17776], [80.27449, 13.17728], [80.27595, 13.17702], [80.27782, 13.17671], [80.28004, 13.17634], [80.28154, 13.17609], [80.28453, 13.17563], [80.28561, 13.17546], [80.28563, 13.17552], [80.28567, 13.17553], [80.28591, 13.17551], [80.28662, 13.17544], [80.28685, 13.17543], [80.28805, 13.17545], [80.28866, 13.17546], [80.28881, 13.17544], [80.28888, 13.17541], [80.28894, 13.17536], [80.28896, 13.17532], [80.28989, 13.1753], [80.29242, 13.17533], [80.29278, 13.17536], [80.29306, 13.17542], [80.29336, 13.17553], [80.29361, 13.17565], [80.29383, 13.17578], [80.29396, 13.17588], [80.29458, 13.17652], [80.29469, 13.17664], [80.29509, 13.17714], [80.29596, 13.17813], [80.2966, 13.17887], [80.29768, 13.18009], [80.29883, 13.18139], [80.29986, 13.18247], [80.3011, 13.18372], [80.30187, 13.18451], [80.30227, 13.18489], [80.30264, 13.18523], [80.3031, 13.18561], [80.30338, 13.18588], [80.30338, 13.18598], [80.3034, 13.18605], [80.30348, 13.18615], [80.30361, 13.18622], [80.30345, 13.18612], [80.30339, 13.18601], [80.30337, 13.18595], [80.30338, 13.18588], [80.30362, 13.18608], [80.30406, 13.18631], [80.3043, 13.1864], [80.30475, 13.1865], [80.305, 13.18651], [80.30532, 13.18648], [80.30596, 13.18637], [80.30784, 13.186], [80.30869, 13.18582], [80.30965, 13.18559], [80.31136, 13.18525], [80.31245, 13.18503], [80.31276, 13.18498], [80.31274, 13.18485], [80.31257, 13.18488], [80.31242, 13.18483], [80.31224, 13.18482], [80.31209, 13.18482], [80.31169, 13.18492], [80.30934, 13.1854], [80.30917, 13.18542], [80.30908, 13.18536], [80.30901, 13.18521], [80.30888, 13.18478], [80.30868, 13.18403], [80.30868, 13.18392], [80.30862, 13.18369], [80.30842, 13.18306], [80.30839, 13.18293], [80.30825, 13.18273], [80.30822, 13.18254], [80.30809, 13.18209], [80.30801, 13.18172], [80.3079, 13.18129], [80.30762, 13.18034], [80.30755, 13.18016], [80.30752, 13.18011], [80.30755, 13.18008], [80.30755, 13.17993], [80.30731, 13.17911], [80.30629, 13.1755], [80.30619, 13.1751], [80.30574, 13.17346], [80.30554, 13.17271], [80.3054, 13.1722]]}}]}