{"type": "FeatureCollection", "features": [{"type": "Feature", "properties": {"route_name": "591C", "stop_id": "qflzswAf", "name": "Poonamallee Terminus", "city": "CHENNAI"}, "geometry": {"type": "Point", "coordinates": [80.09486902391961, 13.051775993180485]}}, {"type": "Feature", "properties": {"route_name": "591C", "stop_id": "PyGiRErs", "name": "Varadaraja Puram", "city": "CHENNAI"}, "geometry": {"type": "Point", "coordinates": [80.08662361879931, 13.04890990260656]}}, {"type": "Feature", "properties": {"route_name": "591C", "stop_id": "CrOFTJlw", "name": "Nazarathpet", "city": "CHENNAI"}, "geometry": {"type": "Point", "coordinates": [80.08050084998649, 13.047193040450408]}}, {"type": "Feature", "properties": {"route_name": "591C", "stop_id": "FdBCLyPI", "name": "Jaya Jaya Sankara International School", "city": "CHENNAI"}, "geometry": {"type": "Point", "coordinates": [80.07426953185461, 13.046508577273626]}}, {"type": "Feature", "properties": {"route_name": "591C", "stop_id": "ZqOseExI", "name": "Nazarathpet Police Check Post", "city": "CHENNAI"}, "geometry": {"type": "Point", "coordinates": [80.07061537117625, 13.045618656966473]}}, {"type": "Feature", "properties": {"route_name": "591C", "stop_id": "DHkaGHFf", "name": "Nazarathpet Police Check Post", "city": "CHENNAI"}, "geometry": {"type": "Point", "coordinates": [80.0686788162675, 13.044951038922536]}}, {"type": "Feature", "properties": {"route_name": "591C", "stop_id": "wRTYbalx", "name": "Chembarambakkam Koil", "city": "CHENNAI"}, "geometry": {"type": "Point", "coordinates": [80.0629981631946, 13.043197666898577]}}, {"type": "Feature", "properties": {"route_name": "591C", "stop_id": "gxidCspv", "name": "Chembarambakkam", "city": "CHENNAI"}, "geometry": {"type": "Point", "coordinates": [80.05755619732508, 13.040627692719365]}}, {"type": "Feature", "properties": {"route_name": "591C", "stop_id": "rljVoTvk", "name": "L and T", "city": "CHENNAI"}, "geometry": {"type": "Point", "coordinates": [80.05316471913534, 13.03881454813193]}}, {"type": "Feature", "properties": {"route_name": "591C", "stop_id": "ekoOPpVq", "name": "Irulapalayam Road Junction", "city": "CHENNAI"}, "geometry": {"type": "Point", "coordinates": [80.04407890972243, 13.035973029197613]}}, {"type": "Feature", "properties": {"route_name": "591C", "stop_id": "cnfJcHrj", "name": "Pappanchsthiram", "city": "CHENNAI"}, "geometry": {"type": "Point", "coordinates": [80.03744818143798, 13.03259267045702]}}, {"type": "Feature", "properties": {"route_name": "591C", "stop_id": "uuLXjUrY", "name": "Queensland", "city": "CHENNAI"}, "geometry": {"type": "Point", "coordinates": [80.03012088443893, 13.028297112871028]}}, {"type": "Feature", "properties": {"route_name": "591C", "stop_id": "spVkBMtX", "name": "Chettipedu", "city": "CHENNAI"}, "geometry": {"type": "Point", "coordinates": [80.02321870168112, 13.023997477036747]}}, {"type": "Feature", "properties": {"route_name": "591C", "stop_id": "ixhHdGBo", "name": "Saveetha Medical College", "city": "CHENNAI"}, "geometry": {"type": "Point", "coordinates": [80.01650268469575, 13.021966059361711]}}, {"type": "Feature", "properties": {"route_name": "591C", "stop_id": "sAuLGTlR", "name": "Thandalam Koot Road", "city": "CHENNAI"}, "geometry": {"type": "Point", "coordinates": [80.01031033261404, 13.018401349067421]}}, {"type": "Feature", "properties": {"route_name": "591C", "stop_id": "hnvEGTpC", "name": "Mevalurkuppam", "city": "CHENNAI"}, "geometry": {"type": "Point", "coordinates": [80.00635998469363, 13.018619621669961]}}, {"type": "Feature", "properties": {"route_name": "591C", "stop_id": "PCRBVfUw", "name": "T S R Rajalakshmi Nagar", "city": "CHENNAI"}, "geometry": {"type": "Point", "coordinates": [79.9873040844061, 13.018001924517465]}}, {"type": "Feature", "properties": {"route_name": "591C", "stop_id": "GgxxeDsY", "name": "Valarpuram", "city": "CHENNAI"}, "geometry": {"type": "Point", "coordinates": [79.97328401654158, 13.021187912749188]}}, {"type": "Feature", "properties": {"route_name": "591C", "stop_id": "fslmqcXP", "name": "Mannur Village", "city": "CHENNAI"}, "geometry": {"type": "Point", "coordinates": [79.9555402656772, 13.021279421504088]}}, {"type": "Feature", "properties": {"route_name": "591C", "stop_id": "wfDLjSSS", "name": "Sowbakkiya Nagar", "city": "CHENNAI"}, "geometry": {"type": "Point", "coordinates": [79.94746751841103, 13.015841228163957]}}, {"type": "Feature", "properties": {"route_name": "591C", "stop_id": "OLVfWwhL", "name": "Mannur Junction Sriperumbudur Bypass", "city": "CHENNAI"}, "geometry": {"type": "Point", "coordinates": [79.92652812773144, 13.015458792610291]}}, {"type": "Feature", "properties": {"route_name": "591C", "stop_id": "ggnpPWOO", "name": "Vayalur", "city": "CHENNAI"}, "geometry": {"type": "Point", "coordinates": [79.91230619018802, 13.01496821466798]}}, {"type": "Feature", "properties": {"route_name": "591C", "stop_id": "icUOEXSt", "name": "Ulandhai", "city": "CHENNAI"}, "geometry": {"type": "Point", "coordinates": [79.90156164071982, 13.017010770589966]}}, {"type": "Feature", "properties": {"route_name": "591C", "stop_id": "SzPBLAwy", "name": "Poovalli Kuppam Or Vellakalvai Meetu Cherry", "city": "CHENNAI"}, "geometry": {"type": "Point", "coordinates": [79.87676129057422, 13.02418544423311]}}, {"type": "Feature", "properties": {"route_name": "591C", "stop_id": "WMODaVhE", "name": "Mappedu Old Police Station", "city": "CHENNAI"}, "geometry": {"type": "Point", "coordinates": [79.86174848778614, 13.030978487371817]}}, {"type": "Feature", "properties": {"route_name": "591C", "stop_id": "GSOqnCzV", "name": "Mappedu Road Junction", "city": "CHENNAI"}, "geometry": {"type": "Point", "coordinates": [79.85339501761632, 13.03317415293478]}}, {"type": "Feature", "properties": {"route_name": "591C", "stop_id": "JRMVrfdD", "name": "Kondencherri", "city": "CHENNAI"}, "geometry": {"type": "Point", "coordinates": [79.83589689549012, 13.035345271054013]}}, {"type": "Feature", "properties": {"route_name": "591C", "stop_id": "bghpxDOJ", "name": "Kondencherri Church", "city": "CHENNAI"}, "geometry": {"type": "Point", "coordinates": [79.83376590502075, 13.033947275180905]}}, {"type": "Feature", "properties": {"route_name": "591C", "stop_id": "XaVBQtHA", "name": "Covam", "city": "CHENNAI"}, "geometry": {"type": "Point", "coordinates": [79.8266311341522, 13.02947683710705]}}, {"type": "Feature", "properties": {"route_name": "591C", "stop_id": "inwKGARo", "name": "Irulanchery", "city": "CHENNAI"}, "geometry": {"type": "Point", "coordinates": [79.81771960729964, 13.027877210031065]}}, {"type": "Feature", "properties": {"route_name": "591C", "stop_id": "oYtcjCTg", "name": "Parambakkam Terminus", "city": "CHENNAI"}, "geometry": {"type": "Point", "coordinates": [79.81344677420668, 13.037287349795395]}}, {"type": "Feature", "properties": {"route_name": "591C", "stop_id": "UUIIZqSb", "name": "Narasingapuram", "city": "CHENNAI"}, "geometry": {"type": "Point", "coordinates": [79.80186899082531, 13.031077671661244]}}, {"type": "Feature", "properties": {"name": "591C"}, "geometry": {"type": "LineString", "coordinates": [[80.0949, 13.05205], [80.09569, 13.05206], [80.09575, 13.05182], [80.09669, 13.05189], [80.09687, 13.05192], [80.09678, 13.05276], [80.09682, 13.05377], [80.09707, 13.05467], [80.09732, 13.05605], [80.09751, 13.05639], [80.09641, 13.05635], [80.09516, 13.0562], [80.09397, 13.05581], [80.09272, 13.05525], [80.09166, 13.05469], [80.0905, 13.05337], [80.08984, 13.05207], [80.08905, 13.0506], [80.08839, 13.0495], [80.08793, 13.04911], [80.0872, 13.04898], [80.08679, 13.04892], [80.08662, 13.04895], [80.0856, 13.04884], [80.08518, 13.04877], [80.08474, 13.04865], [80.08354, 13.04826], [80.08198, 13.0477], [80.08046, 13.04726], [80.08014, 13.04718], [80.0797, 13.04709], [80.07907, 13.04702], [80.07693, 13.04694], [80.07513, 13.04687], [80.07481, 13.04681], [80.07463, 13.04676], [80.07423, 13.04658], [80.07365, 13.04631], [80.07334, 13.0462], [80.07288, 13.04607], [80.07211, 13.04599], [80.0717, 13.04592], [80.07125, 13.04583], [80.07061, 13.04564], [80.06864, 13.04507], [80.06699, 13.04457], [80.06434, 13.04376], [80.06366, 13.04356], [80.06297, 13.04326], [80.06215, 13.04287], [80.06132, 13.04243], [80.06038, 13.0419], [80.05956, 13.04152], [80.0577, 13.04075], [80.05753, 13.04068], [80.05607, 13.04013], [80.05563, 13.03988], [80.0551, 13.03966], [80.05356, 13.03905], [80.05314, 13.03888], [80.05208, 13.03848], [80.05042, 13.03789], [80.04971, 13.03765], [80.04818, 13.03719], [80.04769, 13.03708], [80.04668, 13.03678], [80.04405, 13.03606], [80.04367, 13.03594], [80.04303, 13.03568], [80.04202, 13.03525], [80.04126, 13.03485], [80.04099, 13.03472], [80.04014, 13.03424], [80.03873, 13.03338], [80.03741, 13.03267], [80.03649, 13.03215], [80.03477, 13.03114], [80.03255, 13.02983], [80.03009, 13.02835], [80.02913, 13.02775], [80.02677, 13.02623], [80.02319, 13.02403], [80.0219, 13.02327], [80.02142, 13.02303], [80.02088, 13.02282], [80.02037, 13.02266], [80.01986, 13.02255], [80.01875, 13.02245], [80.01827, 13.02241], [80.01771, 13.02236], [80.01722, 13.02227], [80.01686, 13.02217], [80.01666, 13.02209], [80.01648, 13.022], [80.01601, 13.02173], [80.01447, 13.02073], [80.01211, 13.01918], [80.01064, 13.01829], [80.01051, 13.01822], [80.01042, 13.01835], [80.01038, 13.01839], [80.01031, 13.01841], [80.01006, 13.01846], [80.00797, 13.01859], [80.00695, 13.01864], [80.0068, 13.01868], [80.00637, 13.01871], [80.00594, 13.01873], [80.00499, 13.01875], [80.00421, 13.01868], [80.00392, 13.0186], [80.00334, 13.01851], [80.00263, 13.0185], [80.00098, 13.01858], [79.99988, 13.01864], [79.99876, 13.01861], [79.99627, 13.01849], [79.99404, 13.01838], [79.99372, 13.01839], [79.99345, 13.01842], [79.99226, 13.01862], [79.99178, 13.01871], [79.99114, 13.0188], [79.99068, 13.01875], [79.99039, 13.01867], [79.98952, 13.01831], [79.9889, 13.01809], [79.98871, 13.01804], [79.9873, 13.01802], [79.98606, 13.01801], [79.98267, 13.01788], [79.98083, 13.01788], [79.97946, 13.01791], [79.97921, 13.01794], [79.9789, 13.01805], [79.97626, 13.0195], [79.97336, 13.02117], [79.97329, 13.0212], [79.97284, 13.02137], [79.97264, 13.0214], [79.97187, 13.02143], [79.97058, 13.02147], [79.9693, 13.02156], [79.96603, 13.02172], [79.96333, 13.02184], [79.96248, 13.0219], [79.95796, 13.02215], [79.95751, 13.02217], [79.9573, 13.02212], [79.95721, 13.02206], [79.95704, 13.02189], [79.95683, 13.02164], [79.95667, 13.0215], [79.95646, 13.02137], [79.95604, 13.02132], [79.95554, 13.0213], [79.95486, 13.02122], [79.95454, 13.02111], [79.9538, 13.02071], [79.95263, 13.02003], [79.95214, 13.01971], [79.9516, 13.01929], [79.95119, 13.01891], [79.95088, 13.01859], [79.95003, 13.01768], [79.94991, 13.01757], [79.94943, 13.01719], [79.94849, 13.01653], [79.94746, 13.01586], [79.94688, 13.0155], [79.94664, 13.01536], [79.94564, 13.01492], [79.94486, 13.01458], [79.94442, 13.01441], [79.94416, 13.01441], [79.94394, 13.01444], [79.94372, 13.0145], [79.94324, 13.01469], [79.94306, 13.0148], [79.94286, 13.01495], [79.94261, 13.01516], [79.94236, 13.01539], [79.94192, 13.01573], [79.94173, 13.01583], [79.94157, 13.01588], [79.94142, 13.01591], [79.9411, 13.01592], [79.93383, 13.01575], [79.92968, 13.01562], [79.92697, 13.01553], [79.92694, 13.01551], [79.92681, 13.01549], [79.92653, 13.01548], [79.92349, 13.01535], [79.91998, 13.01525], [79.91618, 13.0151], [79.91231, 13.01498], [79.91228, 13.01498], [79.91152, 13.01497], [79.91114, 13.01508], [79.90692, 13.0164], [79.90631, 13.01653], [79.90314, 13.01687], [79.90156, 13.01704], [79.89967, 13.0172], [79.89854, 13.01731], [79.89823, 13.01737], [79.898, 13.01743], [79.8975, 13.0176], [79.89491, 13.01843], [79.89224, 13.01929], [79.88977, 13.02005], [79.88877, 13.02039], [79.88811, 13.02067], [79.88755, 13.02084], [79.88719, 13.02096], [79.8869, 13.02105], [79.88412, 13.02192], [79.88068, 13.023], [79.87675, 13.02421], [79.8756, 13.02458], [79.87359, 13.02521], [79.87294, 13.02543], [79.87267, 13.02553], [79.87255, 13.02561], [79.87117, 13.02676], [79.86971, 13.02797], [79.8684, 13.02907], [79.86806, 13.02925], [79.86646, 13.02976], [79.86412, 13.03047], [79.86308, 13.03075], [79.86197, 13.03098], [79.86175, 13.03101], [79.86082, 13.03107], [79.85996, 13.03103], [79.85927, 13.03099], [79.85807, 13.03099], [79.85766, 13.031], [79.85679, 13.03105], [79.85641, 13.03113], [79.85607, 13.03128], [79.8558, 13.03146], [79.85527, 13.03185], [79.85341, 13.0332], [79.85262, 13.03378], [79.85233, 13.03407], [79.85226, 13.03417], [79.8521, 13.03451], [79.85188, 13.03509], [79.8516, 13.03558], [79.85123, 13.03599], [79.85068, 13.03635], [79.85049, 13.03646], [79.85028, 13.03654], [79.85005, 13.03656], [79.84983, 13.03657], [79.84862, 13.03626], [79.8474, 13.03586], [79.84676, 13.0356], [79.84658, 13.03556], [79.84638, 13.03555], [79.84623, 13.03557], [79.84611, 13.03563], [79.84599, 13.03571], [79.84586, 13.03585], [79.84558, 13.03642], [79.8455, 13.03652], [79.84543, 13.03658], [79.84519, 13.03667], [79.8444, 13.03688], [79.84428, 13.03691], [79.84416, 13.03691], [79.8438, 13.03688], [79.8433, 13.03681], [79.83967, 13.03633], [79.83783, 13.03607], [79.83587, 13.03542], [79.83508, 13.03515], [79.83483, 13.035], [79.83443, 13.03464], [79.83373, 13.03399], [79.83214, 13.0325], [79.83106, 13.03148], [79.8309, 13.0313], [79.83052, 13.03099], [79.83029, 13.03088], [79.8299, 13.03074], [79.82918, 13.03049], [79.8287, 13.03027], [79.82713, 13.02969], [79.82661, 13.02953], [79.82659, 13.02952], [79.82576, 13.0291], [79.8255, 13.02903], [79.8245, 13.02879], [79.82373, 13.02844], [79.82325, 13.02821], [79.82284, 13.02809], [79.82175, 13.0277], [79.82098, 13.02747], [79.82046, 13.02716], [79.81995, 13.02676], [79.81949, 13.0264], [79.81888, 13.02618], [79.81807, 13.02625], [79.81734, 13.02635], [79.81707, 13.02639], [79.81646, 13.02638], [79.81635, 13.02699], [79.81647, 13.02703], [79.81664, 13.02704], [79.81682, 13.0271], [79.81695, 13.02721], [79.81709, 13.02742], [79.81719, 13.02753], [79.8173, 13.02757], [79.81756, 13.02769], [79.81767, 13.02776], [79.81773, 13.02783], [79.81773, 13.02788], [79.81775, 13.02798], [79.81769, 13.02819], [79.81742, 13.02872], [79.81688, 13.02966], [79.81652, 13.0303], [79.81645, 13.03054], [79.8164, 13.0308], [79.8163, 13.03141], [79.81624, 13.03168], [79.81629, 13.03198], [79.8163, 13.03224], [79.81628, 13.03269], [79.8163, 13.03286], [79.81619, 13.03321], [79.81599, 13.03386], [79.8158, 13.03444], [79.81562, 13.03502], [79.81553, 13.03532], [79.81531, 13.0357], [79.81504, 13.03556], [79.81493, 13.03578], [79.81435, 13.03669], [79.81427, 13.03698], [79.8139, 13.03787], [79.81346, 13.03754], [79.81332, 13.03742], [79.81306, 13.03718], [79.81253, 13.03667], [79.8121, 13.03616], [79.81184, 13.03587], [79.8117, 13.03565], [79.81135, 13.03542], [79.81053, 13.03491], [79.81023, 13.03472], [79.80981, 13.0345], [79.80955, 13.03442], [79.80932, 13.03439], [79.80901, 13.03435], [79.80876, 13.03423], [79.80797, 13.03385], [79.8073, 13.03355], [79.80654, 13.03322], [79.8063, 13.03308], [79.80609, 13.03291], [79.80555, 13.03269], [79.80516, 13.03252], [79.80486, 13.03236], [79.80442, 13.03216], [79.80376, 13.03187], [79.8031, 13.03157], [79.80262, 13.03137], [79.80232, 13.0312], [79.80216, 13.03114], [79.802, 13.0311], [79.80187, 13.03107]]}}]}