{"type": "FeatureCollection", "features": [{"type": "Feature", "properties": {"route_name": "53P", "stop_id": "NKkONliL", "name": "Pattur", "city": "CHENNAI"}, "geometry": {"type": "Point", "coordinates": [80.118546, 13.023014]}}, {"type": "Feature", "properties": {"route_name": "53P", "stop_id": "VHoqrdhk", "name": "Kalamagal Nagar", "city": "CHENNAI"}, "geometry": {"type": "Point", "coordinates": [80.11483502914189, 13.025255122848868]}}, {"type": "Feature", "properties": {"route_name": "53P", "stop_id": "RkUgARot", "name": "Pattur Road Junction", "city": "CHENNAI"}, "geometry": {"type": "Point", "coordinates": [80.11087753603431, 13.026741392810939]}}, {"type": "Feature", "properties": {"route_name": "53P", "stop_id": "xMTNzVPt", "name": "Mangadu", "city": "CHENNAI"}, "geometry": {"type": "Point", "coordinates": [80.11108402162427, 13.031817291222643]}}, {"type": "Feature", "properties": {"route_name": "53P", "stop_id": "sxclJLmG", "name": "Gangai Amman Kovil", "city": "CHENNAI"}, "geometry": {"type": "Point", "coordinates": [80.11305313902994, 13.038117200031355]}}, {"type": "Feature", "properties": {"route_name": "53P", "stop_id": "PNUwxzRj", "name": "Kumananchavadi", "city": "CHENNAI"}, "geometry": {"type": "Point", "coordinates": [80.11521467138664, 13.04396957339051]}}, {"type": "Feature", "properties": {"route_name": "53P", "stop_id": "owqgejgM", "name": "Poonamallee Municipality Or Kumananchavadi", "city": "CHENNAI"}, "geometry": {"type": "Point", "coordinates": [80.11562372266894, 13.04508321623015]}}, {"type": "Feature", "properties": {"route_name": "53P", "stop_id": "JXJZtHSD", "name": "Saveetha Hospital", "city": "CHENNAI"}, "geometry": {"type": "Point", "coordinates": [80.123659440187, 13.053506221789503]}}, {"type": "Feature", "properties": {"route_name": "53P", "stop_id": "xYUjBvzT", "name": "ACS Medical College", "city": "CHENNAI"}, "geometry": {"type": "Point", "coordinates": [80.12882447966979, 13.05818402953347]}}, {"type": "Feature", "properties": {"route_name": "53P", "stop_id": "CheNYOmP", "name": "Velappanchavadi", "city": "CHENNAI"}, "geometry": {"type": "Point", "coordinates": [80.13888028186238, 13.061401979827533]}}, {"type": "Feature", "properties": {"route_name": "53P", "stop_id": "ocwJSpah", "name": "Kumar Theatre", "city": "CHENNAI"}, "geometry": {"type": "Point", "coordinates": [80.14978370694485, 13.062205700490738]}}, {"type": "Feature", "properties": {"route_name": "53P", "stop_id": "VbpBVdde", "name": "Vaanagaram", "city": "CHENNAI"}, "geometry": {"type": "Point", "coordinates": [80.15520012113666, 13.060673625391631]}}, {"type": "Feature", "properties": {"route_name": "53P", "stop_id": "VTHwomVj", "name": "Maduravoyal Yerikarai", "city": "CHENNAI"}, "geometry": {"type": "Point", "coordinates": [80.16446669395509, 13.061455729139213]}}, {"type": "Feature", "properties": {"route_name": "53P", "stop_id": "bsQVAuyn", "name": "Maduravoyal", "city": "CHENNAI"}, "geometry": {"type": "Point", "coordinates": [80.16703854344019, 13.06335166693687]}}, {"type": "Feature", "properties": {"route_name": "53P", "stop_id": "pygvGZaF", "name": "Maduravoyal Post Office", "city": "CHENNAI"}, "geometry": {"type": "Point", "coordinates": [80.17183820173886, 13.064818116291125]}}, {"type": "Feature", "properties": {"route_name": "53P", "stop_id": "gnmwaIOJ", "name": "Maduravoyal Ration Shop", "city": "CHENNAI"}, "geometry": {"type": "Point", "coordinates": [80.17508584673715, 13.067056752749613]}}, {"type": "Feature", "properties": {"route_name": "53P", "stop_id": "nCsqpnJo", "name": "Vengaya Mandi", "city": "CHENNAI"}, "geometry": {"type": "Point", "coordinates": [80.18155052810914, 13.07003714330579]}}, {"type": "Feature", "properties": {"route_name": "53P", "stop_id": "owFNQNZv", "name": "Nerkundram", "city": "CHENNAI"}, "geometry": {"type": "Point", "coordinates": [80.18548770963264, 13.071513437160451]}}, {"type": "Feature", "properties": {"route_name": "53P", "stop_id": "RjtzWJgw", "name": "Mettukulam", "city": "CHENNAI"}, "geometry": {"type": "Point", "coordinates": [80.1924946938658, 13.074318754396097]}}, {"type": "Feature", "properties": {"route_name": "53P", "stop_id": "xiCfcAgb", "name": "Rohini Theatre", "city": "CHENNAI"}, "geometry": {"type": "Point", "coordinates": [80.19582407794906, 13.075332191278791]}}, {"type": "Feature", "properties": {"route_name": "53P", "stop_id": "SOBUilCD", "name": "Arumbakkam PH Road", "city": "CHENNAI"}, "geometry": {"type": "Point", "coordinates": [80.20359827, 13.07660345]}}, {"type": "Feature", "properties": {"route_name": "53P", "stop_id": "mdGitRQe", "name": "Arumbakkam Post Office", "city": "CHENNAI"}, "geometry": {"type": "Point", "coordinates": [80.21051820484536, 13.077240659521182]}}, {"type": "Feature", "properties": {"route_name": "53P", "stop_id": "wHfmVQMh", "name": "DG Vaishnava College", "city": "CHENNAI"}, "geometry": {"type": "Point", "coordinates": [80.21332764, 13.07614229]}}, {"type": "Feature", "properties": {"route_name": "53P", "stop_id": "cttUtMNm", "name": "NSK Nagar Arumbakkam", "city": "CHENNAI"}, "geometry": {"type": "Point", "coordinates": [80.21675219, 13.07518382]}}, {"type": "Feature", "properties": {"route_name": "53P", "stop_id": "fkZFUNSd", "name": "Amaindhakarai", "city": "CHENNAI"}, "geometry": {"type": "Point", "coordinates": [80.22576752682767, 13.074007015982867]}}, {"type": "Feature", "properties": {"route_name": "53P", "stop_id": "jFmPCmzM", "name": "Pachaiyappas College", "city": "CHENNAI"}, "geometry": {"type": "Point", "coordinates": [80.23465094093217, 13.076071157008514]}}, {"type": "Feature", "properties": {"route_name": "53P", "stop_id": "AjJCgCBk", "name": "Taylors Road", "city": "CHENNAI"}, "geometry": {"type": "Point", "coordinates": [80.23737175, 13.07657683]}}, {"type": "Feature", "properties": {"route_name": "53P", "stop_id": "nrKKniYe", "name": "KMC Hospital", "city": "CHENNAI"}, "geometry": {"type": "Point", "coordinates": [80.24411828837378, 13.077972939220746]}}, {"type": "Feature", "properties": {"route_name": "53P", "stop_id": "SlfNpref", "name": "Sangam Theatre", "city": "CHENNAI"}, "geometry": {"type": "Point", "coordinates": [80.24997819, 13.07886782]}}, {"type": "Feature", "properties": {"route_name": "53P", "stop_id": "aUPouXsN", "name": "Dasaprakash", "city": "CHENNAI"}, "geometry": {"type": "Point", "coordinates": [80.25370759, 13.07893057]}}, {"type": "Feature", "properties": {"route_name": "53P", "stop_id": "VjdckTjW", "name": "Thinathanthi", "city": "CHENNAI"}, "geometry": {"type": "Point", "coordinates": [80.26340568, 13.0805046]}}, {"type": "Feature", "properties": {"route_name": "53P", "stop_id": "GnsXgGJX", "name": "Hotel Everest", "city": "CHENNAI"}, "geometry": {"type": "Point", "coordinates": [80.26810708394851, 13.080814800082436]}}, {"type": "Feature", "properties": {"route_name": "53P", "stop_id": "PSjGjQXK", "name": "Park Station", "city": "CHENNAI"}, "geometry": {"type": "Point", "coordinates": [80.27331973115014, 13.081535577598643]}}, {"type": "Feature", "properties": {"route_name": "53P", "stop_id": "QHFmFyLR", "name": "High Court ", "city": "CHENNAI"}, "geometry": {"type": "Point", "coordinates": [80.28344657999999, 13.085009446858479]}}, {"type": "Feature", "properties": {"route_name": "53P", "stop_id": "EkWBPXmr", "name": "Broadway", "city": "CHENNAI"}, "geometry": {"type": "Point", "coordinates": [80.28388983, 13.08820568]}}, {"type": "Feature", "properties": {"name": "53P"}, "geometry": {"type": "LineString", "coordinates": [[80.11857, 13.02305], [80.11851, 13.0231], [80.11789, 13.02331], [80.11769, 13.0234], [80.1175, 13.02352], [80.11738, 13.02368], [80.11731, 13.02379], [80.11719, 13.02392], [80.11704, 13.024], [80.11688, 13.02406], [80.11637, 13.02408], [80.11622, 13.02411], [80.11605, 13.02418], [80.116, 13.02424], [80.11596, 13.02433], [80.11598, 13.02454], [80.11605, 13.0248], [80.11606, 13.02488], [80.11599, 13.02499], [80.11592, 13.02505], [80.11583, 13.0251], [80.11522, 13.02526], [80.11503, 13.02531], [80.11492, 13.0253], [80.11483, 13.02528], [80.11465, 13.02527], [80.11447, 13.02532], [80.11416, 13.02543], [80.11372, 13.02558], [80.11336, 13.02567], [80.11319, 13.02568], [80.11305, 13.02564], [80.1129, 13.02562], [80.11267, 13.02567], [80.11217, 13.02583], [80.11196, 13.02588], [80.11145, 13.02603], [80.11136, 13.02611], [80.11129, 13.0262], [80.11094, 13.02678], [80.11079, 13.02703], [80.11073, 13.02706], [80.11109, 13.02767], [80.11119, 13.02791], [80.11124, 13.0284], [80.11125, 13.02882], [80.11122, 13.02985], [80.11117, 13.03113], [80.11111, 13.03177], [80.11111, 13.03182], [80.11113, 13.03223], [80.1112, 13.03257], [80.11137, 13.03328], [80.11163, 13.03407], [80.11229, 13.03615], [80.11262, 13.03709], [80.113, 13.03795], [80.11307, 13.03811], [80.11364, 13.03939], [80.11403, 13.04033], [80.11414, 13.0407], [80.11431, 13.04116], [80.11435, 13.04127], [80.11448, 13.04138], [80.11461, 13.04145], [80.11486, 13.04155], [80.11491, 13.04163], [80.11496, 13.04177], [80.1151, 13.04227], [80.11522, 13.0427], [80.11527, 13.04297], [80.11524, 13.04312], [80.11519, 13.0432], [80.11507, 13.04335], [80.11505, 13.04342], [80.11504, 13.04347], [80.11505, 13.04354], [80.11511, 13.04371], [80.11525, 13.04395], [80.11552, 13.04449], [80.1156, 13.04474], [80.11564, 13.04504], [80.11595, 13.045], [80.11625, 13.04504], [80.11672, 13.04522], [80.11687, 13.04529], [80.11726, 13.04551], [80.11879, 13.04629], [80.11901, 13.04641], [80.11921, 13.04658], [80.11952, 13.04691], [80.11981, 13.04727], [80.1201, 13.04768], [80.12063, 13.04849], [80.12084, 13.04884], [80.12185, 13.05043], [80.12243, 13.05132], [80.12291, 13.05201], [80.12325, 13.05247], [80.12347, 13.05287], [80.12362, 13.05327], [80.12371, 13.05349], [80.12379, 13.05374], [80.12387, 13.0541], [80.12388, 13.05463], [80.12395, 13.05476], [80.12401, 13.05481], [80.12458, 13.05493], [80.12484, 13.055], [80.12517, 13.05512], [80.12524, 13.05521], [80.12547, 13.05534], [80.12643, 13.0561], [80.12801, 13.05744], [80.12827, 13.05763], [80.1285, 13.05777], [80.12892, 13.058], [80.13003, 13.05852], [80.13177, 13.05929], [80.13423, 13.06039], [80.13528, 13.06085], [80.13604, 13.06107], [80.1363, 13.06112], [80.1368, 13.06121], [80.13741, 13.06124], [80.13813, 13.06127], [80.13888, 13.0613], [80.14054, 13.0614], [80.14394, 13.06167], [80.14616, 13.06194], [80.14653, 13.06199], [80.14692, 13.06204], [80.1475, 13.06207], [80.14959, 13.06211], [80.14964, 13.06211], [80.14965, 13.06214], [80.14967, 13.06216], [80.1497, 13.06217], [80.14978, 13.06217], [80.15002, 13.06216], [80.15042, 13.06211], [80.15091, 13.06189], [80.15153, 13.06161], [80.15149, 13.06153], [80.15195, 13.06129], [80.15248, 13.06105], [80.15295, 13.06092], [80.15365, 13.06078], [80.15432, 13.06066], [80.15479, 13.0606], [80.1552, 13.06062], [80.15571, 13.06073], [80.156, 13.06084], [80.15646, 13.06108], [80.15729, 13.06153], [80.15742, 13.06158], [80.1577, 13.06164], [80.15816, 13.06168], [80.15906, 13.06157], [80.15937, 13.06152], [80.1603, 13.0614], [80.16071, 13.06139], [80.1611, 13.06138], [80.16229, 13.06134], [80.16304, 13.06132], [80.16389, 13.06135], [80.16427, 13.06136], [80.16448, 13.06138], [80.16501, 13.0615], [80.1652, 13.06158], [80.16534, 13.06166], [80.16554, 13.06183], [80.16587, 13.06218], [80.16611, 13.06243], [80.16664, 13.06294], [80.16708, 13.0633], [80.16777, 13.06382], [80.16837, 13.06414], [80.16875, 13.06425], [80.169, 13.06428], [80.16994, 13.0643], [80.17057, 13.0643], [80.17106, 13.06434], [80.17119, 13.06437], [80.17156, 13.06451], [80.1719, 13.06474], [80.17295, 13.06546], [80.17347, 13.06584], [80.17428, 13.06638], [80.17513, 13.067], [80.17557, 13.06732], [80.17576, 13.06742], [80.17605, 13.06752], [80.17634, 13.06757], [80.17654, 13.06758], [80.17707, 13.0676], [80.17757, 13.0676], [80.17782, 13.06762], [80.17821, 13.06771], [80.17849, 13.06785], [80.17896, 13.06814], [80.17972, 13.06863], [80.18074, 13.06939], [80.18111, 13.06963], [80.18158, 13.06996], [80.1823, 13.07036], [80.18271, 13.07057], [80.18318, 13.07078], [80.18369, 13.07097], [80.18551, 13.07144], [80.18633, 13.07167], [80.18657, 13.07175], [80.18743, 13.0721], [80.18904, 13.07282], [80.18947, 13.07304], [80.18963, 13.07315], [80.19, 13.07343], [80.19051, 13.07391], [80.19081, 13.07414], [80.19108, 13.07425], [80.19141, 13.07431], [80.1917, 13.07428], [80.19196, 13.07425], [80.19242, 13.07421], [80.19249, 13.07421], [80.1936, 13.07419], [80.19378, 13.07422], [80.19412, 13.07433], [80.19433, 13.07446], [80.19456, 13.07462], [80.19473, 13.07477], [80.19504, 13.07502], [80.19523, 13.07511], [80.19553, 13.07522], [80.19583, 13.07532], [80.19583, 13.07533], [80.19621, 13.07543], [80.19643, 13.07548], [80.19653, 13.07548], [80.19703, 13.07562], [80.19806, 13.07589], [80.19845, 13.07602], [80.19909, 13.0762], [80.19987, 13.07637], [80.20028, 13.07645], [80.20058, 13.07647], [80.20094, 13.07644], [80.20135, 13.07637], [80.20196, 13.07632], [80.20234, 13.07632], [80.20274, 13.07637], [80.20361, 13.07656], [80.20454, 13.07675], [80.20627, 13.07704], [80.207, 13.07714], [80.20737, 13.07715], [80.20796, 13.07718], [80.20885, 13.07725], [80.2095, 13.07729], [80.2099, 13.07727], [80.21051, 13.0772], [80.21138, 13.0771], [80.21167, 13.07706], [80.21196, 13.07696], [80.21221, 13.07683], [80.213, 13.07628], [80.21329, 13.07609], [80.21361, 13.07589], [80.214, 13.0757], [80.21433, 13.07557], [80.21481, 13.07541], [80.21524, 13.07534], [80.21594, 13.07524], [80.2167, 13.07517], [80.21675, 13.07517], [80.21709, 13.07512], [80.21783, 13.07503], [80.21818, 13.07497], [80.21948, 13.07473], [80.22059, 13.07454], [80.22153, 13.07441], [80.22271, 13.07427], [80.22457, 13.07409], [80.22562, 13.07398], [80.22576, 13.07397], [80.22576, 13.07398], [80.2258, 13.07397], [80.22618, 13.07397], [80.22663, 13.07399], [80.22836, 13.07414], [80.22912, 13.07426], [80.23004, 13.07459], [80.23071, 13.07489], [80.23101, 13.07502], [80.23208, 13.0754], [80.23304, 13.07571], [80.23388, 13.07591], [80.2346, 13.07604], [80.23466, 13.07605], [80.23578, 13.07629], [80.23669, 13.07641], [80.23738, 13.07656], [80.2387, 13.0769], [80.23965, 13.07712], [80.23997, 13.07719], [80.24056, 13.07735], [80.24195, 13.07763], [80.24261, 13.07775], [80.2437, 13.0779], [80.24412, 13.07795], [80.24416, 13.07795], [80.24446, 13.07794], [80.24568, 13.07804], [80.24619, 13.0781], [80.24678, 13.07821], [80.24796, 13.07847], [80.24878, 13.07865], [80.24973, 13.0788], [80.24998, 13.07883], [80.2507, 13.07887], [80.25183, 13.0789], [80.25277, 13.07887], [80.25337, 13.07886], [80.25362, 13.07888], [80.25371, 13.07889], [80.25571, 13.07913], [80.2571, 13.07927], [80.2574, 13.07925], [80.25763, 13.07928], [80.25874, 13.0794], [80.25996, 13.07954], [80.26044, 13.07963], [80.26095, 13.07975], [80.26139, 13.07992], [80.2617, 13.08006], [80.26211, 13.0802], [80.26341, 13.08047], [80.26481, 13.08074], [80.26519, 13.0808], [80.26545, 13.08082], [80.26692, 13.08079], [80.26811, 13.08079], [80.27012, 13.08085], [80.27072, 13.08091], [80.27097, 13.08101], [80.27124, 13.08109], [80.27179, 13.08123], [80.27331, 13.08151], [80.27395, 13.08162], [80.27516, 13.08172], [80.27603, 13.08179], [80.27668, 13.0819], [80.27804, 13.08212], [80.27854, 13.08216], [80.28088, 13.08237], [80.28122, 13.08238], [80.28166, 13.08237], [80.28177, 13.08254], [80.28242, 13.08356], [80.28283, 13.08421], [80.28313, 13.08461], [80.28334, 13.08483], [80.2835, 13.08495], [80.28407, 13.08533], [80.2843, 13.08545], [80.28452, 13.08553], [80.28499, 13.08744], [80.28522, 13.08839], [80.28479, 13.08839], [80.28416, 13.08837], [80.28388, 13.08836]]}}]}