{"type": "FeatureCollection", "features": [{"type": "Feature", "properties": {"route_name": "6DET", "stop_id": "gyQqEnFq", "name": "Thiruvanmiyur Depot", "city": "CHENNAI"}, "geometry": {"type": "Point", "coordinates": [80.2592892551454, 12.98684992620367]}}, {"type": "Feature", "properties": {"route_name": "6DET", "stop_id": "cNypyxpr", "name": "Jayanthi Theatre", "city": "CHENNAI"}, "geometry": {"type": "Point", "coordinates": [80.25582217606757, 12.988722680619484]}}, {"type": "Feature", "properties": {"route_name": "6DET", "stop_id": "oBtsEQRM", "name": "Adyar Depot", "city": "CHENNAI"}, "geometry": {"type": "Point", "coordinates": [80.25695696760033, 12.996937810693039]}}, {"type": "Feature", "properties": {"route_name": "6DET", "stop_id": "flXjJYer", "name": "Vannandurai", "city": "CHENNAI"}, "geometry": {"type": "Point", "coordinates": [80.26238635543996, 12.996336616815716]}}, {"type": "Feature", "properties": {"route_name": "6DET", "stop_id": "QontmjvH", "name": "RBI Quarters", "city": "CHENNAI"}, "geometry": {"type": "Point", "coordinates": [80.26494945595209, 12.996047235922285]}}, {"type": "Feature", "properties": {"route_name": "6DET", "stop_id": "JIllbhjr", "name": "Besant Nagar", "city": "CHENNAI"}, "geometry": {"type": "Point", "coordinates": [80.26764591497988, 12.99621114454262]}}, {"type": "Feature", "properties": {"route_name": "6DET", "stop_id": "YQjdQVmS", "name": "Olcott Memorial Higher Secondary School", "city": "CHENNAI"}, "geometry": {"type": "Point", "coordinates": [80.26870089527858, 13.00344042025507]}}, {"type": "Feature", "properties": {"route_name": "6DET", "stop_id": "DSOJysaP", "name": "Avvai Home", "city": "CHENNAI"}, "geometry": {"type": "Point", "coordinates": [80.26142483910007, 13.007370695734874]}}, {"type": "Feature", "properties": {"route_name": "6DET", "stop_id": "IgEBJNwX", "name": "M G R Janaki College Or Sathya Studio", "city": "CHENNAI"}, "geometry": {"type": "Point", "coordinates": [80.2595102964633, 13.016234316383857]}}, {"type": "Feature", "properties": {"route_name": "6DET", "stop_id": "gpaAUChy", "name": "Music College Annamalai Puram", "city": "CHENNAI"}, "geometry": {"type": "Point", "coordinates": [80.26292571955105, 13.019074647236751]}}, {"type": "Feature", "properties": {"route_name": "6DET", "stop_id": "NuyYqrDq", "name": "MRC Nagar", "city": "CHENNAI"}, "geometry": {"type": "Point", "coordinates": [80.27036813612654, 13.021484803247045]}}, {"type": "Feature", "properties": {"route_name": "6DET", "stop_id": "BaKUDeNn", "name": "Foreshore Estate MTC Bus Stop", "city": "CHENNAI"}, "geometry": {"type": "Point", "coordinates": [80.27482539325126, 13.025366255196667]}}, {"type": "Feature", "properties": {"route_name": "6DET", "stop_id": "rZoajhYh", "name": "Santhome Church", "city": "CHENNAI"}, "geometry": {"type": "Point", "coordinates": [80.27738903245381, 13.032849253411555]}}, {"type": "Feature", "properties": {"route_name": "6DET", "stop_id": "taEXnGBL", "name": "All India Radio Light House", "city": "CHENNAI"}, "geometry": {"type": "Point", "coordinates": [80.27866136319756, 13.039040201562091]}}, {"type": "Feature", "properties": {"route_name": "6DET", "stop_id": "MEVzYGii", "name": "Swami Vivekananda House", "city": "CHENNAI"}, "geometry": {"type": "Point", "coordinates": [80.28077123417779, 13.05099021956659]}}, {"type": "Feature", "properties": {"route_name": "6DET", "stop_id": "xnBCUPNx", "name": "Kannagi Statue Or Presidency College", "city": "CHENNAI"}, "geometry": {"type": "Point", "coordinates": [80.281707933196, 13.056427710112223]}}, {"type": "Feature", "properties": {"route_name": "6DET", "stop_id": "FTwVCxQy", "name": "Marina Beach", "city": "CHENNAI"}, "geometry": {"type": "Point", "coordinates": [80.28275206242665, 13.061415983604778]}}, {"type": "Feature", "properties": {"route_name": "6DET", "stop_id": "pSVDMeCH", "name": "Madras University", "city": "CHENNAI"}, "geometry": {"type": "Point", "coordinates": [80.2836325989881, 13.06540783148406]}}, {"type": "Feature", "properties": {"route_name": "6DET", "stop_id": "KplKuAnp", "name": "War Memorial", "city": "CHENNAI"}, "geometry": {"type": "Point", "coordinates": [80.28520575363859, 13.073113747429415]}}, {"type": "Feature", "properties": {"route_name": "6DET", "stop_id": "iYMJvRAf", "name": "Secretariat", "city": "CHENNAI"}, "geometry": {"type": "Point", "coordinates": [80.28822578827817, 13.080755125518284]}}, {"type": "Feature", "properties": {"route_name": "6DET", "stop_id": "hysxdiTF", "name": "R B I Parrys", "city": "CHENNAI"}, "geometry": {"type": "Point", "coordinates": [80.28883833662758, 13.082466252647215]}}, {"type": "Feature", "properties": {"route_name": "6DET", "stop_id": "gBkmsEyR", "name": "Parrys Corner", "city": "CHENNAI"}, "geometry": {"type": "Point", "coordinates": [80.29099080584331, 13.090762751453648]}}, {"type": "Feature", "properties": {"route_name": "6DET", "stop_id": "ubZrQMid", "name": "Beach Station", "city": "CHENNAI"}, "geometry": {"type": "Point", "coordinates": [80.29223956369128, 13.094517419625104]}}, {"type": "Feature", "properties": {"route_name": "6DET", "stop_id": "vfdAIPGv", "name": "Clive Battery", "city": "CHENNAI"}, "geometry": {"type": "Point", "coordinates": [80.29406209, 13.10009011]}}, {"type": "Feature", "properties": {"route_name": "6DET", "stop_id": "CzqgXocH", "name": "R S R M Hospital", "city": "CHENNAI"}, "geometry": {"type": "Point", "coordinates": [80.28845022, 13.1084485]}}, {"type": "Feature", "properties": {"route_name": "6DET", "stop_id": "XVbubuGa", "name": "Pandian Theatre", "city": "CHENNAI"}, "geometry": {"type": "Point", "coordinates": [80.281684543957, 13.112666128268456]}}, {"type": "Feature", "properties": {"route_name": "6DET", "stop_id": "OwpcAtJV", "name": "Theagaraya College", "city": "CHENNAI"}, "geometry": {"type": "Point", "coordinates": [80.28411200165647, 13.117138527021096]}}, {"type": "Feature", "properties": {"route_name": "6DET", "stop_id": "KnWWIWQx", "name": "Mani Koondu", "city": "CHENNAI"}, "geometry": {"type": "Point", "coordinates": [80.28687765306711, 13.122325306543965]}}, {"type": "Feature", "properties": {"route_name": "6DET", "stop_id": "yAqyhWkU", "name": "Apollo Or Cholera Hospital", "city": "CHENNAI"}, "geometry": {"type": "Point", "coordinates": [80.29051956610328, 13.128449481490392]}}, {"type": "Feature", "properties": {"route_name": "6DET", "stop_id": "GcGOdrPa", "name": "Tondiarpet Bus Depot", "city": "CHENNAI"}, "geometry": {"type": "Point", "coordinates": [80.29179334385788, 13.13168046492707]}}, {"type": "Feature", "properties": {"route_name": "6DET", "stop_id": "wWcBzuvM", "name": "Lakshmi Amman Koil", "city": "CHENNAI"}, "geometry": {"type": "Point", "coordinates": [80.29313387803404, 13.135129164535664]}}, {"type": "Feature", "properties": {"route_name": "6DET", "stop_id": "TAifzqok", "name": "Cross Road Toll Gate", "city": "CHENNAI"}, "geometry": {"type": "Point", "coordinates": [80.29448687757758, 13.138748981637347]}}, {"type": "Feature", "properties": {"route_name": "6DET", "stop_id": "RkbXqAIs", "name": "Thangal Toll Gate", "city": "CHENNAI"}, "geometry": {"type": "Point", "coordinates": [80.29684030730448, 13.144705317373964]}}, {"type": "Feature", "properties": {"name": "6DET"}, "geometry": {"type": "LineString", "coordinates": [[80.25965, 12.98684], [80.25964, 12.98617], [80.25959, 12.98564], [80.25947, 12.98482], [80.25943, 12.98394], [80.25807, 12.98413], [80.25764, 12.9842], [80.25768, 12.98457], [80.25782, 12.98564], [80.25663, 12.98578], [80.25579, 12.98587], [80.25544, 12.98591], [80.25552, 12.98629], [80.25548, 12.98638], [80.25553, 12.98676], [80.2557, 12.98764], [80.2558, 12.98827], [80.25584, 12.98872], [80.25583, 12.98872], [80.25597, 12.99071], [80.25564, 12.99076], [80.25522, 12.99078], [80.25466, 12.9908], [80.2545, 12.99078], [80.25425, 12.9908], [80.25383, 12.99095], [80.25356, 12.99112], [80.25319, 12.99153], [80.2531, 12.99177], [80.25299, 12.99208], [80.25296, 12.99226], [80.25293, 12.99254], [80.2529, 12.99273], [80.25284, 12.99317], [80.25281, 12.99335], [80.25264, 12.9939], [80.25233, 12.99505], [80.25244, 12.99509], [80.2526, 12.99513], [80.25297, 12.99529], [80.25319, 12.99549], [80.25393, 12.99619], [80.25433, 12.9966], [80.25463, 12.99678], [80.25505, 12.99688], [80.25555, 12.99698], [80.25595, 12.997], [80.25636, 12.99697], [80.2569, 12.99693], [80.25695, 12.99689], [80.25768, 12.99676], [80.2582, 12.9967], [80.25929, 12.99658], [80.26193, 12.99631], [80.26238, 12.99627], [80.26494, 12.99598], [80.26682, 12.9958], [80.26767, 12.99571], [80.26772, 12.9962], [80.26775, 12.99686], [80.26767, 12.99726], [80.26748, 12.99783], [80.26725, 12.99861], [80.26705, 12.99934], [80.26689, 12.99987], [80.2668, 13.00013], [80.26681, 13.00025], [80.26682, 13.00028], [80.26682, 13.00031], [80.26684, 13.00035], [80.26695, 13.00049], [80.26712, 13.00076], [80.26788, 13.00206], [80.26873, 13.00342], [80.26962, 13.00486], [80.27014, 13.00571], [80.27047, 13.00641], [80.27034, 13.00667], [80.27009, 13.00682], [80.26931, 13.00707], [80.26803, 13.00728], [80.26722, 13.00748], [80.26542, 13.00787], [80.26463, 13.00801], [80.26416, 13.0081], [80.26374, 13.00797], [80.26334, 13.00791], [80.26213, 13.00758], [80.26151, 13.00743], [80.26141, 13.00741], [80.26061, 13.00724], [80.26019, 13.0072], [80.26006, 13.00721], [80.25987, 13.00726], [80.25953, 13.00734], [80.25924, 13.00741], [80.25905, 13.0073], [80.2589, 13.00735], [80.25871, 13.00743], [80.25858, 13.00752], [80.25874, 13.00781], [80.25891, 13.00813], [80.25895, 13.00827], [80.25897, 13.00834], [80.25902, 13.00866], [80.25906, 13.00991], [80.25908, 13.01072], [80.25909, 13.01233], [80.25914, 13.01345], [80.25921, 13.01527], [80.25928, 13.01559], [80.25934, 13.01578], [80.25947, 13.01607], [80.25956, 13.01621], [80.26023, 13.01724], [80.26071, 13.018], [80.26105, 13.01845], [80.26125, 13.01879], [80.26153, 13.01902], [80.26159, 13.01913], [80.26207, 13.01962], [80.26249, 13.02001], [80.26262, 13.02016], [80.26273, 13.02035], [80.26288, 13.02037], [80.26295, 13.02034], [80.26302, 13.02029], [80.26289, 13.01908], [80.26293, 13.01902], [80.26386, 13.01914], [80.26427, 13.01916], [80.26445, 13.01916], [80.26484, 13.01905], [80.2656, 13.01881], [80.26599, 13.01873], [80.26637, 13.01874], [80.26703, 13.01884], [80.26715, 13.01887], [80.26739, 13.01899], [80.26776, 13.01929], [80.2687, 13.02005], [80.26953, 13.02071], [80.27005, 13.02118], [80.27038, 13.02147], [80.27063, 13.02168], [80.27127, 13.02215], [80.2735, 13.02385], [80.27387, 13.02406], [80.27455, 13.02469], [80.27461, 13.02479], [80.27485, 13.02536], [80.27509, 13.02589], [80.27533, 13.02647], [80.27549, 13.02677], [80.27565, 13.02718], [80.27577, 13.02738], [80.27632, 13.02867], [80.27641, 13.02883], [80.27672, 13.02996], [80.27679, 13.03018], [80.27693, 13.03044], [80.27706, 13.03063], [80.27717, 13.03084], [80.27749, 13.03142], [80.27755, 13.03177], [80.27755, 13.03191], [80.27749, 13.03229], [80.27744, 13.03285], [80.27741, 13.03315], [80.27733, 13.03345], [80.27732, 13.03367], [80.27752, 13.03446], [80.27765, 13.03519], [80.2779, 13.03629], [80.27794, 13.03648], [80.27803, 13.03672], [80.27822, 13.03717], [80.27833, 13.0376], [80.27848, 13.03824], [80.27865, 13.03881], [80.27872, 13.03902], [80.27886, 13.03945], [80.27898, 13.0398], [80.27906, 13.04026], [80.27921, 13.04085], [80.2795, 13.04227], [80.2796, 13.04325], [80.27957, 13.04329], [80.27956, 13.04334], [80.27957, 13.04338], [80.27959, 13.04342], [80.27963, 13.04345], [80.27965, 13.04345], [80.27984, 13.04435], [80.27991, 13.04477], [80.27995, 13.04482], [80.28046, 13.04846], [80.28075, 13.05049], [80.28082, 13.05098], [80.28101, 13.05222], [80.28117, 13.05308], [80.28128, 13.05379], [80.28149, 13.05485], [80.28182, 13.05641], [80.28207, 13.05771], [80.28267, 13.06062], [80.28285, 13.06139], [80.28335, 13.06379], [80.2834, 13.06401], [80.28338, 13.06414], [80.2834, 13.06423], [80.28367, 13.0654], [80.28415, 13.06764], [80.28417, 13.06779], [80.2842, 13.06808], [80.28476, 13.07033], [80.2853, 13.07242], [80.28531, 13.07312], [80.28528, 13.07334], [80.28529, 13.07352], [80.28531, 13.07369], [80.28534, 13.07378], [80.28547, 13.0739], [80.28562, 13.07399], [80.28572, 13.07403], [80.28582, 13.07401], [80.28596, 13.0743], [80.28628, 13.07475], [80.28681, 13.07561], [80.28688, 13.07576], [80.28694, 13.07597], [80.28765, 13.07878], [80.28793, 13.07939], [80.28805, 13.08009], [80.28824, 13.08075], [80.28869, 13.08206], [80.28887, 13.08245], [80.28888, 13.08248], [80.28905, 13.08289], [80.28912, 13.08323], [80.2891, 13.08438], [80.28909, 13.08471], [80.28912, 13.08517], [80.28919, 13.08557], [80.28926, 13.08589], [80.28942, 13.08654], [80.28966, 13.08731], [80.28983, 13.08779], [80.28993, 13.08794], [80.29026, 13.08876], [80.29053, 13.08932], [80.29106, 13.09074], [80.29152, 13.09219], [80.29202, 13.09368], [80.29228, 13.0945], [80.29227, 13.09451], [80.29295, 13.09651], [80.29349, 13.09812], [80.29402, 13.09984], [80.29408, 13.10008], [80.29429, 13.10116], [80.29428, 13.10122], [80.29424, 13.10132], [80.29413, 13.10143], [80.29388, 13.10161], [80.29363, 13.10175], [80.29339, 13.10186], [80.2928, 13.10206], [80.29195, 13.10226], [80.29111, 13.10249], [80.29099, 13.10257], [80.29085, 13.1027], [80.29072, 13.10286], [80.29068, 13.10295], [80.29075, 13.10333], [80.29078, 13.10352], [80.29079, 13.10368], [80.29085, 13.10406], [80.29089, 13.10446], [80.29088, 13.10488], [80.2909, 13.10515], [80.29097, 13.10557], [80.2911, 13.10625], [80.29126, 13.10706], [80.29139, 13.10796], [80.29039, 13.10806], [80.28992, 13.10821], [80.28956, 13.10825], [80.28906, 13.10839], [80.28867, 13.10849], [80.28848, 13.10854], [80.28675, 13.10904], [80.28532, 13.10942], [80.2843, 13.10968], [80.28378, 13.10983], [80.28301, 13.11005], [80.28189, 13.11031], [80.28126, 13.11048], [80.28134, 13.11079], [80.28146, 13.11129], [80.28148, 13.11152], [80.28148, 13.11173], [80.2815, 13.11209], [80.28155, 13.11223], [80.2817, 13.11263], [80.28171, 13.11266], [80.28201, 13.11347], [80.28235, 13.11432], [80.28253, 13.11477], [80.28278, 13.11511], [80.28342, 13.11604], [80.28392, 13.11675], [80.28414, 13.11712], [80.28461, 13.11788], [80.28503, 13.11846], [80.28588, 13.11995], [80.28624, 13.12069], [80.28639, 13.12113], [80.2864, 13.12121], [80.28641, 13.12125], [80.28679, 13.12205], [80.28692, 13.1223], [80.28706, 13.12258], [80.28733, 13.12307], [80.28755, 13.12338], [80.28772, 13.12345], [80.28788, 13.12359], [80.28814, 13.12383], [80.28832, 13.12405], [80.28838, 13.12414], [80.28845, 13.12433], [80.28853, 13.12445], [80.28869, 13.12468], [80.28884, 13.12496], [80.28905, 13.12533], [80.28924, 13.12576], [80.29, 13.12724], [80.29034, 13.12789], [80.29032, 13.12791], [80.2903, 13.12794], [80.29029, 13.128], [80.29044, 13.12806], [80.29058, 13.12843], [80.29186, 13.13165], [80.29249, 13.13339], [80.29257, 13.13367], [80.29258, 13.13375], [80.29269, 13.13393], [80.29285, 13.13418], [80.29296, 13.13442], [80.29319, 13.13511], [80.29353, 13.13618], [80.29361, 13.13635], [80.29369, 13.1366], [80.29397, 13.13722], [80.29404, 13.13743], [80.29437, 13.13837], [80.29451, 13.13874], [80.29549, 13.14136], [80.29569, 13.14181], [80.29603, 13.14267], [80.2963, 13.14338], [80.29657, 13.14396], [80.29689, 13.14469]]}}]}