{"type": "FeatureCollection", "features": [{"type": "Feature", "properties": {"route_name": "99X", "stop_id": "YnUujGmz", "name": "Kilambakkam Bus Terminus", "city": "CHENNAI"}, "geometry": {"type": "Point", "coordinates": [80.07817166137694, 12.874405275808607]}}, {"type": "Feature", "properties": {"route_name": "99X", "stop_id": "CbcrfuAf", "name": "Vandalur Zoo", "city": "CHENNAI"}, "geometry": {"type": "Point", "coordinates": [80.08058627698756, 12.88094584155778]}}, {"type": "Feature", "properties": {"route_name": "99X", "stop_id": "gGkadTNm", "name": "Vandalur Gate", "city": "CHENNAI"}, "geometry": {"type": "Point", "coordinates": [80.0861980335012, 12.89323631083488]}}, {"type": "Feature", "properties": {"route_name": "99X", "stop_id": "RyPegcUV", "name": "Iraniyamman Koil", "city": "CHENNAI"}, "geometry": {"type": "Point", "coordinates": [80.08932019596341, 12.897432906791021]}}, {"type": "Feature", "properties": {"route_name": "99X", "stop_id": "qPtpgxic", "name": "Perungalattur", "city": "CHENNAI"}, "geometry": {"type": "Point", "coordinates": [80.09617808374855, 12.906468063975968]}}, {"type": "Feature", "properties": {"route_name": "99X", "stop_id": "szgsvNJG", "name": "Perungalatgur Lake View Stop", "city": "CHENNAI"}, "geometry": {"type": "Point", "coordinates": [80.09829411, 12.90905514]}}, {"type": "Feature", "properties": {"route_name": "99X", "stop_id": "SEVBrkvc", "name": "Irumbuliyur", "city": "CHENNAI"}, "geometry": {"type": "Point", "coordinates": [80.1058340174651, 12.916500866623101]}}, {"type": "Feature", "properties": {"route_name": "99X", "stop_id": "ojqTFFWy", "name": "Tambaram West Bus Stand", "city": "CHENNAI"}, "geometry": {"type": "Point", "coordinates": [80.11862628452741, 12.927652178598898]}}, {"type": "Feature", "properties": {"route_name": "99X", "stop_id": "SVPLEqNI", "name": "MR Theatre", "city": "CHENNAI"}, "geometry": {"type": "Point", "coordinates": [80.11590674666172, 12.924509468493074]}}, {"type": "Feature", "properties": {"route_name": "99X", "stop_id": "slfxTuih", "name": "Tambaram East Bus Stop", "city": "CHENNAI"}, "geometry": {"type": "Point", "coordinates": [80.12050048174797, 12.923398028038447]}}, {"type": "Feature", "properties": {"route_name": "99X", "stop_id": "iYTiOTOT", "name": "Poondi Bazaar", "city": "CHENNAI"}, "geometry": {"type": "Point", "coordinates": [80.12559874995668, 12.923184074468544]}}, {"type": "Feature", "properties": {"route_name": "99X", "stop_id": "pPKqPUVW", "name": "East Tambaram Convent", "city": "CHENNAI"}, "geometry": {"type": "Point", "coordinates": [80.13077968753532, 12.922863534282508]}}, {"type": "Feature", "properties": {"route_name": "99X", "stop_id": "tcYerYbk", "name": "Aathi Nagar", "city": "CHENNAI"}, "geometry": {"type": "Point", "coordinates": [80.133409434643, 12.922781355856248]}}, {"type": "Feature", "properties": {"route_name": "99X", "stop_id": "jJVVpGMf", "name": "Selaiyur", "city": "CHENNAI"}, "geometry": {"type": "Point", "coordinates": [80.13743793819572, 12.922595220822112]}}, {"type": "Feature", "properties": {"route_name": "99X", "stop_id": "pwpCkicC", "name": "Camp Road Junction Selaiyur", "city": "CHENNAI"}, "geometry": {"type": "Point", "coordinates": [80.14384125454421, 12.922601831927487]}}, {"type": "Feature", "properties": {"route_name": "99X", "stop_id": "LhQSpAzy", "name": "Mahalakshmi Nagar", "city": "CHENNAI"}, "geometry": {"type": "Point", "coordinates": [80.14726512966445, 12.922705274965574]}}, {"type": "Feature", "properties": {"route_name": "99X", "stop_id": "tyrVGRMU", "name": "Rajakilpakkam", "city": "CHENNAI"}, "geometry": {"type": "Point", "coordinates": [80.15175722334902, 12.92280022383085]}}, {"type": "Feature", "properties": {"route_name": "99X", "stop_id": "HajxumVd", "name": "Kamarajapuram Camp Road", "city": "CHENNAI"}, "geometry": {"type": "Point", "coordinates": [80.15405773809823, 12.923332477027662]}}, {"type": "Feature", "properties": {"route_name": "99X", "stop_id": "sZNeRfOC", "name": "Sembakkam", "city": "CHENNAI"}, "geometry": {"type": "Point", "coordinates": [80.16004625996175, 12.923417138112672]}}, {"type": "Feature", "properties": {"route_name": "99X", "stop_id": "YBasMniA", "name": "Prince College", "city": "CHENNAI"}, "geometry": {"type": "Point", "coordinates": [80.16396133867363, 12.9221793328932]}}, {"type": "Feature", "properties": {"route_name": "99X", "stop_id": "ZFFevgPB", "name": "Sivet", "city": "CHENNAI"}, "geometry": {"type": "Point", "coordinates": [80.16784668159437, 12.920947546908874]}}, {"type": "Feature", "properties": {"route_name": "99X", "stop_id": "qehlKNkR", "name": "Santhosapuram", "city": "CHENNAI"}, "geometry": {"type": "Point", "coordinates": [80.1712862414247, 12.919902030044325]}}, {"type": "Feature", "properties": {"route_name": "99X", "stop_id": "hApOmpAO", "name": "Vijaya Nagaram", "city": "CHENNAI"}, "geometry": {"type": "Point", "coordinates": [80.17889734110452, 12.919022053180719]}}, {"type": "Feature", "properties": {"route_name": "99X", "stop_id": "lUWTaWkd", "name": "Medavakkam", "city": "CHENNAI"}, "geometry": {"type": "Point", "coordinates": [80.18190556301818, 12.919856467070181]}}, {"type": "Feature", "properties": {"route_name": "99X", "stop_id": "mhTYFecR", "name": "Medavakkam Junction", "city": "CHENNAI"}, "geometry": {"type": "Point", "coordinates": [80.19288235943782, 12.917194864128613]}}, {"type": "Feature", "properties": {"route_name": "99X", "stop_id": "RXuaQdiQ", "name": "Pallavan Nagar", "city": "CHENNAI"}, "geometry": {"type": "Point", "coordinates": [80.19642130072407, 12.910899984144496]}}, {"type": "Feature", "properties": {"route_name": "99X", "stop_id": "orpkgmYq", "name": "Perumbakkam", "city": "CHENNAI"}, "geometry": {"type": "Point", "coordinates": [80.19891051249408, 12.907814338143604]}}, {"type": "Feature", "properties": {"route_name": "99X", "stop_id": "EPWXwPSq", "name": "Bharathi Vidyalaya", "city": "CHENNAI"}, "geometry": {"type": "Point", "coordinates": [80.20192493344189, 12.907616214732847]}}, {"type": "Feature", "properties": {"route_name": "99X", "stop_id": "vfoDngvn", "name": "Global Hospital", "city": "CHENNAI"}, "geometry": {"type": "Point", "coordinates": [80.20807565931023, 12.905467197731257]}}, {"type": "Feature", "properties": {"route_name": "99X", "stop_id": "gHieypBQ", "name": "HCL Company", "city": "CHENNAI"}, "geometry": {"type": "Point", "coordinates": [80.21836521630621, 12.901749453198974]}}, {"type": "Feature", "properties": {"route_name": "99X", "stop_id": "IOpdOfiF", "name": "Sholinganallur", "city": "CHENNAI"}, "geometry": {"type": "Point", "coordinates": [80.22757351041218, 12.901051091395193]}}, {"type": "Feature", "properties": {"route_name": "99X", "stop_id": "xMYnsmAG", "name": "Pratyangira Temple", "city": "CHENNAI"}, "geometry": {"type": "Point", "coordinates": [80.23104522388564, 12.900934738460222]}}, {"type": "Feature", "properties": {"route_name": "99X", "stop_id": "mkMGVFdU", "name": "Akkarai", "city": "CHENNAI"}, "geometry": {"type": "Point", "coordinates": [80.24707778819152, 12.89784478169814]}}, {"type": "Feature", "properties": {"route_name": "99X", "stop_id": "iWUiEObr", "name": "VGP Golden Beach", "city": "CHENNAI"}, "geometry": {"type": "Point", "coordinates": [80.25011616209417, 12.913931847130048]}}, {"type": "Feature", "properties": {"route_name": "99X", "stop_id": "RwWmKtXH", "name": "Injambakkam", "city": "CHENNAI"}, "geometry": {"type": "Point", "coordinates": [80.25066185728383, 12.91884945998972]}}, {"type": "Feature", "properties": {"route_name": "99X", "stop_id": "YBtfPRlp", "name": "Bethal Nagar", "city": "CHENNAI"}, "geometry": {"type": "Point", "coordinates": [80.25107412173497, 12.924759104652258]}}, {"type": "Feature", "properties": {"route_name": "99X", "stop_id": "aBlpKWpT", "name": "Sai Baba Temple", "city": "CHENNAI"}, "geometry": {"type": "Point", "coordinates": [80.25126291802098, 12.927545726381615]}}, {"type": "Feature", "properties": {"route_name": "99X", "stop_id": "aHnvxyXJ", "name": "Vettuvakeni", "city": "CHENNAI"}, "geometry": {"type": "Point", "coordinates": [80.25255460224946, 12.938413940588674]}}, {"type": "Feature", "properties": {"route_name": "99X", "stop_id": "UWROvtjV", "name": "Bhuari Hotel", "city": "CHENNAI"}, "geometry": {"type": "Point", "coordinates": [80.2531554666648, 12.9422410506325]}}, {"type": "Feature", "properties": {"route_name": "99X", "stop_id": "YpZAWuci", "name": "Nellankarai", "city": "CHENNAI"}, "geometry": {"type": "Point", "coordinates": [80.2546981789809, 12.949667832757102]}}, {"type": "Feature", "properties": {"route_name": "99X", "stop_id": "QzSmToFg", "name": "Ice Factory", "city": "CHENNAI"}, "geometry": {"type": "Point", "coordinates": [80.25507232284247, 12.954090629144833]}}, {"type": "Feature", "properties": {"route_name": "99X", "stop_id": "ZsSjTAXN", "name": "Saint Anthony Church or Palavakkam", "city": "CHENNAI"}, "geometry": {"type": "Point", "coordinates": [80.2554227519206, 12.958366155416327]}}, {"type": "Feature", "properties": {"route_name": "99X", "stop_id": "jiBUapiv", "name": "Palavakkam", "city": "CHENNAI"}, "geometry": {"type": "Point", "coordinates": [80.25604127899078, 12.961248198599693]}}, {"type": "Feature", "properties": {"route_name": "99X", "stop_id": "gHkojtqc", "name": "Kottivakkam", "city": "CHENNAI"}, "geometry": {"type": "Point", "coordinates": [80.25755937596591, 12.969602191298314]}}, {"type": "Feature", "properties": {"route_name": "99X", "stop_id": "QPpuxtew", "name": "Thiruvalluvar Nagar RTO", "city": "CHENNAI"}, "geometry": {"type": "Point", "coordinates": [80.25900785628687, 12.9767632530328]}}, {"type": "Feature", "properties": {"route_name": "99X", "stop_id": "uRlXNIwL", "name": "Thiruvanmiyur Depot", "city": "CHENNAI"}, "geometry": {"type": "Point", "coordinates": [80.2578287923368, 12.98637163647069]}}, {"type": "Feature", "properties": {"route_name": "99X", "stop_id": "cNypyxpr", "name": "Jayanthi Theatre", "city": "CHENNAI"}, "geometry": {"type": "Point", "coordinates": [80.25582217606757, 12.988722680619484]}}, {"type": "Feature", "properties": {"route_name": "99X", "stop_id": "cTQVugNT", "name": "Adyar Depot", "city": "CHENNAI"}, "geometry": {"type": "Point", "coordinates": [80.25595449198102, 12.998757450902367]}}, {"type": "Feature", "properties": {"route_name": "99X", "stop_id": "iOuVBZzk", "name": "Adyar Signal", "city": "CHENNAI"}, "geometry": {"type": "Point", "coordinates": [80.25736646974485, 13.00648356707115]}}, {"type": "Feature", "properties": {"route_name": "99X", "stop_id": "EcsZBajf", "name": "Adyar Old Depot", "city": "CHENNAI"}, "geometry": {"type": "Point", "coordinates": [80.25365813713972, 13.006486822631288]}}, {"type": "Feature", "properties": {"name": "99X"}, "geometry": {"type": "LineString", "coordinates": [[80.0782, 12.8744], [80.07841, 12.87487], [80.07859, 12.87532], [80.07869, 12.87548], [80.07865, 12.87562], [80.07897, 12.87643], [80.07905, 12.87664], [80.07908, 12.87683], [80.07918, 12.87727], [80.07939, 12.87782], [80.07954, 12.87824], [80.07997, 12.87918], [80.08034, 12.88027], [80.08056, 12.88093], [80.08309, 12.88653], [80.08468, 12.89046], [80.08656, 12.89409], [80.08615, 12.89327], [80.08739, 12.89496], [80.08793, 12.89537], [80.08838, 12.89603], [80.08941, 12.89737], [80.09005, 12.89826], [80.09136, 12.89998], [80.09334, 12.90258], [80.0937, 12.90299], [80.09373, 12.90309], [80.09383, 12.90325], [80.09388, 12.90333], [80.09431, 12.90396], [80.09486, 12.90468], [80.09593, 12.90612], [80.09619, 12.90646], [80.09698, 12.9075], [80.09766, 12.90834], [80.09794, 12.90866], [80.09813, 12.90884], [80.09834, 12.90893], [80.09837, 12.90896], [80.09881, 12.90929], [80.09948, 12.90969], [80.10034, 12.91018], [80.10071, 12.91046], [80.10098, 12.91078], [80.1012, 12.91119], [80.10133, 12.91168], [80.10137, 12.912], [80.10146, 12.91294], [80.10149, 12.91322], [80.10154, 12.91384], [80.10158, 12.91386], [80.10161, 12.91391], [80.10168, 12.91425], [80.1018, 12.91458], [80.10188, 12.91472], [80.1021, 12.91504], [80.10223, 12.91517], [80.10248, 12.91537], [80.10271, 12.91549], [80.10298, 12.91558], [80.10317, 12.91563], [80.10336, 12.91566], [80.10409, 12.91572], [80.10417, 12.91579], [80.10437, 12.9158], [80.10471, 12.91585], [80.10498, 12.91592], [80.10521, 12.91603], [80.10582, 12.91638], [80.10588, 12.91641], [80.10632, 12.91663], [80.10686, 12.91693], [80.10725, 12.91712], [80.10778, 12.91746], [80.1081, 12.91771], [80.10825, 12.91784], [80.10842, 12.91795], [80.10895, 12.91839], [80.10966, 12.91899], [80.11067, 12.91979], [80.11101, 12.92007], [80.11231, 12.92131], [80.11315, 12.9221], [80.11423, 12.9232], [80.11555, 12.92452], [80.11749, 12.92641], [80.11778, 12.92675], [80.11804, 12.92703], [80.11836, 12.9273], [80.11867, 12.92761], [80.11957, 12.92853], [80.12034, 12.92929], [80.12135, 12.9303], [80.12214, 12.93113], [80.12288, 12.93184], [80.12302, 12.93173], [80.12132, 12.93005], [80.12114, 12.92987], [80.12045, 12.92917], [80.11972, 12.92848], [80.1178, 12.92656], [80.11761, 12.92638], [80.1174, 12.92617], [80.1174, 12.92611], [80.11737, 12.92601], [80.11729, 12.92589], [80.11667, 12.92529], [80.1162, 12.92481], [80.1159, 12.92451], [80.11574, 12.92435], [80.11563, 12.92428], [80.11567, 12.92421], [80.11574, 12.92415], [80.11578, 12.92413], [80.11621, 12.92402], [80.11702, 12.92381], [80.11821, 12.92352], [80.11857, 12.92347], [80.11902, 12.92344], [80.11963, 12.92342], [80.12014, 12.92337], [80.12049, 12.92334], [80.12086, 12.9233], [80.12256, 12.92321], [80.12559, 12.92306], [80.12822, 12.92294], [80.13001, 12.92285], [80.13078, 12.92283], [80.13261, 12.92279], [80.13341, 12.92274], [80.13534, 12.92266], [80.13744, 12.92255], [80.13748, 12.92255], [80.1388, 12.92247], [80.13961, 12.92245], [80.14042, 12.92248], [80.14243, 12.92252], [80.14332, 12.92256], [80.14384, 12.92257], [80.14566, 12.92263], [80.14727, 12.92267], [80.14824, 12.92267], [80.14859, 12.92266], [80.14907, 12.92269], [80.15026, 12.92274], [80.15116, 12.92277], [80.15175, 12.92278], [80.152, 12.9228], [80.15249, 12.92289], [80.15383, 12.92322], [80.15407, 12.92328], [80.15587, 12.92374], [80.15602, 12.92375], [80.15746, 12.92364], [80.15856, 12.92354], [80.15939, 12.92347], [80.16002, 12.9234], [80.16049, 12.92328], [80.1627, 12.92257], [80.16395, 12.92216], [80.1659, 12.92153], [80.16704, 12.92116], [80.16784, 12.92093], [80.16946, 12.92039], [80.17127, 12.91984], [80.17417, 12.91908], [80.1752, 12.91883], [80.17596, 12.91862], [80.17661, 12.9185], [80.17757, 12.91831], [80.17772, 12.91829], [80.17795, 12.91832], [80.17811, 12.91839], [80.17882, 12.9189], [80.17892, 12.91896], [80.1789, 12.91902], [80.17892, 12.91896], [80.17903, 12.91903], [80.17929, 12.91921], [80.17946, 12.91928], [80.18005, 12.91944], [80.18138, 12.91974], [80.18191, 12.91986], [80.18462, 12.92046], [80.18521, 12.92059], [80.18537, 12.9206], [80.18559, 12.92058], [80.18578, 12.92054], [80.18588, 12.92049], [80.18603, 12.92038], [80.18643, 12.92009], [80.18714, 12.9195], [80.18754, 12.91919], [80.18821, 12.91867], [80.18931, 12.91782], [80.18984, 12.91758], [80.19018, 12.9175], [80.19036, 12.91748], [80.19128, 12.91739], [80.19245, 12.91726], [80.19288, 12.91722], [80.1937, 12.91716], [80.19394, 12.91716], [80.1941, 12.91721], [80.19427, 12.9173], [80.19448, 12.91747], [80.19477, 12.91778], [80.19551, 12.91857], [80.19566, 12.91874], [80.19608, 12.91924], [80.19628, 12.91955], [80.19641, 12.91982], [80.19653, 12.92015], [80.19672, 12.92076], [80.19711, 12.92173], [80.19721, 12.92201], [80.19725, 12.9222], [80.19733, 12.92219], [80.1973, 12.92203], [80.19709, 12.92137], [80.19701, 12.92117], [80.19698, 12.92108], [80.19706, 12.92104], [80.19664, 12.91982], [80.19643, 12.91939], [80.19623, 12.9191], [80.19597, 12.91879], [80.19536, 12.91812], [80.19505, 12.91777], [80.19455, 12.91721], [80.19429, 12.91702], [80.19426, 12.917], [80.19429, 12.9169], [80.19459, 12.9155], [80.19508, 12.91312], [80.19515, 12.91281], [80.19523, 12.91264], [80.19555, 12.91215], [80.19642, 12.9109], [80.19696, 12.91016], [80.1974, 12.90948], [80.1981, 12.90849], [80.19847, 12.908], [80.19856, 12.90792], [80.19873, 12.9078], [80.19885, 12.90777], [80.1989, 12.90777], [80.19931, 12.90775], [80.19984, 12.90773], [80.20064, 12.90766], [80.20096, 12.90765], [80.20131, 12.90763], [80.20192, 12.9076], [80.20274, 12.90754], [80.20321, 12.90753], [80.20353, 12.90748], [80.20392, 12.9074], [80.20431, 12.90728], [80.20455, 12.90717], [80.20512, 12.90675], [80.20563, 12.90651], [80.20776, 12.9056], [80.20797, 12.90551], [80.2081, 12.90547], [80.20925, 12.90499], [80.20981, 12.90477], [80.21092, 12.90431], [80.21263, 12.90364], [80.21444, 12.90295], [80.21481, 12.9028], [80.21608, 12.90235], [80.21683, 12.90206], [80.21733, 12.90192], [80.21781, 12.90182], [80.21837, 12.90175], [80.21942, 12.90164], [80.22116, 12.90138], [80.22224, 12.90124], [80.22317, 12.90114], [80.22564, 12.90105], [80.22673, 12.90102], [80.22757, 12.90101], [80.22761, 12.90101], [80.22776, 12.90103], [80.2278, 12.90109], [80.22782, 12.90118], [80.22784, 12.90159], [80.22786, 12.90221], [80.22787, 12.90238], [80.22791, 12.90243], [80.22796, 12.90246], [80.22797, 12.90264], [80.22809, 12.90465], [80.22812, 12.90536], [80.22813, 12.90549], [80.22824, 12.90549], [80.22833, 12.90548], [80.22832, 12.90536], [80.22826, 12.90433], [80.22823, 12.90391], [80.22821, 12.9035], [80.22818, 12.90271], [80.22807, 12.90128], [80.2281, 12.90111], [80.22833, 12.90101], [80.23014, 12.90091], [80.23052, 12.90088], [80.23099, 12.90088], [80.23104, 12.90087], [80.23163, 12.90086], [80.23248, 12.90078], [80.23305, 12.9007], [80.23344, 12.90063], [80.23384, 12.9005], [80.23468, 12.90016], [80.23508, 12.90001], [80.23537, 12.89992], [80.23582, 12.89984], [80.23635, 12.89978], [80.23738, 12.89969], [80.23917, 12.89943], [80.23961, 12.89934], [80.23994, 12.89926], [80.24073, 12.89904], [80.24146, 12.8989], [80.24307, 12.8986], [80.24531, 12.89821], [80.24667, 12.89794], [80.24708, 12.89784], [80.24722, 12.89784], [80.24733, 12.89787], [80.24742, 12.89791], [80.24748, 12.89807], [80.2476, 12.89857], [80.24768, 12.89884], [80.24803, 12.89976], [80.24851, 12.90098], [80.2486, 12.9013], [80.24866, 12.90161], [80.24883, 12.90306], [80.24901, 12.90461], [80.24905, 12.90496], [80.24915, 12.90548], [80.24939, 12.90648], [80.24963, 12.90754], [80.24976, 12.90817], [80.24985, 12.90868], [80.24992, 12.90915], [80.24996, 12.90991], [80.25003, 12.91064], [80.25012, 12.91195], [80.25027, 12.91392], [80.25045, 12.91615], [80.2505, 12.91681], [80.25061, 12.91783], [80.25075, 12.91872], [80.25078, 12.91883], [80.25082, 12.91902], [80.25109, 12.91978], [80.25117, 12.91998], [80.25134, 12.9205], [80.25136, 12.92064], [80.25134, 12.92081], [80.2512, 12.92135], [80.25106, 12.92201], [80.25103, 12.9223], [80.25102, 12.92258], [80.25105, 12.92312], [80.25112, 12.92416], [80.25115, 12.92476], [80.25118, 12.92539], [80.25122, 12.92596], [80.25132, 12.92695], [80.25136, 12.92747], [80.25125, 12.92749], [80.25136, 12.92747], [80.25138, 12.92773], [80.25147, 12.92857], [80.2516, 12.92971], [80.25197, 12.93275], [80.25209, 12.93364], [80.25218, 12.93449], [80.25229, 12.9355], [80.2524, 12.93665], [80.25247, 12.93729], [80.25264, 12.9384], [80.25273, 12.9388], [80.25276, 12.93907], [80.2528, 12.93957], [80.25285, 12.94017], [80.25293, 12.94048], [80.25307, 12.94113], [80.25325, 12.94223], [80.25343, 12.94335], [80.25371, 12.94465], [80.25381, 12.94559], [80.2539, 12.94629], [80.25399, 12.94679], [80.25438, 12.94814], [80.25451, 12.94871], [80.25465, 12.94924], [80.25475, 12.94965], [80.25488, 12.95013], [80.25496, 12.95046], [80.25499, 12.95091], [80.25502, 12.95166], [80.25507, 12.95235], [80.25509, 12.95272], [80.25509, 12.95319], [80.2551, 12.95373], [80.25512, 12.95409], [80.25518, 12.95496], [80.2552, 12.95621], [80.2552, 12.95661], [80.25522, 12.95682], [80.25526, 12.95704], [80.25548, 12.95811], [80.25552, 12.95835], [80.2557, 12.95923], [80.25602, 12.96072], [80.25613, 12.96123], [80.25625, 12.96169], [80.25637, 12.96233], [80.25643, 12.96278], [80.25647, 12.96339], [80.25654, 12.96413], [80.25663, 12.96493], [80.25683, 12.96603], [80.25705, 12.96726], [80.25721, 12.96784], [80.25736, 12.96847], [80.2577, 12.96956], [80.25798, 12.97036], [80.25807, 12.9707], [80.25812, 12.97105], [80.25815, 12.97138], [80.25814, 12.97157], [80.2581, 12.97191], [80.25809, 12.97217], [80.25812, 12.97257], [80.25819, 12.97308], [80.2584, 12.97408], [80.25871, 12.97524], [80.25893, 12.97589], [80.25907, 12.97647], [80.25911, 12.97675], [80.25916, 12.97716], [80.25915, 12.97774], [80.2591, 12.97887], [80.25913, 12.97934], [80.25922, 12.97988], [80.25929, 12.98026], [80.25931, 12.98044], [80.25933, 12.98094], [80.25936, 12.98211], [80.25946, 12.9835], [80.25949, 12.98395], [80.25908, 12.98401], [80.25854, 12.98408], [80.25771, 12.98419], [80.25785, 12.98526], [80.258, 12.98635], [80.25812, 12.98744], [80.2573, 12.98749], [80.25601, 12.98759], [80.25582, 12.98762], [80.25574, 12.98765], [80.25585, 12.98823], [80.25589, 12.98855], [80.25578, 12.98855], [80.25579, 12.98872], [80.25578, 12.98855], [80.25589, 12.98855], [80.25594, 12.98901], [80.25601, 12.99], [80.25601, 12.99079], [80.25599, 12.99145], [80.25601, 12.9922], [80.25602, 12.99265], [80.25601, 12.99319], [80.25596, 12.99418], [80.25593, 12.99456], [80.25589, 12.99491], [80.25587, 12.9955], [80.25585, 12.9967], [80.25586, 12.99699], [80.25591, 12.99777], [80.25597, 12.99825], [80.25601, 12.99852], [80.25603, 12.99875], [80.25612, 12.99934], [80.2562, 12.99977], [80.25636, 13.00057], [80.25639, 13.00088], [80.25647, 13.00122], [80.25663, 13.00215], [80.25669, 13.00249], [80.25692, 13.00368], [80.25712, 13.00479], [80.25748, 13.00647], [80.25748, 13.00657], [80.25734, 13.00655], [80.25689, 13.00651], [80.25647, 13.00651], [80.25541, 13.00649], [80.25529, 13.00649], [80.25509, 13.00654], [80.25456, 13.00651], [80.25385, 13.00651], [80.25366, 13.00651]]}}]}