{"type": "FeatureCollection", "features": [{"type": "Feature", "properties": {"route_name": "556", "stop_id": "vOivHtRX", "name": "Kattupalli", "city": "CHENNAI"}, "geometry": {"type": "Point", "coordinates": [80.33583530108456, 13.319837390598936]}}, {"type": "Feature", "properties": {"route_name": "556", "stop_id": "uNHtUGfb", "name": "L and T Corner", "city": "CHENNAI"}, "geometry": {"type": "Point", "coordinates": [80.32488850480456, 13.312244568055391]}}, {"type": "Feature", "properties": {"route_name": "556", "stop_id": "crypOuMD", "name": "Kattupalli Village", "city": "CHENNAI"}, "geometry": {"type": "Point", "coordinates": [80.32828432245947, 13.306953593341458]}}, {"type": "Feature", "properties": {"route_name": "556", "stop_id": "bCbInHHL", "name": "Kamarajar Port", "city": "CHENNAI"}, "geometry": {"type": "Point", "coordinates": [80.32730541142382, 13.266176368595126]}}, {"type": "Feature", "properties": {"route_name": "556", "stop_id": "mXosqjnx", "name": "North Chennai Thermal Power Station", "city": "CHENNAI"}, "geometry": {"type": "Point", "coordinates": [80.31756779431362, 13.247894402924876]}}, {"type": "Feature", "properties": {"route_name": "556", "stop_id": "yTOnYgGF", "name": "HPCL Terminal Ennore Main Gate", "city": "CHENNAI"}, "geometry": {"type": "Point", "coordinates": [80.31356375978658, 13.248782778294053]}}, {"type": "Feature", "properties": {"route_name": "556", "stop_id": "EsTStEav", "name": "Athipattu Pudhu Nagar", "city": "CHENNAI"}, "geometry": {"type": "Point", "coordinates": [80.30350947637817, 13.251518071467395]}}, {"type": "Feature", "properties": {"route_name": "556", "stop_id": "ypjNmqeK", "name": "Railway Bridge", "city": "CHENNAI"}, "geometry": {"type": "Point", "coordinates": [80.29349928304202, 13.251936498125433]}}, {"type": "Feature", "properties": {"route_name": "556", "stop_id": "UDPMiWKD", "name": "Vallur", "city": "CHENNAI"}, "geometry": {"type": "Point", "coordinates": [80.28734073787473, 13.252441676446857]}}, {"type": "Feature", "properties": {"route_name": "556", "stop_id": "XeefDCzo", "name": "N C T P Staff Quarters", "city": "CHENNAI"}, "geometry": {"type": "Point", "coordinates": [80.28238391156788, 13.253719889631551]}}, {"type": "Feature", "properties": {"route_name": "556", "stop_id": "IbNLqAKw", "name": "Pattamandiri", "city": "CHENNAI"}, "geometry": {"type": "Point", "coordinates": [80.27481934019602, 13.255268448767621]}}, {"type": "Feature", "properties": {"route_name": "556", "stop_id": "rrYLcPKJ", "name": "G R Palayam", "city": "CHENNAI"}, "geometry": {"type": "Point", "coordinates": [80.27423614825511, 13.242528459321534]}}, {"type": "Feature", "properties": {"route_name": "556", "stop_id": "EeAWpikH", "name": "Kondakarai", "city": "CHENNAI"}, "geometry": {"type": "Point", "coordinates": [80.27415551599972, 13.236160553490912]}}, {"type": "Feature", "properties": {"route_name": "556", "stop_id": "cYArvsJE", "name": "Vellivoyalchavadi", "city": "CHENNAI"}, "geometry": {"type": "Point", "coordinates": [80.27409949323783, 13.23074038214379]}}, {"type": "Feature", "properties": {"route_name": "556", "stop_id": "RLMiJrFV", "name": "Old Nappalayam", "city": "CHENNAI"}, "geometry": {"type": "Point", "coordinates": [80.27390792364349, 13.225878195826105]}}, {"type": "Feature", "properties": {"route_name": "556", "stop_id": "JtZjSNXW", "name": "Nappalayam", "city": "CHENNAI"}, "geometry": {"type": "Point", "coordinates": [80.27282416160892, 13.218249725196301]}}, {"type": "Feature", "properties": {"route_name": "556", "stop_id": "SUgOBtjk", "name": "Manali New Town Or Milk Booth", "city": "CHENNAI"}, "geometry": {"type": "Point", "coordinates": [80.270876548827, 13.20794210185109]}}, {"type": "Feature", "properties": {"route_name": "556", "stop_id": "ILgjTtXh", "name": "Vichoor Echakuzhi", "city": "CHENNAI"}, "geometry": {"type": "Point", "coordinates": [80.26983757874359, 13.201575436294382]}}, {"type": "Feature", "properties": {"route_name": "556", "stop_id": "DATqCMmz", "name": "Dwarka Nagar Elementary School", "city": "CHENNAI"}, "geometry": {"type": "Point", "coordinates": [80.2696406828386, 13.19699074292741]}}, {"type": "Feature", "properties": {"route_name": "556", "stop_id": "fKUdbDza", "name": "Andarkuppam Check Post", "city": "CHENNAI"}, "geometry": {"type": "Point", "coordinates": [80.26980554129318, 13.192018949774704]}}, {"type": "Feature", "properties": {"route_name": "556", "stop_id": "cpLivUai", "name": "Elanthanur", "city": "CHENNAI"}, "geometry": {"type": "Point", "coordinates": [80.26990728356395, 13.188806294910844]}}, {"type": "Feature", "properties": {"route_name": "556", "stop_id": "JFVlrPHE", "name": "Vaikadu", "city": "CHENNAI"}, "geometry": {"type": "Point", "coordinates": [80.26993624077556, 13.184222294381895]}}, {"type": "Feature", "properties": {"route_name": "556", "stop_id": "QZgueNIh", "name": "MFL", "city": "CHENNAI"}, "geometry": {"type": "Point", "coordinates": [80.27013120110064, 13.17822443078904]}}, {"type": "Feature", "properties": {"route_name": "556", "stop_id": "XxhwFmzZ", "name": "Petro Araldit", "city": "CHENNAI"}, "geometry": {"type": "Point", "coordinates": [80.27783007277696, 13.176743846091707]}}, {"type": "Feature", "properties": {"route_name": "556", "stop_id": "JyqrAKLu", "name": "TPL", "city": "CHENNAI"}, "geometry": {"type": "Point", "coordinates": [80.28004108749906, 13.17637196421058]}}, {"type": "Feature", "properties": {"route_name": "556", "stop_id": "TCMQvOqy", "name": "Sathangadu Police Station", "city": "CHENNAI"}, "geometry": {"type": "Point", "coordinates": [80.28662615726898, 13.175467302377022]}}, {"type": "Feature", "properties": {"route_name": "556", "stop_id": "NmilzqZp", "name": "Sathya Moorthy Nagar", "city": "CHENNAI"}, "geometry": {"type": "Point", "coordinates": [80.29456419149756, 13.176536560050616]}}, {"type": "Feature", "properties": {"route_name": "556", "stop_id": "JdZarNsv", "name": "TKS Nagar", "city": "CHENNAI"}, "geometry": {"type": "Point", "coordinates": [80.29767050611065, 13.180106236170047]}}, {"type": "Feature", "properties": {"route_name": "556", "stop_id": "rAizOLWV", "name": "Jothi Nagar", "city": "CHENNAI"}, "geometry": {"type": "Point", "coordinates": [80.29880683159843, 13.181408318714176]}}, {"type": "Feature", "properties": {"route_name": "556", "stop_id": "xuEvBBdE", "name": "Murugappa Nagar", "city": "CHENNAI"}, "geometry": {"type": "Point", "coordinates": [80.30108189676878, 13.183738564306497]}}, {"type": "Feature", "properties": {"route_name": "556", "stop_id": "VXthmpcS", "name": "Mullai Nagar", "city": "CHENNAI"}, "geometry": {"type": "Point", "coordinates": [80.30359469285952, 13.186246866563875]}}, {"type": "Feature", "properties": {"route_name": "556", "stop_id": "vCGIyJLJ", "name": "Lift Gate Police Station", "city": "CHENNAI"}, "geometry": {"type": "Point", "coordinates": [80.3116831347968, 13.18491092712335]}}, {"type": "Feature", "properties": {"route_name": "556", "stop_id": "WQdyWhSR", "name": "I T C", "city": "CHENNAI"}, "geometry": {"type": "Point", "coordinates": [80.30865525532772, 13.183669209231324]}}, {"type": "Feature", "properties": {"route_name": "556", "stop_id": "VCGhveHG", "name": "Wimco Nagar Or MRF Tyre Factory", "city": "CHENNAI"}, "geometry": {"type": "Point", "coordinates": [80.307356794994, 13.179096284220213]}}, {"type": "Feature", "properties": {"route_name": "556", "stop_id": "VQfPRvUw", "name": "Thiruvottiyur Bus Stand", "city": "CHENNAI"}, "geometry": {"type": "Point", "coordinates": [80.30621356946263, 13.175091563802843]}}, {"type": "Feature", "properties": {"name": "556"}, "geometry": {"type": "LineString", "coordinates": [[80.33586, 13.31984], [80.33579, 13.31926], [80.33567, 13.31845], [80.33562, 13.31834], [80.33553, 13.31829], [80.33531, 13.31828], [80.33408, 13.31829], [80.3329, 13.31828], [80.33219, 13.3184], [80.33099, 13.31866], [80.32978, 13.31899], [80.32737, 13.31958], [80.32613, 13.31987], [80.3258, 13.31991], [80.3257, 13.3199], [80.32559, 13.31983], [80.32549, 13.3196], [80.32518, 13.3187], [80.32483, 13.31755], [80.32464, 13.31684], [80.32429, 13.31562], [80.32417, 13.31516], [80.32414, 13.31486], [80.32421, 13.31397], [80.32426, 13.31327], [80.32429, 13.31307], [80.32436, 13.31291], [80.32457, 13.31257], [80.32486, 13.31222], [80.32518, 13.31219], [80.32537, 13.31192], [80.32659, 13.31024], [80.3278, 13.30824], [80.32816, 13.30723], [80.32816, 13.30714], [80.32827, 13.30695], [80.32912, 13.30459], [80.33014, 13.30202], [80.33057, 13.30092], [80.33066, 13.3003], [80.33068, 13.29685], [80.33062, 13.29538], [80.33059, 13.29528], [80.33057, 13.29524], [80.33059, 13.29502], [80.33066, 13.29408], [80.33068, 13.29351], [80.33068, 13.29208], [80.33072, 13.28891], [80.33072, 13.28807], [80.33069, 13.28775], [80.33062, 13.2873], [80.33036, 13.28598], [80.33007, 13.28457], [80.32995, 13.28402], [80.32966, 13.28322], [80.32919, 13.28232], [80.32808, 13.28047], [80.32738, 13.27925], [80.327, 13.27862], [80.3268, 13.27824], [80.32667, 13.27792], [80.32651, 13.27757], [80.32639, 13.27718], [80.32629, 13.27668], [80.32625, 13.27631], [80.32625, 13.27608], [80.32631, 13.27537], [80.32638, 13.27499], [80.32649, 13.27469], [80.32667, 13.27419], [80.32721, 13.27304], [80.32771, 13.27196], [80.32787, 13.27162], [80.32802, 13.27116], [80.32798, 13.27069], [80.32774, 13.26941], [80.32746, 13.26842], [80.32732, 13.26777], [80.32728, 13.26742], [80.32728, 13.26696], [80.32728, 13.26623], [80.32727, 13.26618], [80.32723, 13.26604], [80.32713, 13.26595], [80.32692, 13.26587], [80.32638, 13.26573], [80.32626, 13.26566], [80.32606, 13.26549], [80.32595, 13.26533], [80.32588, 13.26511], [80.32579, 13.26458], [80.32568, 13.26358], [80.32548, 13.26198], [80.32539, 13.2616], [80.32525, 13.2612], [80.32503, 13.26073], [80.32472, 13.26014], [80.3245, 13.25984], [80.32418, 13.25945], [80.32381, 13.25893], [80.32353, 13.25847], [80.32333, 13.25804], [80.3231, 13.25746], [80.32291, 13.25706], [80.32218, 13.25591], [80.32188, 13.25543], [80.3217, 13.25504], [80.3212, 13.25385], [80.32097, 13.25336], [80.32075, 13.25295], [80.31866, 13.24975], [80.31747, 13.24798], [80.31758, 13.24793], [80.31733, 13.24802], [80.31727, 13.24802], [80.31685, 13.24812], [80.31649, 13.24821], [80.31565, 13.24836], [80.31384, 13.24874], [80.31356, 13.2488], [80.31236, 13.24912], [80.31174, 13.24931], [80.31023, 13.24999], [80.30741, 13.25127], [80.30703, 13.25142], [80.30681, 13.25144], [80.30491, 13.25152], [80.30432, 13.25154], [80.30351, 13.25156], [80.30241, 13.25159], [80.30217, 13.25157], [80.30187, 13.25158], [80.30126, 13.25161], [80.30075, 13.25159], [80.30037, 13.25158], [80.29968, 13.2516], [80.29818, 13.25165], [80.29737, 13.2517], [80.29597, 13.25175], [80.29513, 13.2518], [80.29436, 13.25188], [80.29383, 13.25192], [80.2937, 13.25195], [80.2935, 13.25196], [80.29014, 13.25215], [80.28734, 13.25248], [80.28625, 13.25261], [80.28603, 13.25266], [80.2857, 13.25277], [80.28498, 13.25304], [80.28393, 13.25338], [80.28337, 13.25352], [80.28283, 13.25364], [80.28239, 13.25374], [80.28209, 13.25382], [80.28127, 13.25401], [80.28014, 13.25433], [80.27962, 13.25448], [80.27939, 13.2546], [80.27919, 13.25484], [80.27897, 13.2553], [80.27873, 13.25569], [80.27852, 13.25589], [80.27836, 13.25598], [80.27819, 13.25606], [80.27785, 13.25615], [80.27657, 13.2563], [80.27493, 13.25652], [80.27489, 13.25608], [80.27483, 13.25554], [80.27481, 13.25527], [80.27468, 13.25406], [80.27463, 13.2533], [80.27455, 13.25159], [80.27447, 13.25064], [80.27438, 13.2495], [80.2743, 13.24779], [80.27424, 13.24569], [80.27416, 13.2443], [80.27416, 13.2441], [80.27428, 13.2441], [80.27426, 13.24299], [80.27424, 13.24253], [80.27419, 13.24103], [80.27417, 13.24072], [80.27405, 13.24071], [80.27405, 13.24003], [80.27405, 13.23934], [80.27406, 13.23771], [80.27405, 13.23637], [80.27415, 13.23636], [80.27415, 13.23616], [80.27414, 13.23458], [80.27413, 13.23395], [80.27405, 13.23395], [80.27404, 13.2334], [80.27404, 13.23309], [80.27403, 13.23221], [80.27403, 13.23207], [80.2741, 13.23208], [80.27409, 13.23074], [80.2741, 13.23018], [80.27406, 13.2295], [80.27401, 13.22833], [80.27397, 13.22706], [80.27389, 13.22588], [80.27389, 13.2258], [80.27379, 13.22581], [80.27372, 13.22514], [80.27366, 13.22477], [80.27349, 13.22346], [80.27335, 13.22251], [80.27326, 13.22195], [80.27324, 13.22173], [80.27307, 13.22098], [80.27316, 13.22096], [80.27307, 13.2202], [80.273, 13.2197], [80.27292, 13.21909], [80.27292, 13.21893], [80.27281, 13.21825], [80.27292, 13.21891], [80.27292, 13.21905], [80.27292, 13.21909], [80.27265, 13.21915], [80.27278, 13.22019], [80.27282, 13.2205], [80.2729, 13.22049], [80.27297, 13.221], [80.27307, 13.22098], [80.27292, 13.21985], [80.27283, 13.21913], [80.27278, 13.21875], [80.27268, 13.2179], [80.27242, 13.21639], [80.27221, 13.21522], [80.27195, 13.21427], [80.2719, 13.21398], [80.27176, 13.21312], [80.27165, 13.21241], [80.27154, 13.21184], [80.27148, 13.21157], [80.27127, 13.21068], [80.27121, 13.21017], [80.27104, 13.20928], [80.2708, 13.2081], [80.27089, 13.20807], [80.27086, 13.20794], [80.27089, 13.20807], [80.2708, 13.2081], [80.27065, 13.20739], [80.27033, 13.20577], [80.2701, 13.20455], [80.27002, 13.20362], [80.27, 13.20331], [80.26991, 13.20259], [80.26987, 13.2024], [80.26992, 13.2024], [80.26986, 13.2019], [80.26982, 13.20156], [80.26972, 13.20083], [80.26966, 13.19995], [80.26961, 13.19859], [80.2696, 13.19797], [80.26962, 13.19729], [80.26963, 13.19699], [80.2697, 13.19396], [80.26978, 13.19202], [80.26986, 13.19009], [80.26989, 13.18881], [80.2699, 13.18831], [80.26981, 13.1883], [80.26982, 13.18779], [80.26984, 13.18699], [80.26988, 13.18608], [80.2699, 13.18422], [80.26992, 13.18297], [80.26997, 13.18171], [80.27006, 13.17917], [80.27011, 13.17822], [80.27011, 13.1782], [80.27026, 13.17806], [80.27043, 13.17795], [80.27183, 13.17772], [80.27521, 13.17715], [80.2768, 13.17687], [80.27782, 13.17671], [80.28004, 13.17634], [80.28454, 13.17559], [80.28554, 13.17541], [80.28557, 13.17547], [80.28561, 13.17549], [80.28586, 13.17548], [80.28662, 13.17543], [80.28805, 13.17545], [80.28866, 13.17546], [80.28881, 13.17544], [80.28888, 13.17541], [80.28894, 13.17536], [80.28896, 13.17532], [80.28989, 13.1753], [80.29242, 13.17533], [80.29278, 13.17536], [80.29306, 13.17542], [80.29336, 13.17553], [80.29361, 13.17565], [80.29383, 13.17578], [80.29396, 13.17588], [80.29458, 13.17652], [80.29469, 13.17664], [80.29509, 13.17714], [80.29596, 13.17813], [80.2966, 13.17887], [80.29768, 13.18009], [80.29883, 13.18139], [80.29986, 13.18247], [80.3011, 13.18372], [80.30187, 13.18451], [80.30227, 13.18489], [80.30264, 13.18523], [80.3031, 13.18561], [80.30338, 13.18588], [80.30338, 13.18598], [80.3034, 13.18605], [80.30348, 13.18615], [80.30361, 13.18622], [80.30345, 13.18612], [80.30339, 13.18601], [80.30337, 13.18595], [80.30338, 13.18588], [80.30362, 13.18608], [80.30406, 13.18631], [80.3043, 13.1864], [80.30475, 13.1865], [80.305, 13.18651], [80.30532, 13.18648], [80.30596, 13.18637], [80.30784, 13.186], [80.30869, 13.18582], [80.30965, 13.18559], [80.31136, 13.18525], [80.31245, 13.18503], [80.31276, 13.18498], [80.31274, 13.18485], [80.31257, 13.18488], [80.31242, 13.18483], [80.31224, 13.18482], [80.31209, 13.18482], [80.31169, 13.18492], [80.30934, 13.1854], [80.30917, 13.18542], [80.30908, 13.18536], [80.30901, 13.18521], [80.30888, 13.18478], [80.30868, 13.18403], [80.30868, 13.18392], [80.30862, 13.18369], [80.30842, 13.18306], [80.30839, 13.18293], [80.30825, 13.18273], [80.30822, 13.18254], [80.30809, 13.18209], [80.30801, 13.18172], [80.3079, 13.18129], [80.30762, 13.18034], [80.30755, 13.18016], [80.30752, 13.18011], [80.30755, 13.18008], [80.30755, 13.17993], [80.30731, 13.17911], [80.30629, 13.1755], [80.30619, 13.1751]]}}]}