{"type": "FeatureCollection", "features": [{"type": "Feature", "properties": {"route_name": "52H", "stop_id": "myLzZQdt", "name": "Pozhichalur", "city": "CHENNAI"}, "geometry": {"type": "Point", "coordinates": [80.1437620412421, 12.989572893203077]}}, {"type": "Feature", "properties": {"route_name": "52H", "stop_id": "jbCYGAcv", "name": "Sivan Kovil Pozhichalur", "city": "CHENNAI"}, "geometry": {"type": "Point", "coordinates": [80.14212335276125, 12.98815411942513]}}, {"type": "Feature", "properties": {"route_name": "52H", "stop_id": "hVJtIJom", "name": "Venkateswara Nagar", "city": "CHENNAI"}, "geometry": {"type": "Point", "coordinates": [80.13950502937746, 12.982020492052525]}}, {"type": "Feature", "properties": {"route_name": "52H", "stop_id": "rlKLMakt", "name": "Pammal Iyyappan Nagar", "city": "CHENNAI"}, "geometry": {"type": "Point", "coordinates": [80.1361134566813, 12.978726694161091]}}, {"type": "Feature", "properties": {"route_name": "52H", "stop_id": "DNyXiZzj", "name": "Pammal", "city": "CHENNAI"}, "geometry": {"type": "Point", "coordinates": [80.13528008832327, 12.974458672581367]}}, {"type": "Feature", "properties": {"route_name": "52H", "stop_id": "pXlenLUq", "name": "Krishna Nagar", "city": "CHENNAI"}, "geometry": {"type": "Point", "coordinates": [80.13835511886168, 12.97289655219043]}}, {"type": "Feature", "properties": {"route_name": "52H", "stop_id": "XbgiSLmy", "name": "Muthamil Nagar Pallavaram", "city": "CHENNAI"}, "geometry": {"type": "Point", "coordinates": [80.14244304020781, 12.971600972735805]}}, {"type": "Feature", "properties": {"route_name": "52H", "stop_id": "EDdQplwd", "name": "Pallavaram Aadu Thotti", "city": "CHENNAI"}, "geometry": {"type": "Point", "coordinates": [80.14499791683875, 12.970758223028511]}}, {"type": "Feature", "properties": {"route_name": "52H", "stop_id": "ffjXMuak", "name": "Pallavaram  Market", "city": "CHENNAI"}, "geometry": {"type": "Point", "coordinates": [80.14755402331355, 12.969708693108611]}}, {"type": "Feature", "properties": {"route_name": "52H", "stop_id": "qeXIqBgp", "name": "Pallavaram Bus Stand", "city": "CHENNAI"}, "geometry": {"type": "Point", "coordinates": [80.15020472965345, 12.969321927480118]}}, {"type": "Feature", "properties": {"route_name": "52H", "stop_id": "aojHvPEg", "name": "Ponds Company", "city": "CHENNAI"}, "geometry": {"type": "Point", "coordinates": [80.14615837927238, 12.961398521978591]}}, {"type": "Feature", "properties": {"route_name": "52H", "stop_id": "BZCtSmhk", "name": "Saravana Store Chromepet", "city": "CHENNAI"}, "geometry": {"type": "Point", "coordinates": [80.14344682, 12.95656648]}}, {"type": "Feature", "properties": {"route_name": "52H", "stop_id": "ywuGpANM", "name": "Chromepet", "city": "CHENNAI"}, "geometry": {"type": "Point", "coordinates": [80.14056159, 12.95162355]}}, {"type": "Feature", "properties": {"route_name": "52H", "stop_id": "UGBWqSzR", "name": "Indra Cotton Mill", "city": "CHENNAI"}, "geometry": {"type": "Point", "coordinates": [80.13871911572016, 12.943307187562445]}}, {"type": "Feature", "properties": {"route_name": "52H", "stop_id": "aImltWBw", "name": "Kumaran Kundram", "city": "CHENNAI"}, "geometry": {"type": "Point", "coordinates": [80.14334455275412, 12.941869156178232]}}, {"type": "Feature", "properties": {"route_name": "52H", "stop_id": "FGqBFXAc", "name": "Hasthinapuram", "city": "CHENNAI"}, "geometry": {"type": "Point", "coordinates": [80.15059422425986, 12.94044614690508]}}, {"type": "Feature", "properties": {"name": "52H"}, "geometry": {"type": "LineString", "coordinates": [[80.14379, 12.98961], [80.14361, 12.98972], [80.14341, 12.98979], [80.14327, 12.9898], [80.14289, 12.9897], [80.14251, 12.98958], [80.14215, 12.98948], [80.14201, 12.98938], [80.14203, 12.98895], [80.14209, 12.98815], [80.14209, 12.98796], [80.14206, 12.9877], [80.14202, 12.98734], [80.14203, 12.98723], [80.14209, 12.98671], [80.14207, 12.98654], [80.142, 12.98619], [80.1418, 12.98574], [80.14174, 12.98564], [80.14164, 12.9855], [80.14135, 12.98517], [80.14082, 12.98463], [80.14055, 12.98434], [80.14028, 12.98399], [80.14016, 12.9838], [80.14005, 12.98369], [80.14, 12.98364], [80.13993, 12.98355], [80.13988, 12.98348], [80.13974, 12.98304], [80.13962, 12.98264], [80.13953, 12.98222], [80.13949, 12.98202], [80.13934, 12.98141], [80.13831, 12.98168], [80.13794, 12.98177], [80.13772, 12.98179], [80.13764, 12.98176], [80.13757, 12.98172], [80.13753, 12.98166], [80.13744, 12.98147], [80.13738, 12.98134], [80.13733, 12.98123], [80.13722, 12.98108], [80.13691, 12.98068], [80.13663, 12.98016], [80.13632, 12.97937], [80.1361, 12.97873], [80.136, 12.97846], [80.13584, 12.97788], [80.13554, 12.97645], [80.13544, 12.97582], [80.13538, 12.97536], [80.13521, 12.97446], [80.13525, 12.97444], [80.13658, 12.97359], [80.13697, 12.97339], [80.13721, 12.97325], [80.13743, 12.97317], [80.13791, 12.97302], [80.13814, 12.97294], [80.13834, 12.97286], [80.13945, 12.97232], [80.13988, 12.97213], [80.14052, 12.97191], [80.14101, 12.97179], [80.14191, 12.97163], [80.14243, 12.97154], [80.14279, 12.97147], [80.14314, 12.97136], [80.14384, 12.97113], [80.14436, 12.97094], [80.14498, 12.97066], [80.14504, 12.9707], [80.14498, 12.97066], [80.14514, 12.97057], [80.14546, 12.9704], [80.14554, 12.97034], [80.14597, 12.96981], [80.14622, 12.97001], [80.14654, 12.97019], [80.14695, 12.97045], [80.14753, 12.96969], [80.14823, 12.96867], [80.14888, 12.96776], [80.14905, 12.96754], [80.14932, 12.96816], [80.14981, 12.96921], [80.15005, 12.96968], [80.15021, 12.96962], [80.1501, 12.96937], [80.14983, 12.96878], [80.14949, 12.96811], [80.14918, 12.9674], [80.14886, 12.96674], [80.14842, 12.96582], [80.14764, 12.96445], [80.14715, 12.96357], [80.14707, 12.96345], [80.1471, 12.96338], [80.14711, 12.96332], [80.1471, 12.96313], [80.14679, 12.96256], [80.14642, 12.96193], [80.14614, 12.96141], [80.14572, 12.96066], [80.14543, 12.96008], [80.1452, 12.95961], [80.14451, 12.95833], [80.14441, 12.95831], [80.14439, 12.95829], [80.14435, 12.95828], [80.14429, 12.95827], [80.1441, 12.95792], [80.14367, 12.9571], [80.14341, 12.95658], [80.14296, 12.95575], [80.14253, 12.95492], [80.14175, 12.95349], [80.14143, 12.95292], [80.14134, 12.95278], [80.14092, 12.95225], [80.14049, 12.95167], [80.13904, 12.94979], [80.13868, 12.9494], [80.13869, 12.94938], [80.13869, 12.94932], [80.13867, 12.94926], [80.13844, 12.94898], [80.13778, 12.94811], [80.13726, 12.94737], [80.13703, 12.94709], [80.13703, 12.94707], [80.13704, 12.94705], [80.13718, 12.94687], [80.13725, 12.9468], [80.13753, 12.94665], [80.13774, 12.94653], [80.13791, 12.9464], [80.13799, 12.94627], [80.13802, 12.94617], [80.13804, 12.94607], [80.13792, 12.94436], [80.13792, 12.94412], [80.13793, 12.94348], [80.13871, 12.94327], [80.13898, 12.9432], [80.13929, 12.94309], [80.13991, 12.94284], [80.14033, 12.9427], [80.14167, 12.94229], [80.14277, 12.94197], [80.14324, 12.94186], [80.14334, 12.94184], [80.14554, 12.94142], [80.14702, 12.94111], [80.14748, 12.94102], [80.14813, 12.94085], [80.14979, 12.9405], [80.15056, 12.94029]]}}]}