{"type": "FeatureCollection", "features": [{"type": "Feature", "properties": {"route_name": "S2", "stop_id": "ywuGpANM", "name": "Chromepet", "city": "CHENNAI"}, "geometry": {"type": "Point", "coordinates": [80.14056159, 12.95162355]}}, {"type": "Feature", "properties": {"route_name": "S2", "stop_id": "UGBWqSzR", "name": "Indra Cotton Mill", "city": "CHENNAI"}, "geometry": {"type": "Point", "coordinates": [80.13871911572016, 12.943307187562445]}}, {"type": "Feature", "properties": {"route_name": "S2", "stop_id": "CyKtNncX", "name": "Nehru Nagar", "city": "CHENNAI"}, "geometry": {"type": "Point", "coordinates": [80.14051760190864, 12.942682319016928]}}, {"type": "Feature", "properties": {"route_name": "S2", "stop_id": "aImltWBw", "name": "Kumaran Kundram", "city": "CHENNAI"}, "geometry": {"type": "Point", "coordinates": [80.14334455275412, 12.941869156178232]}}, {"type": "Feature", "properties": {"route_name": "S2", "stop_id": "JbEMfubM", "name": "Muthumariamman Kovil", "city": "CHENNAI"}, "geometry": {"type": "Point", "coordinates": [80.145192324444, 12.941516405641849]}}, {"type": "Feature", "properties": {"route_name": "S2", "stop_id": "gCZfLTyw", "name": "Gayathri Nagar Or Venkatraman Nagar", "city": "CHENNAI"}, "geometry": {"type": "Point", "coordinates": [80.14787968677388, 12.940962645590652]}}, {"type": "Feature", "properties": {"route_name": "S2", "stop_id": "FGqBFXAc", "name": "Hasthinapuram", "city": "CHENNAI"}, "geometry": {"type": "Point", "coordinates": [80.15059422425986, 12.94044614690508]}}, {"type": "Feature", "properties": {"route_name": "S2", "stop_id": "WrRzSDVz", "name": "Hasthinapuram Mosque", "city": "CHENNAI"}, "geometry": {"type": "Point", "coordinates": [80.15383347245017, 12.93953986783463]}}, {"type": "Feature", "properties": {"route_name": "S2", "stop_id": "gcDZQasu", "name": "Auto Stand", "city": "CHENNAI"}, "geometry": {"type": "Point", "coordinates": [80.15635529153633, 12.937394876855324]}}, {"type": "Feature", "properties": {"route_name": "S2", "stop_id": "sLhwHcwM", "name": "Ponniamman Kovil", "city": "CHENNAI"}, "geometry": {"type": "Point", "coordinates": [80.15880789115633, 12.936846951322309]}}, {"type": "Feature", "properties": {"route_name": "S2", "stop_id": "qtwbUNdN", "name": "Zion Matriculation High School", "city": "CHENNAI"}, "geometry": {"type": "Point", "coordinates": [80.16085038374415, 12.936440084782893]}}, {"type": "Feature", "properties": {"route_name": "S2", "stop_id": "afEeEQRA", "name": "Aradhana Supermarket", "city": "CHENNAI"}, "geometry": {"type": "Point", "coordinates": [80.16414991570795, 12.935749430758811]}}, {"type": "Feature", "properties": {"route_name": "S2", "stop_id": "WtbGlmGs", "name": "Thirumalai Nagar", "city": "CHENNAI"}, "geometry": {"type": "Point", "coordinates": [80.16357932722885, 12.93325062695198]}}, {"type": "Feature", "properties": {"route_name": "S2", "stop_id": "YFmNKhTV", "name": "Navagraha Vinayagar Temple", "city": "CHENNAI"}, "geometry": {"type": "Point", "coordinates": [80.16296787296727, 12.929323796881746]}}, {"type": "Feature", "properties": {"route_name": "S2", "stop_id": "FgFNxkEY", "name": "Advent Christian Church Sembakkam", "city": "CHENNAI"}, "geometry": {"type": "Point", "coordinates": [80.1626843003554, 12.92294290743757]}}, {"type": "Feature", "properties": {"route_name": "S2", "stop_id": "YBasMniA", "name": "Prince College", "city": "CHENNAI"}, "geometry": {"type": "Point", "coordinates": [80.16396133867363, 12.9221793328932]}}, {"type": "Feature", "properties": {"route_name": "S2", "stop_id": "ZFFevgPB", "name": "Sivet", "city": "CHENNAI"}, "geometry": {"type": "Point", "coordinates": [80.16784668159437, 12.920947546908874]}}, {"type": "Feature", "properties": {"route_name": "S2", "stop_id": "qehlKNkR", "name": "Santhosapuram", "city": "CHENNAI"}, "geometry": {"type": "Point", "coordinates": [80.1712862414247, 12.919902030044325]}}, {"type": "Feature", "properties": {"route_name": "S2", "stop_id": "glrALKnP", "name": "Vengaivasal Road Junction", "city": "CHENNAI"}, "geometry": {"type": "Point", "coordinates": [80.176621702587, 12.918499799822676]}}, {"type": "Feature", "properties": {"route_name": "S2", "stop_id": "hApOmpAO", "name": "Vijaya Nagaram", "city": "CHENNAI"}, "geometry": {"type": "Point", "coordinates": [80.17889734110452, 12.919022053180719]}}, {"type": "Feature", "properties": {"route_name": "S2", "stop_id": "lUWTaWkd", "name": "Medavakkam", "city": "CHENNAI"}, "geometry": {"type": "Point", "coordinates": [80.18190556301818, 12.919856467070181]}}, {"type": "Feature", "properties": {"route_name": "S2", "stop_id": "RZCadHVt", "name": "Medavakkam Koot Road", "city": "CHENNAI"}, "geometry": {"type": "Point", "coordinates": [80.1850407887157, 12.920707816742201]}}, {"type": "Feature", "properties": {"route_name": "S2", "stop_id": "ERlrnknW", "name": "Aakash Institute", "city": "CHENNAI"}, "geometry": {"type": "Point", "coordinates": [80.18818780545872, 12.918572842519344]}}, {"type": "Feature", "properties": {"route_name": "S2", "stop_id": "mhTYFecR", "name": "Medavakkam Junction", "city": "CHENNAI"}, "geometry": {"type": "Point", "coordinates": [80.19288235943782, 12.917194864128613]}}, {"type": "Feature", "properties": {"name": "S2"}, "geometry": {"type": "LineString", "coordinates": [[80.14049, 12.95167], [80.13904, 12.94979], [80.13868, 12.9494], [80.13869, 12.94938], [80.13869, 12.94932], [80.13867, 12.94926], [80.13844, 12.94898], [80.13778, 12.94811], [80.13726, 12.94737], [80.13703, 12.94709], [80.13703, 12.94707], [80.13704, 12.94705], [80.13718, 12.94687], [80.13725, 12.9468], [80.13753, 12.94665], [80.13774, 12.94653], [80.13791, 12.9464], [80.13799, 12.94627], [80.13802, 12.94617], [80.13804, 12.94607], [80.13792, 12.94436], [80.13792, 12.94412], [80.13793, 12.94348], [80.13871, 12.94327], [80.13898, 12.9432], [80.13929, 12.94309], [80.13991, 12.94284], [80.14033, 12.9427], [80.1405, 12.94264], [80.14222, 12.94213], [80.14279, 12.94196], [80.14334, 12.94184], [80.14519, 12.94149], [80.14728, 12.94105], [80.14787, 12.94092], [80.14831, 12.94082], [80.1496, 12.94054], [80.15056, 12.94029], [80.15055, 12.94029], [80.15078, 12.94023], [80.15075, 12.94009], [80.1507, 12.93973], [80.15074, 12.93971], [80.15135, 12.93967], [80.15217, 12.9395], [80.15298, 12.93933], [80.15366, 12.93917], [80.15376, 12.93954], [80.15383, 12.93952], [80.15451, 12.93931], [80.15504, 12.93913], [80.15565, 12.93885], [80.15597, 12.93862], [80.15606, 12.93853], [80.15617, 12.93834], [80.15615, 12.93812], [80.15606, 12.93751], [80.15606, 12.93748], [80.15611, 12.93744], [80.15623, 12.9374], [80.15635, 12.93737], [80.15788, 12.93703], [80.1588, 12.93682], [80.16085, 12.93642], [80.1622, 12.93618], [80.16342, 12.93592], [80.16406, 12.93576], [80.16414, 12.93572], [80.16421, 12.93569], [80.16413, 12.93549], [80.16404, 12.93522], [80.16386, 12.9346], [80.16371, 12.93399], [80.16357, 12.93339], [80.16355, 12.93326], [80.16316, 12.93151], [80.163, 12.93008], [80.16295, 12.92938], [80.16295, 12.92936], [80.16294, 12.92933], [80.16287, 12.92896], [80.16283, 12.92856], [80.16275, 12.92779], [80.16267, 12.92694], [80.1626, 12.92623], [80.16249, 12.9252], [80.1625, 12.92503], [80.16251, 12.92468], [80.16258, 12.92369], [80.16266, 12.92294], [80.16269, 12.92254], [80.163, 12.92245], [80.16395, 12.92215], [80.16784, 12.92091], [80.16943, 12.9204], [80.17127, 12.91985], [80.1742, 12.91904], [80.17567, 12.91869], [80.17598, 12.91859], [80.17657, 12.91847], [80.17661, 12.91846], [80.17718, 12.91837], [80.17771, 12.9183], [80.17795, 12.91833], [80.1781, 12.9184], [80.17881, 12.91892], [80.17892, 12.91899], [80.17911, 12.9191], [80.17923, 12.91914], [80.17941, 12.9192], [80.17965, 12.91925], [80.18081, 12.91951], [80.18193, 12.91975], [80.18191, 12.91979], [80.18243, 12.91991], [80.18345, 12.92015], [80.18378, 12.92029], [80.18399, 12.92041], [80.18449, 12.92055], [80.18505, 12.92069], [80.18541, 12.92073], [80.18563, 12.9207], [80.18595, 12.92057], [80.18631, 12.9203], [80.18657, 12.92008], [80.18681, 12.91984], [80.18735, 12.9194], [80.18757, 12.91923], [80.18843, 12.91844], [80.18836, 12.91845], [80.18826, 12.9185], [80.18817, 12.91855], [80.18836, 12.91845], [80.18843, 12.91844], [80.18851, 12.91837], [80.18864, 12.91828], [80.18884, 12.91811], [80.18901, 12.91798], [80.1893, 12.91783], [80.1896, 12.91776], [80.18992, 12.91767], [80.19052, 12.91757], [80.19166, 12.91745], [80.19178, 12.91744], [80.19179, 12.9173], [80.19232, 12.91723], [80.19248, 12.91721], [80.19288, 12.91718]]}}]}