{"type": "FeatureCollection", "features": [{"type": "Feature", "properties": {"route_name": "56D", "stop_id": "gcrnRTRu", "name": "Manali Bus Terminal", "city": "CHENNAI"}, "geometry": {"type": "Point", "coordinates": [80.25739394562535, 13.170109696679264]}}, {"type": "Feature", "properties": {"route_name": "56D", "stop_id": "yGEvOQma", "name": "Manali Church", "city": "CHENNAI"}, "geometry": {"type": "Point", "coordinates": [80.25825469386575, 13.16816640893727]}}, {"type": "Feature", "properties": {"route_name": "56D", "stop_id": "PqoYMtMO", "name": "Manali Government School", "city": "CHENNAI"}, "geometry": {"type": "Point", "coordinates": [80.25855965105166, 13.16625714513757]}}, {"type": "Feature", "properties": {"route_name": "56D", "stop_id": "ClDeGdta", "name": "Manali Market", "city": "CHENNAI"}, "geometry": {"type": "Point", "coordinates": [80.2594187171793, 13.163431202864771]}}, {"type": "Feature", "properties": {"route_name": "56D", "stop_id": "WSMobtPt", "name": "Manali Meenakshi Theatre", "city": "CHENNAI"}, "geometry": {"type": "Point", "coordinates": [80.262471411045, 13.162495931153732]}}, {"type": "Feature", "properties": {"route_name": "56D", "stop_id": "zoqWMrrO", "name": "Manali Metro Water", "city": "CHENNAI"}, "geometry": {"type": "Point", "coordinates": [80.26435145766595, 13.162038357167743]}}, {"type": "Feature", "properties": {"route_name": "56D", "stop_id": "exnIZrMP", "name": "Chennai Petroleum Corporation Limited", "city": "CHENNAI"}, "geometry": {"type": "Point", "coordinates": [80.26891912378278, 13.161410747574008]}}, {"type": "Feature", "properties": {"route_name": "56D", "stop_id": "aWeAvoyP", "name": "MFL Labour Gate", "city": "CHENNAI"}, "geometry": {"type": "Point", "coordinates": [80.2716372736171, 13.170049807418001]}}, {"type": "Feature", "properties": {"route_name": "56D", "stop_id": "GQmprOhw", "name": "MFL", "city": "CHENNAI"}, "geometry": {"type": "Point", "coordinates": [80.26997496242552, 13.177993959213268]}}, {"type": "Feature", "properties": {"route_name": "56D", "stop_id": "XxhwFmzZ", "name": "Petro Araldit", "city": "CHENNAI"}, "geometry": {"type": "Point", "coordinates": [80.27783007277696, 13.176743846091707]}}, {"type": "Feature", "properties": {"route_name": "56D", "stop_id": "JyqrAKLu", "name": "TPL", "city": "CHENNAI"}, "geometry": {"type": "Point", "coordinates": [80.28004108749906, 13.17637196421058]}}, {"type": "Feature", "properties": {"route_name": "56D", "stop_id": "TCMQvOqy", "name": "Sathangadu Police Station", "city": "CHENNAI"}, "geometry": {"type": "Point", "coordinates": [80.28662615726898, 13.175467302377022]}}, {"type": "Feature", "properties": {"route_name": "56D", "stop_id": "sUAChhLU", "name": "Karkil Puram", "city": "CHENNAI"}, "geometry": {"type": "Point", "coordinates": [80.29013494436145, 13.171356646145371]}}, {"type": "Feature", "properties": {"route_name": "56D", "stop_id": "RqfbhkOP", "name": "Rajaji Street", "city": "CHENNAI"}, "geometry": {"type": "Point", "coordinates": [80.28942163852055, 13.165920857563654]}}, {"type": "Feature", "properties": {"route_name": "56D", "stop_id": "cNHGbHfW", "name": "Dog Cannal", "city": "CHENNAI"}, "geometry": {"type": "Point", "coordinates": [80.28850844601538, 13.152841856094112]}}, {"type": "Feature", "properties": {"route_name": "56D", "stop_id": "NdVNfPps", "name": "Tiruvottiyur Railway Gate Or KCP", "city": "CHENNAI"}, "geometry": {"type": "Point", "coordinates": [80.29559381788408, 13.156902975211954]}}, {"type": "Feature", "properties": {"route_name": "56D", "stop_id": "OSkPauJr", "name": "Maattu Mandai Or KGL", "city": "CHENNAI"}, "geometry": {"type": "Point", "coordinates": [80.29832329537612, 13.158780565022353]}}, {"type": "Feature", "properties": {"route_name": "56D", "stop_id": "TurKlwMz", "name": "Ellaiamman Kovil", "city": "CHENNAI"}, "geometry": {"type": "Point", "coordinates": [80.30155602891318, 13.157016559479278]}}, {"type": "Feature", "properties": {"route_name": "56D", "stop_id": "NkWMDpBL", "name": "Thiruvottiyur Police Station", "city": "CHENNAI"}, "geometry": {"type": "Point", "coordinates": [80.30054447896669, 13.153835589046228]}}, {"type": "Feature", "properties": {"route_name": "56D", "stop_id": "EXHVDpee", "name": "Raja Kaladi", "city": "CHENNAI"}, "geometry": {"type": "Point", "coordinates": [80.29976819757633, 13.151361529652869]}}, {"type": "Feature", "properties": {"route_name": "56D", "stop_id": "NuwmOhpA", "name": "Thangal", "city": "CHENNAI"}, "geometry": {"type": "Point", "coordinates": [80.29827951957066, 13.147757917641558]}}, {"type": "Feature", "properties": {"route_name": "56D", "stop_id": "CLjYTiBy", "name": "Thangal Toll Gate", "city": "CHENNAI"}, "geometry": {"type": "Point", "coordinates": [80.29689126927576, 13.144352706302309]}}, {"type": "Feature", "properties": {"route_name": "56D", "stop_id": "fumBmOZX", "name": "Cross Road Toll Gate", "city": "CHENNAI"}, "geometry": {"type": "Point", "coordinates": [80.29482550646571, 13.139217181363312]}}, {"type": "Feature", "properties": {"route_name": "56D", "stop_id": "ogrZorIF", "name": "Lakshmi Amman Koil", "city": "CHENNAI"}, "geometry": {"type": "Point", "coordinates": [80.29343126795857, 13.135340086182275]}}, {"type": "Feature", "properties": {"route_name": "56D", "stop_id": "CEyhPnMH", "name": "Tondiarpet Bus Depot", "city": "CHENNAI"}, "geometry": {"type": "Point", "coordinates": [80.29208738102113, 13.131910327030617]}}, {"type": "Feature", "properties": {"route_name": "56D", "stop_id": "OQRQrPoA", "name": "Apollo Or Cholera Hospital", "city": "CHENNAI"}, "geometry": {"type": "Point", "coordinates": [80.29087730573065, 13.128661388412247]}}, {"type": "Feature", "properties": {"route_name": "56D", "stop_id": "rmNVGWDV", "name": "Irumbu Company", "city": "CHENNAI"}, "geometry": {"type": "Point", "coordinates": [80.29188672577766, 13.125397201856845]}}, {"type": "Feature", "properties": {"route_name": "56D", "stop_id": "tWKcfmbS", "name": "Kasimedu", "city": "CHENNAI"}, "geometry": {"type": "Point", "coordinates": [80.29452043875358, 13.124353770473034]}}, {"type": "Feature", "properties": {"route_name": "56D", "stop_id": "cfShLPmI", "name": "Kalmandapam Police Station", "city": "CHENNAI"}, "geometry": {"type": "Point", "coordinates": [80.29263794081874, 13.115107780102829]}}, {"type": "Feature", "properties": {"route_name": "56D", "stop_id": "cCEhgrAc", "name": "Royapuram Market", "city": "CHENNAI"}, "geometry": {"type": "Point", "coordinates": [80.29176514994629, 13.109058193210455]}}, {"type": "Feature", "properties": {"route_name": "56D", "stop_id": "srZucbpJ", "name": "Royapuram Railway Station", "city": "CHENNAI"}, "geometry": {"type": "Point", "coordinates": [80.29477568670518, 13.105508151946596]}}, {"type": "Feature", "properties": {"route_name": "56D", "stop_id": "udlIzhJE", "name": "Clive Battery", "city": "CHENNAI"}, "geometry": {"type": "Point", "coordinates": [80.29398430861647, 13.099302796304345]}}, {"type": "Feature", "properties": {"route_name": "56D", "stop_id": "OsBkWRQx", "name": "Beach Station", "city": "CHENNAI"}, "geometry": {"type": "Point", "coordinates": [80.29227074, 13.09407689]}}, {"type": "Feature", "properties": {"route_name": "56D", "stop_id": "TsaeiIGv", "name": "Parrys Corner", "city": "CHENNAI"}, "geometry": {"type": "Point", "coordinates": [80.29078394, 13.08959104]}}, {"type": "Feature", "properties": {"route_name": "56D", "stop_id": "EkWBPXmr", "name": "Broadway", "city": "CHENNAI"}, "geometry": {"type": "Point", "coordinates": [80.28388983, 13.08820568]}}, {"type": "Feature", "properties": {"name": "56D"}, "geometry": {"type": "LineString", "coordinates": [[80.25733, 13.17008], [80.25767, 13.16941], [80.25778, 13.16909], [80.2581, 13.16835], [80.2582, 13.16814], [80.25829, 13.16795], [80.25839, 13.16768], [80.25845, 13.16742], [80.2585, 13.16625], [80.25858, 13.16453], [80.2586, 13.1639], [80.25857, 13.16359], [80.25932, 13.16344], [80.25941, 13.1634], [80.26, 13.1632], [80.2604, 13.16303], [80.26082, 13.16281], [80.26107, 13.16271], [80.26185, 13.16255], [80.26246, 13.16245], [80.26327, 13.1623], [80.26349, 13.16224], [80.26383, 13.1621], [80.26406, 13.16203], [80.26434, 13.16198], [80.26571, 13.16183], [80.26708, 13.16168], [80.2682, 13.16148], [80.2689, 13.16134], [80.26903, 13.16131], [80.26908, 13.16138], [80.26912, 13.16148], [80.26913, 13.16165], [80.26911, 13.16193], [80.26915, 13.16247], [80.26928, 13.16334], [80.26934, 13.16362], [80.26941, 13.16386], [80.26956, 13.16416], [80.2698, 13.16444], [80.2701, 13.16474], [80.27077, 13.16532], [80.27107, 13.16559], [80.27159, 13.1661], [80.27193, 13.16651], [80.27212, 13.16682], [80.27219, 13.16701], [80.27226, 13.16723], [80.27228, 13.16741], [80.27231, 13.16775], [80.27186, 13.16969], [80.27176, 13.17008], [80.27068, 13.17454], [80.27046, 13.17565], [80.27027, 13.17636], [80.2701, 13.17727], [80.27002, 13.17799], [80.27046, 13.17797], [80.27184, 13.17776], [80.27449, 13.17728], [80.27595, 13.17702], [80.27782, 13.17671], [80.28004, 13.17634], [80.28154, 13.17609], [80.28453, 13.17563], [80.28561, 13.17546], [80.28563, 13.17552], [80.28567, 13.17553], [80.28591, 13.17551], [80.28662, 13.17544], [80.28685, 13.17543], [80.28805, 13.17545], [80.28866, 13.17546], [80.28881, 13.17544], [80.28888, 13.17541], [80.28894, 13.17536], [80.28896, 13.17532], [80.28991, 13.17531], [80.29132, 13.17533], [80.29125, 13.17523], [80.29083, 13.17463], [80.29058, 13.17421], [80.2905, 13.17406], [80.29034, 13.17368], [80.29028, 13.17344], [80.29024, 13.17288], [80.29014, 13.17236], [80.29002, 13.17142], [80.28996, 13.17088], [80.28993, 13.17059], [80.28993, 13.1703], [80.2899, 13.17], [80.28982, 13.16927], [80.28965, 13.16779], [80.28941, 13.16592], [80.28917, 13.16391], [80.28907, 13.16325], [80.28893, 13.16294], [80.28803, 13.16106], [80.28777, 13.16048], [80.28762, 13.16013], [80.28743, 13.15979], [80.28664, 13.15816], [80.28579, 13.15643], [80.28519, 13.15506], [80.28509, 13.15482], [80.28509, 13.1548], [80.28509, 13.15476], [80.28521, 13.15447], [80.28525, 13.15442], [80.28533, 13.15435], [80.28556, 13.15426], [80.28594, 13.15411], [80.28627, 13.15397], [80.28661, 13.15381], [80.28702, 13.15349], [80.28847, 13.15282], [80.28849, 13.15281], [80.28863, 13.15273], [80.2887, 13.15285], [80.28887, 13.15311], [80.2892, 13.15362], [80.2895, 13.15401], [80.29016, 13.15474], [80.29087, 13.15552], [80.29103, 13.15568], [80.29123, 13.15584], [80.29137, 13.15589], [80.29263, 13.15616], [80.29384, 13.15646], [80.2952, 13.15679], [80.2956, 13.15687], [80.29631, 13.15703], [80.29679, 13.15718], [80.29734, 13.15741], [80.29777, 13.15762], [80.29791, 13.15763], [80.29805, 13.15843], [80.29812, 13.15857], [80.29824, 13.15876], [80.29831, 13.15874], [80.29862, 13.15867], [80.29893, 13.15863], [80.29965, 13.15852], [80.30035, 13.15837], [80.30163, 13.15806], [80.30172, 13.15803], [80.30179, 13.15798], [80.30178, 13.15796], [80.30171, 13.15772], [80.30152, 13.15703], [80.30137, 13.15649], [80.30115, 13.1558], [80.30079, 13.1548], [80.30059, 13.15421], [80.30052, 13.15391], [80.30051, 13.15384], [80.30039, 13.15317], [80.30031, 13.15283], [80.30019, 13.15253], [80.29973, 13.15138], [80.29957, 13.15101], [80.29899, 13.14965], [80.29825, 13.14777], [80.29808, 13.14737], [80.29781, 13.14681], [80.29764, 13.14637], [80.29734, 13.14558], [80.29724, 13.14532], [80.29687, 13.14436], [80.2967, 13.14391], [80.29643, 13.14334], [80.29622, 13.14281], [80.29598, 13.14221], [80.29557, 13.14121], [80.29544, 13.14087], [80.29484, 13.1393], [80.29481, 13.13922], [80.29446, 13.13834], [80.29407, 13.13719], [80.29379, 13.13655], [80.29364, 13.13617], [80.29355, 13.13577], [80.2934, 13.13535], [80.29286, 13.13391], [80.29276, 13.13374], [80.29273, 13.13359], [80.29208, 13.13191], [80.29161, 13.13067], [80.29109, 13.12939], [80.2908, 13.12869], [80.29059, 13.12822], [80.29059, 13.12817], [80.29059, 13.12807], [80.2906, 13.12796], [80.29061, 13.12791], [80.29063, 13.12788], [80.2907, 13.1278], [80.29074, 13.12772], [80.29078, 13.12761], [80.29076, 13.12748], [80.29073, 13.12736], [80.29067, 13.12705], [80.29068, 13.12684], [80.2907, 13.12671], [80.29077, 13.12637], [80.29096, 13.12594], [80.29108, 13.12575], [80.29125, 13.12559], [80.29163, 13.12534], [80.29188, 13.12531], [80.29252, 13.12525], [80.29299, 13.12519], [80.2937, 13.12509], [80.2946, 13.12495], [80.29452, 13.1245], [80.29448, 13.12436], [80.29392, 13.12195], [80.29372, 13.12108], [80.29365, 13.12061], [80.29349, 13.11976], [80.29319, 13.11847], [80.29273, 13.11595], [80.29262, 13.11511], [80.29255, 13.11452], [80.29253, 13.11422], [80.29244, 13.11378], [80.29226, 13.11272], [80.29188, 13.11022], [80.2917, 13.10907], [80.29152, 13.10804], [80.29144, 13.10767], [80.2912, 13.10639], [80.29122, 13.10627], [80.2913, 13.10614], [80.29138, 13.1061], [80.29159, 13.10605], [80.29195, 13.10603], [80.29206, 13.10601], [80.29257, 13.10612], [80.29291, 13.10612], [80.29301, 13.10608], [80.29368, 13.10586], [80.29476, 13.10547], [80.29503, 13.10533], [80.2951, 13.10528], [80.29524, 13.10514], [80.29528, 13.10507], [80.29532, 13.10496], [80.29534, 13.10481], [80.29533, 13.10466], [80.29528, 13.10446], [80.29492, 13.10341], [80.29477, 13.10292], [80.29466, 13.10237], [80.2944, 13.10121], [80.29425, 13.10046], [80.29416, 13.09997], [80.29406, 13.09965], [80.29396, 13.09931], [80.29394, 13.09931], [80.29373, 13.09859], [80.29332, 13.09735], [80.29285, 13.096], [80.29267, 13.09546], [80.29258, 13.0951], [80.29224, 13.09409], [80.29161, 13.09214], [80.29083, 13.08977], [80.29076, 13.0896], [80.28988, 13.08751], [80.28942, 13.08582], [80.28817, 13.0852], [80.28581, 13.08534], [80.28458, 13.08542], [80.28487, 13.08712], [80.28495, 13.08744], [80.28396, 13.08759], [80.28389, 13.0882]]}}]}