{"type": "FeatureCollection", "features": [{"type": "Feature", "properties": {"route_name": "D70X", "stop_id": "BMprcpdo", "name": "Ambattur Industrial Estate", "city": "CHENNAI"}, "geometry": {"type": "Point", "coordinates": [80.170222271586, 13.09947785467876]}}, {"type": "Feature", "properties": {"route_name": "D70X", "stop_id": "xQqwXgNZ", "name": "Ambattur IT Park", "city": "CHENNAI"}, "geometry": {"type": "Point", "coordinates": [80.17000019392299, 13.095080524629006]}}, {"type": "Feature", "properties": {"route_name": "D70X", "stop_id": "OVaoEscJ", "name": "Mogaipair Road Junction", "city": "CHENNAI"}, "geometry": {"type": "Point", "coordinates": [80.16959482134996, 13.089171791638119]}}, {"type": "Feature", "properties": {"route_name": "D70X", "stop_id": "voXQjjKh", "name": "Golden Flats", "city": "CHENNAI"}, "geometry": {"type": "Point", "coordinates": [80.17839382, 13.08834394]}}, {"type": "Feature", "properties": {"route_name": "D70X", "stop_id": "FYonLsVT", "name": "T S Krishna Nagar", "city": "CHENNAI"}, "geometry": {"type": "Point", "coordinates": [80.18378983, 13.08811083]}}, {"type": "Feature", "properties": {"route_name": "D70X", "stop_id": "XCZfXGna", "name": "Collector Nagar", "city": "CHENNAI"}, "geometry": {"type": "Point", "coordinates": [80.18893033, 13.08788421]}}, {"type": "Feature", "properties": {"route_name": "D70X", "stop_id": "PIUpvPaY", "name": "Thirumangalam EB Office", "city": "CHENNAI"}, "geometry": {"type": "Point", "coordinates": [80.19756840067225, 13.087322925887744]}}, {"type": "Feature", "properties": {"route_name": "D70X", "stop_id": "TCqyxHhF", "name": "CPWD Quarters", "city": "CHENNAI"}, "geometry": {"type": "Point", "coordinates": [80.19871929521139, 13.082247031161224]}}, {"type": "Feature", "properties": {"route_name": "D70X", "stop_id": "AszcEtOu", "name": "Koyambedu Chathiram", "city": "CHENNAI"}, "geometry": {"type": "Point", "coordinates": [80.20035161971282, 13.073937556098661]}}, {"type": "Feature", "properties": {"route_name": "D70X", "stop_id": "BpAiVnps", "name": "CMBT Koyembedu Bus Depot", "city": "CHENNAI"}, "geometry": {"type": "Point", "coordinates": [80.20518932458458, 13.068981607807045]}}, {"type": "Feature", "properties": {"route_name": "D70X", "stop_id": "fmQEzQWV", "name": "MMDA Colony Road Junction", "city": "CHENNAI"}, "geometry": {"type": "Point", "coordinates": [80.21126128835749, 13.06518054252823]}}, {"type": "Feature", "properties": {"route_name": "D70X", "stop_id": "IubGYoNi", "name": "Thirunagar", "city": "CHENNAI"}, "geometry": {"type": "Point", "coordinates": [80.21166068, 13.05789635]}}, {"type": "Feature", "properties": {"route_name": "D70X", "stop_id": "jIerKxIb", "name": "Vadapalani", "city": "CHENNAI"}, "geometry": {"type": "Point", "coordinates": [80.21239284135243, 13.047240670280491]}}, {"type": "Feature", "properties": {"route_name": "D70X", "stop_id": "wDpyEsxh", "name": "Ashok Nagar Canara Bank", "city": "CHENNAI"}, "geometry": {"type": "Point", "coordinates": [80.21241378154525, 13.040150388883035]}}, {"type": "Feature", "properties": {"route_name": "D70X", "stop_id": "vSdfqYeK", "name": "Ashok Pillar", "city": "CHENNAI"}, "geometry": {"type": "Point", "coordinates": [80.21208679, 13.03354348]}}, {"type": "Feature", "properties": {"route_name": "D70X", "stop_id": "QdnKSSsO", "name": "KK Nagar Telephone Exchange Jaffarkhanpet", "city": "CHENNAI"}, "geometry": {"type": "Point", "coordinates": [80.20959417283757, 13.031601513770136]}}, {"type": "Feature", "properties": {"route_name": "D70X", "stop_id": "oNyGHMvy", "name": "Kasi Theatre", "city": "CHENNAI"}, "geometry": {"type": "Point", "coordinates": [80.20887954, 13.02920434]}}, {"type": "Feature", "properties": {"route_name": "D70X", "stop_id": "KjuJaNsu", "name": "Kalaimagal Nagar", "city": "CHENNAI"}, "geometry": {"type": "Point", "coordinates": [80.20702986, 13.02456277]}}, {"type": "Feature", "properties": {"route_name": "D70X", "stop_id": "HcPkwFHM", "name": "Ekkattuthangal Or Ambal Nagar", "city": "CHENNAI"}, "geometry": {"type": "Point", "coordinates": [80.20635784175875, 13.019221472051377]}}, {"type": "Feature", "properties": {"route_name": "D70X", "stop_id": "plWWPiMc", "name": "CIPET", "city": "CHENNAI"}, "geometry": {"type": "Point", "coordinates": [80.2047718560923, 13.014591803558135]}}, {"type": "Feature", "properties": {"route_name": "D70X", "stop_id": "mnkgCFDT", "name": "Guindy Bus Terminus", "city": "CHENNAI"}, "geometry": {"type": "Point", "coordinates": [80.21114278309233, 13.009411553087547]}}, {"type": "Feature", "properties": {"route_name": "D70X", "stop_id": "WOOyqinT", "name": "Chellammal College", "city": "CHENNAI"}, "geometry": {"type": "Point", "coordinates": [80.22076239073908, 13.012293483983404]}}, {"type": "Feature", "properties": {"route_name": "D70X", "stop_id": "YmkUpvHU", "name": "Chinnamalai B S or Saidapet Court", "city": "CHENNAI"}, "geometry": {"type": "Point", "coordinates": [80.22645940770053, 13.0139397637957]}}, {"type": "Feature", "properties": {"route_name": "D70X", "stop_id": "POsNTwnJ", "name": "Halda", "city": "CHENNAI"}, "geometry": {"type": "Point", "coordinates": [80.22286082, 13.0106453]}}, {"type": "Feature", "properties": {"route_name": "D70X", "stop_id": "OXcUkifL", "name": "Kannaigapuram", "city": "CHENNAI"}, "geometry": {"type": "Point", "coordinates": [80.22041006, 13.00511158]}}, {"type": "Feature", "properties": {"route_name": "D70X", "stop_id": "WCllcJIC", "name": "Vellacherry Check Post", "city": "CHENNAI"}, "geometry": {"type": "Point", "coordinates": [80.21657282, 12.99757362]}}, {"type": "Feature", "properties": {"route_name": "D70X", "stop_id": "wxsBzgDc", "name": "Guru Nanak College", "city": "CHENNAI"}, "geometry": {"type": "Point", "coordinates": [80.21952298571114, 12.991288335656973]}}, {"type": "Feature", "properties": {"route_name": "D70X", "stop_id": "IfDrXrwx", "name": "Velachery Erikarai", "city": "CHENNAI"}, "geometry": {"type": "Point", "coordinates": [80.21834834490323, 12.987262178663608]}}, {"type": "Feature", "properties": {"route_name": "D70X", "stop_id": "wDKuLbjL", "name": "Murugan Kalyana Mandapam", "city": "CHENNAI"}, "geometry": {"type": "Point", "coordinates": [80.21798262785398, 12.98388746995443]}}, {"type": "Feature", "properties": {"route_name": "D70X", "stop_id": "poajKJhB", "name": "Mageshwari Nagar", "city": "CHENNAI"}, "geometry": {"type": "Point", "coordinates": [80.21891613544233, 12.979437108301164]}}, {"type": "Feature", "properties": {"route_name": "D70X", "stop_id": "IvXmMOhB", "name": "Velachery", "city": "CHENNAI"}, "geometry": {"type": "Point", "coordinates": [80.22131848487322, 12.975765216490158]}}, {"type": "Feature", "properties": {"route_name": "D70X", "stop_id": "HcKLTTXk", "name": "Velachery Railway Station", "city": "CHENNAI"}, "geometry": {"type": "Point", "coordinates": [80.21910222319366, 12.971072941036168]}}, {"type": "Feature", "properties": {"name": "D70X"}, "geometry": {"type": "LineString", "coordinates": [[80.17019, 13.09948], [80.16995, 13.09508], [80.16993, 13.09478], [80.16989, 13.09469], [80.16984, 13.09398], [80.16966, 13.09127], [80.16955, 13.08917], [80.16953, 13.08873], [80.17037, 13.08867], [80.17153, 13.08858], [80.17331, 13.08849], [80.17401, 13.08846], [80.17427, 13.08847], [80.17433, 13.08848], [80.17573, 13.0884], [80.17709, 13.08831], [80.17839, 13.08828], [80.18052, 13.08825], [80.18244, 13.08815], [80.18379, 13.08809], [80.18487, 13.08806], [80.18531, 13.08803], [80.18633, 13.08801], [80.18756, 13.08792], [80.18893, 13.08786], [80.18933, 13.08783], [80.19027, 13.08773], [80.19112, 13.08761], [80.19281, 13.08743], [80.19408, 13.08738], [80.19669, 13.08732], [80.19757, 13.08729], [80.19845, 13.08727], [80.19868, 13.08726], [80.19867, 13.08712], [80.19864, 13.08582], [80.19866, 13.08493], [80.19869, 13.0834], [80.19868, 13.08289], [80.19866, 13.08249], [80.19863, 13.08227], [80.19861, 13.0822], [80.19858, 13.08166], [80.19863, 13.08055], [80.19875, 13.07945], [80.19889, 13.0784], [80.19915, 13.07635], [80.19926, 13.07564], [80.19933, 13.07537], [80.19936, 13.07517], [80.19942, 13.07502], [80.19962, 13.07463], [80.19968, 13.07452], [80.19979, 13.07442], [80.20033, 13.07392], [80.2013, 13.07305], [80.20214, 13.07233], [80.20268, 13.07187], [80.20372, 13.07097], [80.20412, 13.07065], [80.20466, 13.07024], [80.20505, 13.06997], [80.20723, 13.06868], [80.2082, 13.06799], [80.20866, 13.06766], [80.20856, 13.0675], [80.20651, 13.06878], [80.20622, 13.06818], [80.20623, 13.06807], [80.20634, 13.06772], [80.20609, 13.06769], [80.20579, 13.0677], [80.20574, 13.06772], [80.20573, 13.06775], [80.2057, 13.06788], [80.2057, 13.06807], [80.20569, 13.06891], [80.2057, 13.06893], [80.20571, 13.06908], [80.20579, 13.06925], [80.20502, 13.06971], [80.2049, 13.06979], [80.20505, 13.06997], [80.20524, 13.06986], [80.20677, 13.06895], [80.20736, 13.06859], [80.20866, 13.06766], [80.20936, 13.06722], [80.20976, 13.06691], [80.21, 13.06664], [80.21082, 13.06568], [80.21108, 13.06533], [80.21119, 13.06514], [80.21153, 13.06448], [80.21166, 13.06376], [80.21172, 13.06278], [80.21173, 13.06205], [80.21165, 13.05999], [80.21158, 13.05865], [80.21157, 13.0579], [80.21158, 13.0574], [80.21157, 13.05681], [80.21154, 13.05542], [80.21153, 13.0547], [80.21156, 13.05452], [80.21201, 13.05271], [80.21216, 13.05222], [80.21223, 13.05196], [80.21223, 13.05148], [80.21219, 13.0509], [80.21215, 13.05056], [80.21212, 13.04991], [80.21216, 13.04938], [80.2122, 13.04907], [80.21224, 13.04852], [80.21233, 13.04769], [80.21234, 13.04748], [80.21229, 13.04737], [80.2123, 13.04724], [80.21235, 13.04517], [80.21238, 13.04469], [80.2124, 13.04334], [80.21235, 13.04304], [80.21235, 13.04288], [80.21236, 13.04241], [80.21236, 13.04196], [80.21237, 13.04015], [80.2124, 13.03905], [80.21239, 13.03824], [80.2124, 13.03744], [80.21235, 13.03595], [80.21229, 13.0353], [80.21224, 13.03488], [80.21209, 13.03419], [80.21207, 13.03414], [80.21198, 13.03355], [80.21195, 13.03325], [80.21191, 13.03317], [80.21186, 13.03307], [80.21167, 13.03191], [80.21069, 13.03206], [80.20971, 13.03217], [80.20962, 13.03202], [80.2095, 13.03163], [80.20881, 13.02922], [80.2087, 13.02879], [80.20855, 13.02837], [80.20836, 13.02784], [80.20807, 13.02733], [80.20767, 13.02669], [80.20734, 13.02608], [80.20714, 13.02566], [80.20691, 13.02471], [80.20688, 13.02459], [80.20665, 13.02332], [80.20648, 13.02252], [80.20642, 13.02207], [80.20642, 13.02128], [80.20641, 13.02064], [80.20638, 13.01982], [80.20634, 13.01949], [80.20628, 13.01924], [80.20593, 13.01816], [80.2055, 13.01696], [80.20467, 13.01463], [80.20457, 13.01438], [80.20415, 13.01316], [80.20405, 13.01283], [80.2041, 13.01278], [80.20411, 13.01273], [80.2039, 13.0118], [80.2038, 13.01096], [80.20378, 13.01048], [80.20377, 13.00973], [80.20379, 13.00941], [80.20382, 13.00918], [80.20388, 13.0089], [80.20396, 13.00863], [80.20413, 13.00842], [80.20455, 13.00818], [80.20486, 13.00804], [80.20515, 13.00795], [80.20559, 13.00786], [80.20592, 13.00783], [80.2061, 13.00781], [80.20615, 13.00779], [80.20699, 13.00793], [80.20863, 13.00811], [80.2094, 13.00827], [80.20984, 13.00838], [80.21034, 13.00854], [80.21103, 13.00944], [80.21111, 13.00937], [80.21142, 13.00912], [80.2115, 13.00908], [80.21171, 13.00905], [80.21202, 13.00917], [80.21236, 13.00926], [80.21301, 13.0095], [80.21447, 13.0101], [80.2146, 13.01015], [80.21487, 13.01018], [80.21549, 13.01027], [80.21567, 13.01031], [80.21585, 13.01038], [80.21671, 13.01077], [80.21745, 13.01116], [80.21795, 13.01135], [80.21865, 13.01159], [80.21987, 13.012], [80.22075, 13.01228], [80.22076, 13.01229], [80.22117, 13.01243], [80.22127, 13.01248], [80.22154, 13.01262], [80.2219, 13.0129], [80.22301, 13.01383], [80.22317, 13.01387], [80.22395, 13.01453], [80.22468, 13.01514], [80.22479, 13.01516], [80.22504, 13.01537], [80.22515, 13.01544], [80.22527, 13.01548], [80.22531, 13.0155], [80.22541, 13.01547], [80.2257, 13.01538], [80.22579, 13.01529], [80.22595, 13.01511], [80.22625, 13.01435], [80.22641, 13.01392], [80.22677, 13.01294], [80.22751, 13.01108], [80.22792, 13.01013], [80.22796, 13.00986], [80.22794, 13.00965], [80.22789, 13.00958], [80.22779, 13.00953], [80.22769, 13.00952], [80.22747, 13.00959], [80.22629, 13.01014], [80.22615, 13.01018], [80.22607, 13.01018], [80.22541, 13.0105], [80.22492, 13.01074], [80.22486, 13.01075], [80.22467, 13.01083], [80.22409, 13.01106], [80.22337, 13.01132], [80.22321, 13.01127], [80.22316, 13.01122], [80.22311, 13.01113], [80.22285, 13.01065], [80.22199, 13.00909], [80.22107, 13.00733], [80.22082, 13.00685], [80.22071, 13.00664], [80.22059, 13.00628], [80.22043, 13.00545], [80.22036, 13.00512], [80.22027, 13.00466], [80.2202, 13.00448], [80.22012, 13.00416], [80.21999, 13.00354], [80.21989, 13.00316], [80.21974, 13.00283], [80.21963, 13.00262], [80.21949, 13.00246], [80.21882, 13.00183], [80.21866, 13.00167], [80.21834, 13.00127], [80.21813, 13.00095], [80.21777, 13.00034], [80.21722, 12.99944], [80.21699, 12.99901], [80.21684, 12.99871], [80.21669, 12.99837], [80.21662, 12.99814], [80.21657, 12.99788], [80.21654, 12.99758], [80.21653, 12.99694], [80.21657, 12.99655], [80.21661, 12.99624], [80.21676, 12.99568], [80.21692, 12.99529], [80.21711, 12.99499], [80.21729, 12.99473], [80.21885, 12.99258], [80.21955, 12.99161], [80.21962, 12.99153], [80.21955, 12.99146], [80.2195, 12.9913], [80.21893, 12.98969], [80.21873, 12.989], [80.21852, 12.98833], [80.21845, 12.98804], [80.21832, 12.98727], [80.21831, 12.98724], [80.21808, 12.98629], [80.21797, 12.98588], [80.21793, 12.98558], [80.21792, 12.98533], [80.21792, 12.98443], [80.21794, 12.98389], [80.21797, 12.98224], [80.218, 12.98176], [80.21805, 12.9815], [80.21826, 12.98082], [80.21851, 12.98009], [80.21881, 12.97939], [80.21909, 12.97869], [80.21929, 12.9783], [80.21956, 12.97772], [80.21991, 12.97687], [80.22014, 12.97628], [80.22036, 12.97578], [80.2204, 12.97573], [80.22071, 12.97546], [80.22089, 12.97572], [80.22108, 12.97589], [80.22114, 12.97594], [80.22123, 12.97582], [80.22126, 12.97584], [80.22123, 12.97582], [80.221, 12.97565], [80.22081, 12.97539], [80.22074, 12.97525], [80.22067, 12.97498], [80.22046, 12.97454], [80.22032, 12.9742], [80.22007, 12.97368], [80.21982, 12.97312], [80.21952, 12.97226], [80.2194, 12.97188], [80.2191, 12.9712], [80.21905, 12.9711]]}}]}