{"type": "FeatureCollection", "features": [{"type": "Feature", "properties": {"route_name": "S40", "stop_id": "njiqgOWt", "name": "Pallavaram", "city": "CHENNAI"}, "geometry": {"type": "Point", "coordinates": [80.14897622320939, 12.967530958330997]}}, {"type": "Feature", "properties": {"route_name": "S40", "stop_id": "mLRkxeNl", "name": "Cantonment Park", "city": "CHENNAI"}, "geometry": {"type": "Point", "coordinates": [80.14925463880908, 12.970797564889402]}}, {"type": "Feature", "properties": {"route_name": "S40", "stop_id": "DrnwNpRL", "name": "Booth S5 Pallavaram Police Station or Athithnar Ahirumanamadapam", "city": "CHENNAI"}, "geometry": {"type": "Point", "coordinates": [80.14703474494787, 12.973541158274504]}}, {"type": "Feature", "properties": {"route_name": "S40", "stop_id": "lfZExdMH", "name": "Abdul Farook Sahib Street", "city": "CHENNAI"}, "geometry": {"type": "Point", "coordinates": [80.146237942481, 12.97461683592949]}}, {"type": "Feature", "properties": {"route_name": "S40", "stop_id": "qXlbcLeQ", "name": "Tangarathinam Sweet Stall", "city": "CHENNAI"}, "geometry": {"type": "Point", "coordinates": [80.1451, 12.9761]}}, {"type": "Feature", "properties": {"route_name": "S40", "stop_id": "EHDDSIKH", "name": "Kotandaramar Kovil", "city": "CHENNAI"}, "geometry": {"type": "Point", "coordinates": [80.1454773433543, 12.978072222534523]}}, {"type": "Feature", "properties": {"route_name": "S40", "stop_id": "derNYeDm", "name": "State Bank Colony", "city": "CHENNAI"}, "geometry": {"type": "Point", "coordinates": [80.14515034697901, 12.9802991577231]}}, {"type": "Feature", "properties": {"route_name": "S40", "stop_id": "BsLBIRHP", "name": "Moovar Nagar", "city": "CHENNAI"}, "geometry": {"type": "Point", "coordinates": [80.14618352136709, 12.982832882359986]}}, {"type": "Feature", "properties": {"route_name": "S40", "stop_id": "vBwlhmiI", "name": "Dr A B J Abdulkalam Nagar", "city": "CHENNAI"}, "geometry": {"type": "Point", "coordinates": [80.14809625171505, 12.984259472263595]}}, {"type": "Feature", "properties": {"route_name": "S40", "stop_id": "iUPTLCQx", "name": "Munneswaram Kovil", "city": "CHENNAI"}, "geometry": {"type": "Point", "coordinates": [80.14896070309372, 12.986599827617905]}}, {"type": "Feature", "properties": {"route_name": "S40", "stop_id": "ykEFFKzM", "name": "Canara Bank", "city": "CHENNAI"}, "geometry": {"type": "Point", "coordinates": [80.1515271818924, 12.987689613782402]}}, {"type": "Feature", "properties": {"route_name": "S40", "stop_id": "DShAxjtN", "name": "Cowl Bazar Ration Shop", "city": "CHENNAI"}, "geometry": {"type": "Point", "coordinates": [80.15077204175559, 12.988897528597382]}}, {"type": "Feature", "properties": {"route_name": "S40", "stop_id": "lrcnKaHj", "name": "Maakaliamman Kovil ", "city": "CHENNAI"}, "geometry": {"type": "Point", "coordinates": [80.14997724789693, 12.990085255874186]}}, {"type": "Feature", "properties": {"route_name": "S40", "stop_id": "eXUkyEOl", "name": "Indira Nagar Junction", "city": "CHENNAI"}, "geometry": {"type": "Point", "coordinates": [80.14863059784174, 12.995279091889879]}}, {"type": "Feature", "properties": {"route_name": "S40", "stop_id": "TcLOQGpR", "name": "Indira Nagar Bridge", "city": "CHENNAI"}, "geometry": {"type": "Point", "coordinates": [80.14871342951851, 12.995368514964523]}}, {"type": "Feature", "properties": {"route_name": "S40", "stop_id": "XMYKvchm", "name": "Indira Nagar", "city": "CHENNAI"}, "geometry": {"type": "Point", "coordinates": [80.15168218697026, 12.995674139606031]}}, {"type": "Feature", "properties": {"name": "S40"}, "geometry": {"type": "LineString", "coordinates": [[80.14903, 12.96757], [80.14879, 12.96788], [80.14759, 12.9696], [80.14836, 12.97013], [80.14926, 12.97079], [80.14936, 12.97086], [80.14883, 12.97166], [80.14872, 12.97179], [80.14812, 12.97237], [80.14783, 12.97261], [80.14768, 12.97264], [80.14706, 12.97355], [80.14626, 12.97463], [80.14604, 12.97491], [80.1459, 12.97514], [80.14574, 12.97541], [80.14564, 12.97554], [80.14543, 12.97571], [80.14527, 12.9758], [80.14523, 12.97589], [80.14514, 12.97612], [80.14511, 12.97619], [80.14526, 12.97692], [80.14549, 12.97807], [80.14589, 12.98023], [80.14515, 12.98031], [80.145, 12.98033], [80.14505, 12.9807], [80.14511, 12.98172], [80.14513, 12.98209], [80.14516, 12.98217], [80.14521, 12.98225], [80.14528, 12.9823], [80.1454, 12.98233], [80.14556, 12.98234], [80.14576, 12.98233], [80.1461, 12.9823], [80.1462, 12.98283], [80.1463, 12.9833], [80.14638, 12.9835], [80.14641, 12.98352], [80.14649, 12.98352], [80.14671, 12.98349], [80.14706, 12.98344], [80.14737, 12.98336], [80.14786, 12.98327], [80.14798, 12.98331], [80.14803, 12.98338], [80.14805, 12.98348], [80.14811, 12.98426], [80.14818, 12.98472], [80.14823, 12.98545], [80.14829, 12.986], [80.14832, 12.98607], [80.14834, 12.9861], [80.14844, 12.98612], [80.14866, 12.98608], [80.14877, 12.98607], [80.14883, 12.98611], [80.1489, 12.98626], [80.14899, 12.98659], [80.149, 12.98667], [80.14919, 12.98668], [80.14976, 12.98673], [80.15003, 12.98679], [80.15048, 12.98693], [80.15068, 12.98701], [80.15126, 12.98738], [80.15158, 12.9876], [80.15154, 12.98769], [80.15128, 12.98816], [80.15078, 12.9889], [80.15025, 12.98969], [80.15, 12.99007], [80.14999, 12.99009], [80.14976, 12.99055], [80.1493, 12.99194], [80.14905, 12.99279], [80.14882, 12.99395], [80.14864, 12.99528], [80.14863, 12.99538], [80.14871, 12.99536], [80.14908, 12.99527], [80.14913, 12.99529], [80.1492, 12.99535], [80.14935, 12.9954], [80.15009, 12.99555], [80.15036, 12.99559], [80.15063, 12.99559], [80.15141, 12.99565], [80.15168, 12.99566]]}}]}