{"type": "FeatureCollection", "features": [{"type": "Feature", "properties": {"route_name": "109X", "stop_id": "EkWBPXmr", "name": "Broadway", "city": "CHENNAI"}, "geometry": {"type": "Point", "coordinates": [80.28388983, 13.08820568]}}, {"type": "Feature", "properties": {"route_name": "109X", "stop_id": "cGoHBmgo", "name": "High Court", "city": "CHENNAI"}, "geometry": {"type": "Point", "coordinates": [80.28711089091621, 13.088636277043769]}}, {"type": "Feature", "properties": {"route_name": "109X", "stop_id": "fwfbiPwk", "name": "Parrys Corner", "city": "CHENNAI"}, "geometry": {"type": "Point", "coordinates": [80.29043122998758, 13.088693965296345]}}, {"type": "Feature", "properties": {"route_name": "109X", "stop_id": "drmArhka", "name": "Secretariat", "city": "CHENNAI"}, "geometry": {"type": "Point", "coordinates": [80.2882536161967, 13.080017061759227]}}, {"type": "Feature", "properties": {"route_name": "109X", "stop_id": "XypZkLUe", "name": "War Memorial", "city": "CHENNAI"}, "geometry": {"type": "Point", "coordinates": [80.28624846239313, 13.07420323763123]}}, {"type": "Feature", "properties": {"route_name": "109X", "stop_id": "gaLZwYvS", "name": "Anna Square", "city": "CHENNAI"}, "geometry": {"type": "Point", "coordinates": [80.2844001598744, 13.066389593658073]}}, {"type": "Feature", "properties": {"route_name": "109X", "stop_id": "qFzqwYZZ", "name": "Marina Beach", "city": "CHENNAI"}, "geometry": {"type": "Point", "coordinates": [80.28288684342965, 13.061290568408975]}}, {"type": "Feature", "properties": {"route_name": "109X", "stop_id": "MBTcSIip", "name": "Kannagi Statue Or Presidency College", "city": "CHENNAI"}, "geometry": {"type": "Point", "coordinates": [80.28195436114925, 13.056792205024193]}}, {"type": "Feature", "properties": {"route_name": "109X", "stop_id": "ppabfQGz", "name": "Swami Vivekananda House", "city": "CHENNAI"}, "geometry": {"type": "Point", "coordinates": [80.28088296237695, 13.050370120124452]}}, {"type": "Feature", "properties": {"route_name": "109X", "stop_id": "rloRqLNl", "name": "Queen Marys College", "city": "CHENNAI"}, "geometry": {"type": "Point", "coordinates": [80.2802534568649, 13.04583250665049]}}, {"type": "Feature", "properties": {"route_name": "109X", "stop_id": "dwUntJQR", "name": "All India Radio Light House", "city": "CHENNAI"}, "geometry": {"type": "Point", "coordinates": [80.27894131876349, 13.039154522580086]}}, {"type": "Feature", "properties": {"route_name": "109X", "stop_id": "TiulEaYs", "name": "Santhome Church", "city": "CHENNAI"}, "geometry": {"type": "Point", "coordinates": [80.2774624579256, 13.032885837058279]}}, {"type": "Feature", "properties": {"route_name": "109X", "stop_id": "FliRNcXy", "name": "Foreshore Estate MTC Bus Stop", "city": "CHENNAI"}, "geometry": {"type": "Point", "coordinates": [80.27514893471368, 13.025729489284215]}}, {"type": "Feature", "properties": {"route_name": "109X", "stop_id": "LfENZYTF", "name": "MRC Nagar", "city": "CHENNAI"}, "geometry": {"type": "Point", "coordinates": [80.27014953609182, 13.021067011511494]}}, {"type": "Feature", "properties": {"route_name": "109X", "stop_id": "TNZDhyQb", "name": "Music College Annamalai Puram", "city": "CHENNAI"}, "geometry": {"type": "Point", "coordinates": [80.26311582111498, 13.018887145534313]}}, {"type": "Feature", "properties": {"route_name": "109X", "stop_id": "aFlzccOO", "name": "M G R Janaki College Or Sathya Studio", "city": "CHENNAI"}, "geometry": {"type": "Point", "coordinates": [80.25973426091605, 13.015961227103665]}}, {"type": "Feature", "properties": {"route_name": "109X", "stop_id": "DYvQviUy", "name": "Adyar Signal", "city": "CHENNAI"}, "geometry": {"type": "Point", "coordinates": [80.2588423552553, 13.007148348756852]}}, {"type": "Feature", "properties": {"route_name": "109X", "stop_id": "RfEbENxd", "name": "Adyar Depot", "city": "CHENNAI"}, "geometry": {"type": "Point", "coordinates": [80.2561228005967, 12.998488262599018]}}, {"type": "Feature", "properties": {"route_name": "109X", "stop_id": "jQaLNViL", "name": "Jayanthi Theatre", "city": "CHENNAI"}, "geometry": {"type": "Point", "coordinates": [80.25601093652699, 12.988915432282013]}}, {"type": "Feature", "properties": {"route_name": "109X", "stop_id": "ixUxTFtC", "name": "Thiruvanmiyur Depot", "city": "CHENNAI"}, "geometry": {"type": "Point", "coordinates": [80.25967683434806, 12.987423938007769]}}, {"type": "Feature", "properties": {"route_name": "109X", "stop_id": "XJRnAJHc", "name": "Thiruvanmiyur Or Marudeeswarar Temple", "city": "CHENNAI"}, "geometry": {"type": "Point", "coordinates": [80.25963777143193, 12.985134167109004]}}, {"type": "Feature", "properties": {"route_name": "109X", "stop_id": "WUWIxCFc", "name": "Thiruvalluvar Nagar RTO", "city": "CHENNAI"}, "geometry": {"type": "Point", "coordinates": [80.2591828704251, 12.97665707109595]}}, {"type": "Feature", "properties": {"route_name": "109X", "stop_id": "OdzEGWPG", "name": "Kottivakkam", "city": "CHENNAI"}, "geometry": {"type": "Point", "coordinates": [80.2577377428654, 12.969389494541339]}}, {"type": "Feature", "properties": {"route_name": "109X", "stop_id": "tndfGrTh", "name": "Palavakkam", "city": "CHENNAI"}, "geometry": {"type": "Point", "coordinates": [80.25618846521047, 12.960955771536188]}}, {"type": "Feature", "properties": {"route_name": "109X", "stop_id": "ruogAkOJ", "name": "Saint Anthony Church or Palavakkam", "city": "CHENNAI"}, "geometry": {"type": "Point", "coordinates": [80.25564537526884, 12.958410591744927]}}, {"type": "Feature", "properties": {"route_name": "109X", "stop_id": "cQHgTjKq", "name": "Ice Factory", "city": "CHENNAI"}, "geometry": {"type": "Point", "coordinates": [80.25528522318302, 12.95407984661407]}}, {"type": "Feature", "properties": {"route_name": "109X", "stop_id": "wGTdgRcU", "name": "Nellankarai", "city": "CHENNAI"}, "geometry": {"type": "Point", "coordinates": [80.25509682229574, 12.950635988606544]}}, {"type": "Feature", "properties": {"route_name": "109X", "stop_id": "meZHMfSd", "name": "Bhuari Hotel", "city": "CHENNAI"}, "geometry": {"type": "Point", "coordinates": [80.25333215718365, 12.94210773297143]}}, {"type": "Feature", "properties": {"route_name": "109X", "stop_id": "yTNmoAGc", "name": "Vettuvakeni", "city": "CHENNAI"}, "geometry": {"type": "Point", "coordinates": [80.2527960010608, 12.938501840062528]}}, {"type": "Feature", "properties": {"route_name": "109X", "stop_id": "wDEypHfE", "name": "Sai Baba Temple", "city": "CHENNAI"}, "geometry": {"type": "Point", "coordinates": [80.25145134320428, 12.927507166558753]}}, {"type": "Feature", "properties": {"route_name": "109X", "stop_id": "QCBPrBCl", "name": "Bethal Nagar", "city": "CHENNAI"}, "geometry": {"type": "Point", "coordinates": [80.25127897544849, 12.924333634409052]}}, {"type": "Feature", "properties": {"route_name": "109X", "stop_id": "rGYrQqGa", "name": "Injambakkam", "city": "CHENNAI"}, "geometry": {"type": "Point", "coordinates": [80.25092504904342, 12.918820702510715]}}, {"type": "Feature", "properties": {"route_name": "109X", "stop_id": "OUTzwMHI", "name": "VGP Golden Beach", "city": "CHENNAI"}, "geometry": {"type": "Point", "coordinates": [80.25038035968214, 12.913929232762408]}}, {"type": "Feature", "properties": {"route_name": "109X", "stop_id": "tcHYhVZo", "name": "Akkarai or Water Supply Head Work", "city": "CHENNAI"}, "geometry": {"type": "Point", "coordinates": [80.24764319799192, 12.898305233204798]}}, {"type": "Feature", "properties": {"route_name": "109X", "stop_id": "XkkxwlXm", "name": "Panaiyur", "city": "CHENNAI"}, "geometry": {"type": "Point", "coordinates": [80.24582048265711, 12.886434430406574]}}, {"type": "Feature", "properties": {"route_name": "109X", "stop_id": "PQuXHWcA", "name": "Nainar Kuppam Or Uthandi Colony", "city": "CHENNAI"}, "geometry": {"type": "Point", "coordinates": [80.24386111187232, 12.877637079889753]}}, {"type": "Feature", "properties": {"route_name": "109X", "stop_id": "ZFSCrBEp", "name": "Uthandi", "city": "CHENNAI"}, "geometry": {"type": "Point", "coordinates": [80.24363341999924, 12.868926109009342]}}, {"type": "Feature", "properties": {"route_name": "109X", "stop_id": "zKpOsJgw", "name": "Anandbagh", "city": "CHENNAI"}, "geometry": {"type": "Point", "coordinates": [80.24248048223762, 12.865019368460175]}}, {"type": "Feature", "properties": {"route_name": "109X", "stop_id": "fXFJjsZH", "name": "Uthandi Toll Gate or Ragash College", "city": "CHENNAI"}, "geometry": {"type": "Point", "coordinates": [80.2419540167516, 12.859783113465204]}}, {"type": "Feature", "properties": {"route_name": "109X", "stop_id": "DKTMYVhM", "name": "Kanathur", "city": "CHENNAI"}, "geometry": {"type": "Point", "coordinates": [80.24122706325102, 12.850424852905519]}}, {"type": "Feature", "properties": {"route_name": "109X", "stop_id": "SvkqEtGw", "name": "Meera Nagar", "city": "CHENNAI"}, "geometry": {"type": "Point", "coordinates": [80.24069015566499, 12.841542799603703]}}, {"type": "Feature", "properties": {"route_name": "109X", "stop_id": "HbaaqMIK", "name": "Muttukadu", "city": "CHENNAI"}, "geometry": {"type": "Point", "coordinates": [80.24053471128445, 12.831608692718222]}}, {"type": "Feature", "properties": {"route_name": "109X", "stop_id": "lndqhzzh", "name": "Panjabur or Yellow board", "city": "CHENNAI"}, "geometry": {"type": "Point", "coordinates": [80.24058545139337, 12.81837340716813]}}, {"type": "Feature", "properties": {"route_name": "109X", "stop_id": "MwUoGUHv", "name": "NIEPMD", "city": "CHENNAI"}, "geometry": {"type": "Point", "coordinates": [80.24275121398887, 12.812198358197179]}}, {"type": "Feature", "properties": {"route_name": "109X", "stop_id": "aXWsLpyQ", "name": "Muttukadu Boat House", "city": "CHENNAI"}, "geometry": {"type": "Point", "coordinates": [80.24308706510828, 12.805923847060543]}}, {"type": "Feature", "properties": {"route_name": "109X", "stop_id": "TBShKgjD", "name": "Kunnukadu Alamaram", "city": "CHENNAI"}, "geometry": {"type": "Point", "coordinates": [80.24121280517454, 12.795609682423345]}}, {"type": "Feature", "properties": {"route_name": "109X", "stop_id": "yOopALph", "name": "Kovalam", "city": "CHENNAI"}, "geometry": {"type": "Point", "coordinates": [80.24337536159464, 12.788392508332835]}}, {"type": "Feature", "properties": {"route_name": "109X", "stop_id": "tZxKeFkh", "name": "Kovalam Kelambakam Road Junction", "city": "CHENNAI"}, "geometry": {"type": "Point", "coordinates": [80.24495300863009, 12.785068990475624]}}, {"type": "Feature", "properties": {"route_name": "109X", "stop_id": "IGRxApsM", "name": "Kovalam Kelambakam Road Junction", "city": "CHENNAI"}, "geometry": {"type": "Point", "coordinates": [80.24544519398432, 12.784077634759376]}}, {"type": "Feature", "properties": {"route_name": "109X", "stop_id": "ZNFFlclk", "name": "Kovalam Chamjarai", "city": "CHENNAI"}, "geometry": {"type": "Point", "coordinates": [80.24820390936497, 12.778887085248492]}}, {"type": "Feature", "properties": {"route_name": "109X", "stop_id": "uaUalZjh", "name": "Kovalam Bus Stand", "city": "CHENNAI"}, "geometry": {"type": "Point", "coordinates": [80.24981696737393, 12.78675363011011]}}, {"type": "Feature", "properties": {"route_name": "109X", "stop_id": "beniIHzL", "name": "Kovalam Kelambakam Road Junction", "city": "CHENNAI"}, "geometry": {"type": "Point", "coordinates": [80.245277891197, 12.784971555290847]}}, {"type": "Feature", "properties": {"route_name": "109X", "stop_id": "BNQPEsdW", "name": "Salt Office", "city": "CHENNAI"}, "geometry": {"type": "Point", "coordinates": [80.22945035900148, 12.782128164855616]}}, {"type": "Feature", "properties": {"route_name": "109X", "stop_id": "qKwvXMmm", "name": "Kelambakkam School", "city": "CHENNAI"}, "geometry": {"type": "Point", "coordinates": [80.22138518145971, 12.78571819801175]}}, {"type": "Feature", "properties": {"route_name": "109X", "stop_id": "BCwVkMhO", "name": "Kelambakkmm Police Station", "city": "CHENNAI"}, "geometry": {"type": "Point", "coordinates": [80.2199838, 12.78532768]}}, {"type": "Feature", "properties": {"route_name": "109X", "stop_id": "CgMBzfIg", "name": "Elavanthangal", "city": "CHENNAI"}, "geometry": {"type": "Point", "coordinates": [80.21737911024465, 12.78064052260931]}}, {"type": "Feature", "properties": {"route_name": "109X", "stop_id": "OXvlrfnG", "name": "Chenganmal Road Junction", "city": "CHENNAI"}, "geometry": {"type": "Point", "coordinates": [80.21320592444795, 12.77080354267838]}}, {"type": "Feature", "properties": {"route_name": "109X", "stop_id": "iZfXNAue", "name": "Vijaya Shanthi Lotus Pond", "city": "CHENNAI"}, "geometry": {"type": "Point", "coordinates": [80.20885193, 12.75975965]}}, {"type": "Feature", "properties": {"route_name": "109X", "stop_id": "CqPWXNIf", "name": "Koman Nagar Road Junction", "city": "CHENNAI"}, "geometry": {"type": "Point", "coordinates": [80.20718058784996, 12.756686401487213]}}, {"type": "Feature", "properties": {"route_name": "109X", "stop_id": "YVGWiGkc", "name": "SSN College", "city": "CHENNAI"}, "geometry": {"type": "Point", "coordinates": [80.20423125781258, 12.751194964536586]}}, {"type": "Feature", "properties": {"route_name": "109X", "stop_id": "FDrhtNjK", "name": "Kalavakkam School", "city": "CHENNAI"}, "geometry": {"type": "Point", "coordinates": [80.20035822, 12.74426545]}}, {"type": "Feature", "properties": {"route_name": "109X", "stop_id": "ucVTqZIB", "name": "Kalavakkam", "city": "CHENNAI"}, "geometry": {"type": "Point", "coordinates": [80.19744426, 12.74178678]}}, {"type": "Feature", "properties": {"route_name": "109X", "stop_id": "ZLCIvgrp", "name": "Thiruporur Or Kannagapattu", "city": "CHENNAI"}, "geometry": {"type": "Point", "coordinates": [80.19056921969991, 12.736200372957958]}}, {"type": "Feature", "properties": {"route_name": "109X", "stop_id": "Uacajbua", "name": "Thiruporur Kovil", "city": "CHENNAI"}, "geometry": {"type": "Point", "coordinates": [80.18900751120839, 12.729829417410928]}}, {"type": "Feature", "properties": {"route_name": "109X", "stop_id": "ZJxogzZw", "name": "Kandhaswami Temple Tank Thiruporur", "city": "CHENNAI"}, "geometry": {"type": "Point", "coordinates": [80.18802177, 12.7248927]}}, {"type": "Feature", "properties": {"route_name": "109X", "stop_id": "wcUGKfLa", "name": "Thiruporur Bus Stand", "city": "CHENNAI"}, "geometry": {"type": "Point", "coordinates": [80.18732844490751, 12.722195066711881]}}, {"type": "Feature", "properties": {"name": "109X"}, "geometry": {"type": "LineString", "coordinates": [[80.28392, 13.08767], [80.2839, 13.0867], [80.28464, 13.0865], [80.28473, 13.08646], [80.2848, 13.08666], [80.28507, 13.08782], [80.28525, 13.08851], [80.28586, 13.08854], [80.2866, 13.08858], [80.28706, 13.08859], [80.28709, 13.0886], [80.28711, 13.0886], [80.28836, 13.08871], [80.28938, 13.08886], [80.29014, 13.08887], [80.29031, 13.08886], [80.29043, 13.08878], [80.2904, 13.08871], [80.28997, 13.08781], [80.2898, 13.08751], [80.28975, 13.08738], [80.28953, 13.08666], [80.28936, 13.08597], [80.28923, 13.08529], [80.28917, 13.0849], [80.2892, 13.08374], [80.2892, 13.08308], [80.28913, 13.08286], [80.28892, 13.08241], [80.2886, 13.08163], [80.28835, 13.08078], [80.28861, 13.08072], [80.28865, 13.08067], [80.28869, 13.08059], [80.28869, 13.08057], [80.28859, 13.0806], [80.28853, 13.08062], [80.28847, 13.08062], [80.28843, 13.08057], [80.28828, 13.08001], [80.28843, 13.08057], [80.28847, 13.08062], [80.28859, 13.0806], [80.28869, 13.08057], [80.28869, 13.08059], [80.28865, 13.08067], [80.28861, 13.08072], [80.28835, 13.08078], [80.28819, 13.08026], [80.28812, 13.07992], [80.28804, 13.07941], [80.28788, 13.079], [80.28776, 13.07876], [80.28746, 13.07766], [80.28705, 13.07606], [80.28699, 13.07582], [80.28688, 13.07558], [80.2863, 13.07458], [80.28618, 13.07435], [80.28614, 13.07424], [80.28613, 13.07424], [80.28605, 13.07402], [80.28599, 13.07383], [80.28599, 13.07379], [80.28601, 13.0737], [80.28602, 13.07361], [80.28602, 13.07348], [80.28592, 13.07329], [80.28561, 13.07279], [80.2855, 13.07255], [80.28542, 13.07232], [80.28513, 13.07125], [80.28469, 13.0695], [80.28436, 13.06811], [80.28436, 13.06805], [80.28433, 13.06771], [80.28428, 13.06741], [80.2844, 13.06702], [80.2844, 13.06681], [80.28438, 13.06666], [80.28431, 13.06642], [80.28423, 13.06628], [80.28399, 13.06613], [80.28348, 13.06412], [80.2834, 13.06401], [80.28335, 13.06379], [80.28328, 13.06344], [80.28299, 13.06206], [80.28283, 13.0613], [80.28262, 13.06043], [80.28235, 13.05909], [80.28211, 13.05789], [80.2819, 13.0568], [80.28141, 13.05448], [80.28119, 13.05325], [80.28083, 13.05107], [80.28074, 13.05039], [80.28009, 13.04585], [80.27997, 13.04479], [80.27997, 13.04477], [80.27992, 13.04434], [80.27975, 13.04343], [80.27977, 13.04342], [80.27978, 13.0434], [80.27979, 13.04335], [80.27979, 13.04331], [80.27972, 13.04324], [80.27933, 13.04083], [80.27917, 13.04024], [80.27907, 13.03978], [80.27894, 13.03943], [80.27886, 13.03921], [80.27885, 13.03919], [80.27862, 13.03847], [80.27841, 13.03761], [80.27832, 13.03736], [80.27822, 13.03717], [80.27803, 13.03672], [80.27794, 13.03648], [80.2779, 13.03629], [80.27765, 13.03519], [80.27752, 13.03446], [80.27732, 13.03367], [80.27733, 13.03345], [80.27741, 13.03315], [80.27744, 13.03288], [80.27749, 13.03229], [80.27755, 13.03191], [80.27751, 13.0315], [80.27745, 13.03133], [80.27717, 13.03084], [80.27706, 13.03063], [80.27679, 13.03018], [80.27672, 13.02996], [80.27664, 13.02967], [80.2764, 13.02878], [80.27638, 13.02866], [80.27601, 13.02771], [80.27592, 13.02752], [80.27533, 13.02618], [80.27513, 13.02574], [80.27473, 13.0248], [80.27468, 13.0247], [80.27464, 13.02464], [80.27423, 13.02426], [80.27395, 13.02403], [80.27357, 13.02375], [80.27292, 13.02328], [80.27144, 13.02218], [80.27078, 13.02168], [80.2701, 13.02112], [80.27007, 13.0211], [80.26959, 13.02064], [80.26854, 13.01982], [80.26772, 13.01913], [80.26743, 13.01892], [80.26708, 13.01873], [80.26674, 13.01867], [80.26626, 13.01862], [80.26597, 13.01863], [80.26548, 13.01874], [80.26481, 13.01895], [80.26441, 13.01906], [80.26414, 13.01907], [80.26311, 13.01895], [80.26289, 13.01893], [80.26275, 13.01895], [80.26191, 13.01879], [80.2617, 13.01878], [80.26151, 13.01876], [80.26139, 13.01874], [80.26131, 13.0187], [80.2612, 13.01856], [80.261, 13.01826], [80.26044, 13.01741], [80.2599, 13.01656], [80.25962, 13.01609], [80.2596, 13.01605], [80.25951, 13.01587], [80.25936, 13.0154], [80.2593, 13.01493], [80.25928, 13.01438], [80.25923, 13.01277], [80.25921, 13.01163], [80.25918, 13.01079], [80.2592, 13.01075], [80.25924, 13.01066], [80.25926, 13.01059], [80.25928, 13.01042], [80.25925, 13.00967], [80.25919, 13.00871], [80.25914, 13.00833], [80.25915, 13.00825], [80.25928, 13.00792], [80.25937, 13.00772], [80.2594, 13.00761], [80.25939, 13.00758], [80.25936, 13.0075], [80.25928, 13.00743], [80.25924, 13.00741], [80.25905, 13.0073], [80.25882, 13.00721], [80.25851, 13.00707], [80.25819, 13.00689], [80.25777, 13.00666], [80.25768, 13.00656], [80.25757, 13.00644], [80.25742, 13.00591], [80.25711, 13.00447], [80.25706, 13.00435], [80.25689, 13.00332], [80.25661, 13.00189], [80.25653, 13.00123], [80.25641, 13.00057], [80.25625, 12.99947], [80.2562, 12.9993], [80.25607, 12.9985], [80.25595, 12.99779], [80.2559, 12.99702], [80.25588, 12.99633], [80.25593, 12.99583], [80.25592, 12.99536], [80.25597, 12.99427], [80.25609, 12.99319], [80.2561, 12.99287], [80.25609, 12.9916], [80.25603, 12.98979], [80.256, 12.98918], [80.25597, 12.98892], [80.25595, 12.98892], [80.25594, 12.98882], [80.25591, 12.98827], [80.25583, 12.98774], [80.25677, 12.98762], [80.25717, 12.98758], [80.25856, 12.98749], [80.25938, 12.98741], [80.25959, 12.98736], [80.25964, 12.98734], [80.25971, 12.98731], [80.25976, 12.98723], [80.2598, 12.98713], [80.25981, 12.9866], [80.25975, 12.98604], [80.25961, 12.98514], [80.2596, 12.98515], [80.25961, 12.98514], [80.25956, 12.98478], [80.25954, 12.98428], [80.25952, 12.98363], [80.25947, 12.98306], [80.2594, 12.98174], [80.25937, 12.9807], [80.25912, 12.97899], [80.25911, 12.97869], [80.25913, 12.97833], [80.25919, 12.97738], [80.25916, 12.97682], [80.25914, 12.97666], [80.25906, 12.97623], [80.25898, 12.97592], [80.25884, 12.97552], [80.25855, 12.97457], [80.25842, 12.97404], [80.25823, 12.97315], [80.25816, 12.9726], [80.25811, 12.97225], [80.25811, 12.97192], [80.25813, 12.97122], [80.25809, 12.97084], [80.25803, 12.97051], [80.25791, 12.97012], [80.25778, 12.96975], [80.25767, 12.96941], [80.25746, 12.96875], [80.25729, 12.96812], [80.25716, 12.96756], [80.25704, 12.96697], [80.25692, 12.96619], [80.25675, 12.96538], [80.25663, 12.96456], [80.25658, 12.96383], [80.25652, 12.96308], [80.25645, 12.96273], [80.25629, 12.96169], [80.25615, 12.96097], [80.256, 12.96033], [80.25576, 12.95919], [80.25558, 12.95843], [80.25533, 12.95724], [80.25527, 12.95686], [80.25524, 12.95649], [80.2552, 12.95408], [80.25513, 12.95236], [80.25508, 12.95113], [80.25505, 12.95077], [80.25504, 12.95064], [80.25491, 12.95002], [80.25475, 12.9493], [80.25467, 12.949], [80.25455, 12.94854], [80.25435, 12.94791], [80.2542, 12.94736], [80.25403, 12.94672], [80.25395, 12.94609], [80.25378, 12.94477], [80.25366, 12.9443], [80.25347, 12.94334], [80.25333, 12.94236], [80.25328, 12.94212], [80.25306, 12.94091], [80.25288, 12.94014], [80.25282, 12.93937], [80.25278, 12.93877], [80.25273, 12.93851], [80.25259, 12.93776], [80.25248, 12.93688], [80.25221, 12.93451], [80.25215, 12.93387], [80.25201, 12.93276], [80.25184, 12.93141], [80.25153, 12.92865], [80.2514, 12.92751], [80.25122, 12.92549], [80.25119, 12.92434], [80.25118, 12.92398], [80.25113, 12.92348], [80.25105, 12.92249], [80.25108, 12.92207], [80.25126, 12.92126], [80.25143, 12.92071], [80.25142, 12.92046], [80.25131, 12.92014], [80.25113, 12.91974], [80.25091, 12.91911], [80.25085, 12.91884], [80.25074, 12.91826], [80.25063, 12.91748], [80.2506, 12.91711], [80.25056, 12.91646], [80.25055, 12.91613], [80.25049, 12.91558], [80.25031, 12.91393], [80.25022, 12.91241], [80.25013, 12.91094], [80.25005, 12.91028], [80.24996, 12.90921], [80.24992, 12.90883], [80.24972, 12.90769], [80.24953, 12.90668], [80.2492, 12.9053], [80.24911, 12.90467], [80.24883, 12.90232], [80.24869, 12.90153], [80.24855, 12.90099], [80.2482, 12.89996], [80.24802, 12.89945], [80.24786, 12.89917], [80.24769, 12.89872], [80.24764, 12.89855], [80.24759, 12.89831], [80.247, 12.89549], [80.24666, 12.89417], [80.24634, 12.89305], [80.24604, 12.89191], [80.24582, 12.89115], [80.24547, 12.88975], [80.2454, 12.88914], [80.24539, 12.88882], [80.24544, 12.88832], [80.24548, 12.88804], [80.2457, 12.88712], [80.24576, 12.88681], [80.24576, 12.88659], [80.24576, 12.88644], [80.2457, 12.88578], [80.2456, 12.88524], [80.24539, 12.88411], [80.24495, 12.88176], [80.24472, 12.88051], [80.24462, 12.8801], [80.24443, 12.87955], [80.24414, 12.87884], [80.24401, 12.87848], [80.24382, 12.87764], [80.24381, 12.87761], [80.24372, 12.87714], [80.24352, 12.87602], [80.24337, 12.87456], [80.24323, 12.8735], [80.24319, 12.8729], [80.24318, 12.87265], [80.24321, 12.87157], [80.24331, 12.87045], [80.24345, 12.86977], [80.24355, 12.86922], [80.24355, 12.86903], [80.24355, 12.86893], [80.24354, 12.86879], [80.24345, 12.86824], [80.24337, 12.86795], [80.24313, 12.86733], [80.24268, 12.86613], [80.24244, 12.86514], [80.24242, 12.86503], [80.2423, 12.86427], [80.24219, 12.86335], [80.24213, 12.86275], [80.24208, 12.86183], [80.24199, 12.86102], [80.24191, 12.85979], [80.24181, 12.8581], [80.24169, 12.85662], [80.24163, 12.85581], [80.24159, 12.85509], [80.24152, 12.85368], [80.2414, 12.85244], [80.24124, 12.85104], [80.24118, 12.85043], [80.24111, 12.84991], [80.24107, 12.84939], [80.24098, 12.84848], [80.24087, 12.84717], [80.24082, 12.84625], [80.24077, 12.84477], [80.24072, 12.84388], [80.24064, 12.84153], [80.24057, 12.84034], [80.24048, 12.83796], [80.24044, 12.83685], [80.24046, 12.83648], [80.2405, 12.83456], [80.24053, 12.83316], [80.24051, 12.83229], [80.24049, 12.83161], [80.24042, 12.82991], [80.24037, 12.8286], [80.24031, 12.82737], [80.2403, 12.82699], [80.24029, 12.82541], [80.24025, 12.82476], [80.24024, 12.82422], [80.24022, 12.82344], [80.24019, 12.82264], [80.2402, 12.82187], [80.24032, 12.82047], [80.24051, 12.81858], [80.24053, 12.81837], [80.24065, 12.81757], [80.24072, 12.8172], [80.24082, 12.8168], [80.24112, 12.81599], [80.2426, 12.81245], [80.24271, 12.81218], [80.24319, 12.81105], [80.24335, 12.81056], [80.24344, 12.81002], [80.24348, 12.80973], [80.24347, 12.80954], [80.24348, 12.80929], [80.24347, 12.80908], [80.24347, 12.80888], [80.24335, 12.80811], [80.24329, 12.80745], [80.24304, 12.80605], [80.24302, 12.80593], [80.24289, 12.80525], [80.24215, 12.80144], [80.24172, 12.79921], [80.24155, 12.79833], [80.24125, 12.79653], [80.24116, 12.79598], [80.24118, 12.7956], [80.24127, 12.79506], [80.24135, 12.79477], [80.24229, 12.79116], [80.2427, 12.78988], [80.24297, 12.78922], [80.24335, 12.78838], [80.24382, 12.78739], [80.24453, 12.78596], [80.24496, 12.78507], [80.24542, 12.78407], [80.24574, 12.78344], [80.24657, 12.78187], [80.24761, 12.77999], [80.24818, 12.77892], [80.24834, 12.77857], [80.24845, 12.77852], [80.24864, 12.77954], [80.2488, 12.78051], [80.24916, 12.7817], [80.2497, 12.78356], [80.24998, 12.78551], [80.25011, 12.78671], [80.24981, 12.78673], [80.24981, 12.7867], [80.24923, 12.78673], [80.24843, 12.78678], [80.24771, 12.78692], [80.24693, 12.78714], [80.24661, 12.78721], [80.24627, 12.78718], [80.24602, 12.7867], [80.2453, 12.78517], [80.24525, 12.78498], [80.2452, 12.78479], [80.24513, 12.78452], [80.24506, 12.7844], [80.24485, 12.78419], [80.24476, 12.78413], [80.24467, 12.78408], [80.24419, 12.78388], [80.24391, 12.78381], [80.24376, 12.78381], [80.24349, 12.78385], [80.24228, 12.78412], [80.24166, 12.78422], [80.24116, 12.78411], [80.2397, 12.78374], [80.23952, 12.78371], [80.23866, 12.78372], [80.23753, 12.78374], [80.23695, 12.78378], [80.2357, 12.78391], [80.23472, 12.78392], [80.23392, 12.78397], [80.23235, 12.78416], [80.23205, 12.78418], [80.23183, 12.78418], [80.23174, 12.78414], [80.23161, 12.78402], [80.23148, 12.78384], [80.23089, 12.78293], [80.23066, 12.78258], [80.23049, 12.78239], [80.23032, 12.78232], [80.23009, 12.78225], [80.22975, 12.78217], [80.22945, 12.78215], [80.22945, 12.78216], [80.22931, 12.78217], [80.22918, 12.78226], [80.22904, 12.78234], [80.22888, 12.78241], [80.22869, 12.78242], [80.22837, 12.78234], [80.22819, 12.78234], [80.22746, 12.78247], [80.22662, 12.78271], [80.22562, 12.78298], [80.22442, 12.78333], [80.22411, 12.78347], [80.22379, 12.7837], [80.22346, 12.78392], [80.22311, 12.78396], [80.22272, 12.78398], [80.2225, 12.78405], [80.22226, 12.78417], [80.2218, 12.78436], [80.22161, 12.78445], [80.22156, 12.78449], [80.22151, 12.78458], [80.22147, 12.78478], [80.22147, 12.78513], [80.22141, 12.78572], [80.22137, 12.78572], [80.22135, 12.78615], [80.22132, 12.7862], [80.22123, 12.78624], [80.22033, 12.78621], [80.22026, 12.78603], [80.22017, 12.78575], [80.21996, 12.78535], [80.21955, 12.78462], [80.2189, 12.7834], [80.21867, 12.78306], [80.21844, 12.78264], [80.21736, 12.78065], [80.21718, 12.78029], [80.21684, 12.77969], [80.2161, 12.77821], [80.2159, 12.77774], [80.21563, 12.77705], [80.21519, 12.77607], [80.21475, 12.77498], [80.21413, 12.77345], [80.21373, 12.77239], [80.2132, 12.77081], [80.21317, 12.77081], [80.21183, 12.76716], [80.21123, 12.76548], [80.21059, 12.76376], [80.21045, 12.76324], [80.21034, 12.76293], [80.20971, 12.76148], [80.20947, 12.76099], [80.2088, 12.75979], [80.20716, 12.7567], [80.20569, 12.75403], [80.20439, 12.75154], [80.20421, 12.75121], [80.20414, 12.75124], [80.20278, 12.74849], [80.20198, 12.74686], [80.20127, 12.74551], [80.201, 12.74503], [80.2009, 12.74487], [80.20066, 12.7446], [80.20034, 12.74428], [80.19832, 12.74252], [80.19756, 12.74191], [80.19742, 12.74181], [80.19602, 12.74082], [80.19514, 12.74019], [80.19427, 12.73955], [80.19339, 12.73894], [80.19257, 12.73828], [80.19228, 12.73797], [80.19051, 12.73626], [80.19055, 12.73622], [80.19015, 12.73582], [80.18987, 12.73543], [80.18973, 12.7351], [80.18962, 12.73472], [80.18952, 12.73342], [80.18947, 12.73307], [80.18919, 12.73174], [80.18899, 12.72986], [80.18894, 12.72983], [80.18891, 12.72937], [80.18892, 12.72903], [80.18891, 12.72893], [80.18887, 12.72878], [80.18876, 12.72841], [80.18869, 12.72815], [80.18854, 12.72782], [80.18833, 12.72698], [80.18818, 12.72626], [80.18796, 12.7249], [80.18786, 12.72431], [80.18775, 12.72387], [80.1873, 12.7222]]}}]}