{"type": "FeatureCollection", "features": [{"type": "Feature", "properties": {"route_name": "515M", "stop_id": "RVEyrwjR", "name": "Kilambakkam Bus Terminus", "city": "CHENNAI"}, "geometry": {"type": "Point", "coordinates": [80.07837988343238, 12.874093789888684]}}, {"type": "Feature", "properties": {"route_name": "515M", "stop_id": "wjdxsRuk", "name": "Vandalur Zoo", "city": "CHENNAI"}, "geometry": {"type": "Point", "coordinates": [80.08065400276519, 12.879049514319158]}}, {"type": "Feature", "properties": {"route_name": "515M", "stop_id": "vkArqzKY", "name": "Anna Nagar Colony", "city": "CHENNAI"}, "geometry": {"type": "Point", "coordinates": [80.10148457009348, 12.871584798913993]}}, {"type": "Feature", "properties": {"route_name": "515M", "stop_id": "DgYBMgPg", "name": "Kolapakkam Junction", "city": "CHENNAI"}, "geometry": {"type": "Point", "coordinates": [80.10689197174725, 12.87058401944237]}}, {"type": "Feature", "properties": {"route_name": "515M", "stop_id": "VEiYdotb", "name": "Ramanujar Engg College Or Balaji Plytechnic", "city": "CHENNAI"}, "geometry": {"type": "Point", "coordinates": [80.11550011945246, 12.867299772654789]}}, {"type": "Feature", "properties": {"route_name": "515M", "stop_id": "AhWKwjTz", "name": "Vengambakkam Road Junction", "city": "CHENNAI"}, "geometry": {"type": "Point", "coordinates": [80.12689413175224, 12.862854630633946]}}, {"type": "Feature", "properties": {"route_name": "515M", "stop_id": "LTfflVxG", "name": "Tagore Engineering College Rathinamangalam", "city": "CHENNAI"}, "geometry": {"type": "Point", "coordinates": [80.13146717312475, 12.86041259815089]}}, {"type": "Feature", "properties": {"route_name": "515M", "stop_id": "qRJySzaf", "name": "Rathinamangalam", "city": "CHENNAI"}, "geometry": {"type": "Point", "coordinates": [80.13378726942096, 12.857987455694577]}}, {"type": "Feature", "properties": {"route_name": "515M", "stop_id": "HeRuYpNs", "name": "Kandigai", "city": "CHENNAI"}, "geometry": {"type": "Point", "coordinates": [80.14059305030821, 12.850970268804538]}}, {"type": "Feature", "properties": {"route_name": "515M", "stop_id": "mRKfPREJ", "name": "Melakottaiyur", "city": "CHENNAI"}, "geometry": {"type": "Point", "coordinates": [80.1490046940105, 12.845612062570792]}}, {"type": "Feature", "properties": {"route_name": "515M", "stop_id": "wuAzVrCW", "name": "VIT University", "city": "CHENNAI"}, "geometry": {"type": "Point", "coordinates": [80.15279752488459, 12.840409916557649]}}, {"type": "Feature", "properties": {"route_name": "515M", "stop_id": "fdwLSfsa", "name": "Keelakottaiyur Or Malrosapuram", "city": "CHENNAI"}, "geometry": {"type": "Point", "coordinates": [80.15523637210435, 12.83766818203544]}}, {"type": "Feature", "properties": {"route_name": "515M", "stop_id": "cgSMZptb", "name": "Samathuvapuram", "city": "CHENNAI"}, "geometry": {"type": "Point", "coordinates": [80.15959003387309, 12.832608457558475]}}, {"type": "Feature", "properties": {"route_name": "515M", "stop_id": "lhSIyIfw", "name": "Mambakkam", "city": "CHENNAI"}, "geometry": {"type": "Point", "coordinates": [80.16502495259203, 12.827731753805125]}}, {"type": "Feature", "properties": {"route_name": "515M", "stop_id": "OeZVKJdr", "name": "Military Camp Mambakkam", "city": "CHENNAI"}, "geometry": {"type": "Point", "coordinates": [80.18628898803217, 12.808778334574654]}}, {"type": "Feature", "properties": {"route_name": "515M", "stop_id": "sPGYwoyj", "name": "Anjaneyar Temple Pudupakkam", "city": "CHENNAI"}, "geometry": {"type": "Point", "coordinates": [80.18939680179301, 12.806125229920887]}}, {"type": "Feature", "properties": {"route_name": "515M", "stop_id": "XUTqNKWc", "name": "Pudupakkam", "city": "CHENNAI"}, "geometry": {"type": "Point", "coordinates": [80.19817691305707, 12.799501704444268]}}, {"type": "Feature", "properties": {"route_name": "515M", "stop_id": "JvovwZNp", "name": "Butterfly Company", "city": "CHENNAI"}, "geometry": {"type": "Point", "coordinates": [80.2173975062276, 12.792193162709303]}}, {"type": "Feature", "properties": {"route_name": "515M", "stop_id": "zEOiVqLB", "name": "Samiyar Pannai", "city": "CHENNAI"}, "geometry": {"type": "Point", "coordinates": [80.22065344335067, 12.790317146362879]}}, {"type": "Feature", "properties": {"route_name": "515M", "stop_id": "MpBHVRZl", "name": "Kelambakkmm General Hospital", "city": "CHENNAI"}, "geometry": {"type": "Point", "coordinates": [80.22055903204091, 12.786677483168097]}}, {"type": "Feature", "properties": {"route_name": "515M", "stop_id": "BCwVkMhO", "name": "Kelambakkmm Police Station", "city": "CHENNAI"}, "geometry": {"type": "Point", "coordinates": [80.2199838, 12.78532768]}}, {"type": "Feature", "properties": {"route_name": "515M", "stop_id": "CgMBzfIg", "name": "Elavanthangal", "city": "CHENNAI"}, "geometry": {"type": "Point", "coordinates": [80.21737911024465, 12.78064052260931]}}, {"type": "Feature", "properties": {"route_name": "515M", "stop_id": "OXvlrfnG", "name": "Chenganmal Road Junction", "city": "CHENNAI"}, "geometry": {"type": "Point", "coordinates": [80.21320592444795, 12.77080354267838]}}, {"type": "Feature", "properties": {"route_name": "515M", "stop_id": "iZfXNAue", "name": "Vijaya Shanthi Lotus Pond", "city": "CHENNAI"}, "geometry": {"type": "Point", "coordinates": [80.20885193, 12.75975965]}}, {"type": "Feature", "properties": {"route_name": "515M", "stop_id": "CqPWXNIf", "name": "Koman Nagar Road Junction", "city": "CHENNAI"}, "geometry": {"type": "Point", "coordinates": [80.20718058784996, 12.756686401487213]}}, {"type": "Feature", "properties": {"route_name": "515M", "stop_id": "YVGWiGkc", "name": "SSN College", "city": "CHENNAI"}, "geometry": {"type": "Point", "coordinates": [80.20423125781258, 12.751194964536586]}}, {"type": "Feature", "properties": {"route_name": "515M", "stop_id": "FDrhtNjK", "name": "Kalavakkam School", "city": "CHENNAI"}, "geometry": {"type": "Point", "coordinates": [80.20035822, 12.74426545]}}, {"type": "Feature", "properties": {"route_name": "515M", "stop_id": "ucVTqZIB", "name": "Kalavakkam", "city": "CHENNAI"}, "geometry": {"type": "Point", "coordinates": [80.19744426, 12.74178678]}}, {"type": "Feature", "properties": {"route_name": "515M", "stop_id": "ZLCIvgrp", "name": "Thiruporur Or Kannagapattu", "city": "CHENNAI"}, "geometry": {"type": "Point", "coordinates": [80.19056921969991, 12.736200372957958]}}, {"type": "Feature", "properties": {"route_name": "515M", "stop_id": "Uacajbua", "name": "Thiruporur Kovil", "city": "CHENNAI"}, "geometry": {"type": "Point", "coordinates": [80.18900751120839, 12.729829417410928]}}, {"type": "Feature", "properties": {"route_name": "515M", "stop_id": "ZJxogzZw", "name": "Kandhaswami Temple Tank Thiruporur", "city": "CHENNAI"}, "geometry": {"type": "Point", "coordinates": [80.18802177, 12.7248927]}}, {"type": "Feature", "properties": {"route_name": "515M", "stop_id": "wcUGKfLa", "name": "Thiruporur Bus Stand", "city": "CHENNAI"}, "geometry": {"type": "Point", "coordinates": [80.18732844490751, 12.722195066711881]}}, {"type": "Feature", "properties": {"route_name": "515M", "stop_id": "JyEnLYHy", "name": "Thandalam", "city": "CHENNAI"}, "geometry": {"type": "Point", "coordinates": [80.18770091690465, 12.715096750469888]}}, {"type": "Feature", "properties": {"route_name": "515M", "stop_id": "VyooPFNZ", "name": "Sidco Industrial Estate Alathur", "city": "CHENNAI"}, "geometry": {"type": "Point", "coordinates": [80.1811738991438, 12.694381772736696]}}, {"type": "Feature", "properties": {"route_name": "515M", "stop_id": "kPfQKpcS", "name": "Alathur Colony", "city": "CHENNAI"}, "geometry": {"type": "Point", "coordinates": [80.1805221541731, 12.691188464116134]}}, {"type": "Feature", "properties": {"route_name": "515M", "stop_id": "wULIWnbW", "name": "Pandithamedu Village", "city": "CHENNAI"}, "geometry": {"type": "Point", "coordinates": [80.17762522987152, 12.663517420241869]}}, {"type": "Feature", "properties": {"route_name": "515M", "stop_id": "xsVxMJpx", "name": "Avit College Payyanur", "city": "CHENNAI"}, "geometry": {"type": "Point", "coordinates": [80.17663886875357, 12.657144465303224]}}, {"type": "Feature", "properties": {"route_name": "515M", "stop_id": "YBkSbJNR", "name": "Koothavakkam School", "city": "CHENNAI"}, "geometry": {"type": "Point", "coordinates": [80.17534021594827, 12.649983407149724]}}, {"type": "Feature", "properties": {"route_name": "515M", "stop_id": "mBrhAdeU", "name": "Payyanur", "city": "CHENNAI"}, "geometry": {"type": "Point", "coordinates": [80.17283522435685, 12.640962232803984]}}, {"type": "Feature", "properties": {"route_name": "515M", "stop_id": "ZKmlngva", "name": "Poonjeri Koot Road", "city": "CHENNAI"}, "geometry": {"type": "Point", "coordinates": [80.17177360203982, 12.614799930427685]}}, {"type": "Feature", "properties": {"route_name": "515M", "stop_id": "QHzfYnaE", "name": "Poonjeri", "city": "CHENNAI"}, "geometry": {"type": "Point", "coordinates": [80.17493570751583, 12.616626928668964]}}, {"type": "Feature", "properties": {"route_name": "515M", "stop_id": "wXJrQzdz", "name": "Mandapam", "city": "CHENNAI"}, "geometry": {"type": "Point", "coordinates": [80.19237362414447, 12.62086890122919]}}, {"type": "Feature", "properties": {"route_name": "515M", "stop_id": "guYkZAlV", "name": "Mamallapuram", "city": "CHENNAI"}, "geometry": {"type": "Point", "coordinates": [80.19402746522098, 12.617330878154982]}}, {"type": "Feature", "properties": {"name": "515M"}, "geometry": {"type": "LineString", "coordinates": [[80.07835, 12.8741], [80.07822, 12.87382], [80.07812, 12.87373], [80.07782, 12.87296], [80.07776, 12.8728], [80.07769, 12.87262], [80.07768, 12.87247], [80.07767, 12.87233], [80.07762, 12.87219], [80.0772, 12.87112], [80.07674, 12.86995], [80.07575, 12.8674], [80.07546, 12.86667], [80.07539, 12.86669], [80.07522, 12.86677], [80.07576, 12.86815], [80.07636, 12.86971], [80.07655, 12.87014], [80.07728, 12.87205], [80.07823, 12.8745], [80.07859, 12.87532], [80.07869, 12.87548], [80.07865, 12.87562], [80.07905, 12.87664], [80.07918, 12.87727], [80.07954, 12.87822], [80.07996, 12.87916], [80.08002, 12.87929], [80.08052, 12.87906], [80.08064, 12.87902], [80.08109, 12.87888], [80.08278, 12.87827], [80.08483, 12.87753], [80.08519, 12.8774], [80.08576, 12.87712], [80.08602, 12.87698], [80.08627, 12.87684], [80.0882, 12.87554], [80.08886, 12.87512], [80.08959, 12.87475], [80.09324, 12.87339], [80.09583, 12.87243], [80.09633, 12.87228], [80.10128, 12.87161], [80.10148, 12.87157], [80.10272, 12.87136], [80.10522, 12.8709], [80.10688, 12.87054], [80.10787, 12.87033], [80.10808, 12.87026], [80.10919, 12.86982], [80.11143, 12.86891], [80.11263, 12.86842], [80.11376, 12.86797], [80.11442, 12.86767], [80.11548, 12.86726], [80.11715, 12.86659], [80.11989, 12.86551], [80.12314, 12.86427], [80.12687, 12.8628], [80.12895, 12.86199], [80.12957, 12.86175], [80.13018, 12.86146], [80.13035, 12.86137], [80.13063, 12.86119], [80.1312, 12.86066], [80.13145, 12.8604], [80.13378, 12.85798], [80.13649, 12.85516], [80.13761, 12.85397], [80.13811, 12.85346], [80.13896, 12.85262], [80.14011, 12.8514], [80.14056, 12.85094], [80.14111, 12.85038], [80.14213, 12.84932], [80.14339, 12.84854], [80.14374, 12.84832], [80.14484, 12.84767], [80.14547, 12.84731], [80.14629, 12.84685], [80.14664, 12.84668], [80.14708, 12.84653], [80.14841, 12.84617], [80.14856, 12.84612], [80.1487, 12.84603], [80.14881, 12.84592], [80.1489, 12.84576], [80.14896, 12.8456], [80.14965, 12.8438], [80.1498, 12.84355], [80.15029, 12.84301], [80.1511, 12.84215], [80.15276, 12.84038], [80.15458, 12.83847], [80.15492, 12.83809], [80.15503, 12.83794], [80.15519, 12.83765], [80.15528, 12.83739], [80.15534, 12.83696], [80.15537, 12.83672], [80.15542, 12.83653], [80.15554, 12.83629], [80.1558, 12.83601], [80.15618, 12.83566], [80.15958, 12.8326], [80.16501, 12.82772], [80.1656, 12.82719], [80.16654, 12.82631], [80.16912, 12.82398], [80.1732, 12.8203], [80.17725, 12.81662], [80.17897, 12.81508], [80.17981, 12.81431], [80.18048, 12.8137], [80.18166, 12.81269], [80.18267, 12.81181], [80.1843, 12.81044], [80.18626, 12.80875], [80.18938, 12.80611], [80.19122, 12.80443], [80.19159, 12.80414], [80.19366, 12.80268], [80.19619, 12.80091], [80.19704, 12.8003], [80.19742, 12.80003], [80.19818, 12.79951], [80.19912, 12.79889], [80.19952, 12.79867], [80.20038, 12.79825], [80.20104, 12.79796], [80.20242, 12.79738], [80.20413, 12.79664], [80.20474, 12.7964], [80.20604, 12.79582], [80.20762, 12.79512], [80.21014, 12.79403], [80.21064, 12.79387], [80.21204, 12.79353], [80.21539, 12.79275], [80.21686, 12.7924], [80.21727, 12.79224], [80.21739, 12.79218], [80.21789, 12.79194], [80.21812, 12.79179], [80.21915, 12.79119], [80.22064, 12.79029], [80.22159, 12.7897], [80.22165, 12.78967], [80.22161, 12.78958], [80.22101, 12.78791], [80.22075, 12.78718], [80.22054, 12.78669], [80.22026, 12.78605], [80.22017, 12.78575], [80.21996, 12.78535], [80.21955, 12.78462], [80.2189, 12.7834], [80.21867, 12.78306], [80.21844, 12.78264], [80.21808, 12.78196], [80.21736, 12.78065], [80.21718, 12.78029], [80.21684, 12.77969], [80.2161, 12.77821], [80.2159, 12.77774], [80.21555, 12.77685], [80.21418, 12.77356], [80.21378, 12.77252], [80.21354, 12.77186], [80.2133, 12.77115], [80.21319, 12.77081], [80.21304, 12.77044], [80.21228, 12.76824], [80.21187, 12.76715], [80.2117, 12.76667], [80.21125, 12.76547], [80.21034, 12.76293], [80.20971, 12.76148], [80.20947, 12.76099], [80.2088, 12.75979], [80.20716, 12.7567], [80.20568, 12.75405], [80.20539, 12.75347], [80.20541, 12.75346], [80.20544, 12.75343], [80.20547, 12.75339], [80.20549, 12.7533], [80.20546, 12.75323], [80.20537, 12.75317], [80.20528, 12.75317], [80.20523, 12.75319], [80.20462, 12.75203], [80.20418, 12.75123], [80.20391, 12.75078], [80.20278, 12.74849], [80.20198, 12.74686], [80.20126, 12.74552], [80.20099, 12.74505], [80.20088, 12.74489], [80.20063, 12.74461], [80.20032, 12.7443], [80.20001, 12.74398], [80.19915, 12.74323], [80.19864, 12.7428], [80.19813, 12.74236], [80.19769, 12.742], [80.19742, 12.74181], [80.19602, 12.74082], [80.19514, 12.74019], [80.19351, 12.73902], [80.19289, 12.73855], [80.19236, 12.73807], [80.19052, 12.73625], [80.1901, 12.73584], [80.18984, 12.73545], [80.1897, 12.7351], [80.1896, 12.73473], [80.18957, 12.73447], [80.18953, 12.73396], [80.18942, 12.73297], [80.18935, 12.73275], [80.18916, 12.73177], [80.18908, 12.73094], [80.18895, 12.7299], [80.18894, 12.72984], [80.1889, 12.72903], [80.18885, 12.72879], [80.18853, 12.72783], [80.18832, 12.727], [80.18818, 12.72626], [80.18794, 12.72491], [80.18783, 12.72433], [80.1877, 12.72388], [80.1873, 12.7222], [80.18698, 12.72108], [80.18693, 12.72088], [80.18699, 12.72073], [80.18712, 12.72051], [80.1875, 12.72001], [80.1877, 12.71975], [80.18837, 12.71886], [80.18862, 12.71849], [80.18868, 12.71835], [80.18868, 12.71823], [80.18866, 12.71804], [80.18839, 12.71711], [80.18814, 12.71646], [80.18783, 12.71552], [80.18769, 12.7151], [80.18757, 12.71479], [80.18714, 12.7135], [80.18698, 12.71298], [80.18684, 12.71265], [80.18663, 12.71238], [80.18643, 12.71204], [80.18629, 12.71167], [80.18621, 12.71134], [80.186, 12.70958], [80.18593, 12.70912], [80.18586, 12.70883], [80.18578, 12.70863], [80.18531, 12.70782], [80.18444, 12.70637], [80.18411, 12.70571], [80.184, 12.70545], [80.18384, 12.70502], [80.18369, 12.70454], [80.1836, 12.704], [80.18357, 12.7032], [80.18357, 12.70286], [80.18353, 12.70259], [80.18336, 12.70172], [80.18307, 12.69953], [80.183, 12.69918], [80.18289, 12.6988], [80.18197, 12.69641], [80.18131, 12.69474], [80.18124, 12.69467], [80.18115, 12.69439], [80.18108, 12.69422], [80.18101, 12.69398], [80.18089, 12.6933], [80.1808, 12.69254], [80.18073, 12.69184], [80.18066, 12.69155], [80.18058, 12.69135], [80.18051, 12.69119], [80.18032, 12.69078], [80.18018, 12.69041], [80.1801, 12.69011], [80.18005, 12.68983], [80.17999, 12.68868], [80.17992, 12.68748], [80.17983, 12.68675], [80.17948, 12.68442], [80.17937, 12.68367], [80.17932, 12.68318], [80.17923, 12.68144], [80.17918, 12.68053], [80.1791, 12.67867], [80.17893, 12.67478], [80.17886, 12.6735], [80.17859, 12.67039], [80.17852, 12.66974], [80.17834, 12.66849], [80.17814, 12.66723], [80.1778, 12.66512], [80.17755, 12.66353], [80.17695, 12.65948], [80.17664, 12.65731], [80.17661, 12.65715], [80.17641, 12.65579], [80.17583, 12.65177], [80.17569, 12.65097], [80.17555, 12.65047], [80.17543, 12.65016], [80.17532, 12.64999], [80.17481, 12.6492], [80.17458, 12.64876], [80.1745, 12.64851], [80.17443, 12.64807], [80.17438, 12.64762], [80.17441, 12.64742], [80.17446, 12.64712], [80.1745, 12.64645], [80.17453, 12.64592], [80.1745, 12.64535], [80.17437, 12.64428], [80.17427, 12.64369], [80.17421, 12.64343], [80.17411, 12.64315], [80.17393, 12.64279], [80.1737, 12.64235], [80.1735, 12.64197], [80.17312, 12.64136], [80.17283, 12.64097], [80.17257, 12.64061], [80.17237, 12.64026], [80.17217, 12.63981], [80.17215, 12.63974], [80.17203, 12.63902], [80.17198, 12.63858], [80.17195, 12.63801], [80.17189, 12.63691], [80.17187, 12.63603], [80.17188, 12.6357], [80.17211, 12.63343], [80.17221, 12.63107], [80.17223, 12.62998], [80.17218, 12.62933], [80.17186, 12.62742], [80.1718, 12.62719], [80.17133, 12.62597], [80.171, 12.62511], [80.17089, 12.62478], [80.17049, 12.62308], [80.17025, 12.6222], [80.16998, 12.62149], [80.16986, 12.6211], [80.16966, 12.62022], [80.16957, 12.61968], [80.16949, 12.61893], [80.1695, 12.6186], [80.16971, 12.61777], [80.1699, 12.61719], [80.17001, 12.61669], [80.17004, 12.61625], [80.17001, 12.61595], [80.1699, 12.61536], [80.16979, 12.6148], [80.16993, 12.61479], [80.17082, 12.61475], [80.17133, 12.61475], [80.17178, 12.61477], [80.17189, 12.61479], [80.17245, 12.61498], [80.17297, 12.61526], [80.17376, 12.61582], [80.17494, 12.61662], [80.17624, 12.6175], [80.17651, 12.61768], [80.17686, 12.61785], [80.17709, 12.61792], [80.17834, 12.61841], [80.17934, 12.61889], [80.17943, 12.61882], [80.17958, 12.61879], [80.18006, 12.61896], [80.18051, 12.61913], [80.18089, 12.61926], [80.18146, 12.61929], [80.18153, 12.61929], [80.18178, 12.6194], [80.18207, 12.61949], [80.18292, 12.61976], [80.1861, 12.62068], [80.18785, 12.62118], [80.18827, 12.6212], [80.18957, 12.62113], [80.19016, 12.62105], [80.19078, 12.62089], [80.19109, 12.62081], [80.19137, 12.62077], [80.19154, 12.62076], [80.19179, 12.62077], [80.19207, 12.62084], [80.1922, 12.62088], [80.19237, 12.62089], [80.19286, 12.6209], [80.19295, 12.6209], [80.19319, 12.62085], [80.19396, 12.62079], [80.19451, 12.62074], [80.19452, 12.62065], [80.19451, 12.62052], [80.19445, 12.62014], [80.19405, 12.61767], [80.19399, 12.61734]]}}]}