{"type": "FeatureCollection", "features": [{"type": "Feature", "properties": {"route_name": "S18K", "stop_id": "fuApzGaS", "name": "MGR Central Station", "city": "CHENNAI"}, "geometry": {"type": "Point", "coordinates": [80.27557261, 13.08218333]}}, {"type": "Feature", "properties": {"route_name": "S18K", "stop_id": "BQqYmuyR", "name": "Nurse Quarters", "city": "CHENNAI"}, "geometry": {"type": "Point", "coordinates": [80.27835642633545, 13.082243454275435]}}, {"type": "Feature", "properties": {"route_name": "S18K", "stop_id": "TShNRujB", "name": "Mgr Central Station Or Rajiv Gandhi Government General Hospital", "city": "CHENNAI"}, "geometry": {"type": "Point", "coordinates": [80.27666299527485, 13.081750493356726]}}, {"type": "Feature", "properties": {"route_name": "S18K", "stop_id": "hxSTJhOz", "name": "Pallavan Salai", "city": "CHENNAI"}, "geometry": {"type": "Point", "coordinates": [80.27638522507527, 13.075417794179309]}}, {"type": "Feature", "properties": {"route_name": "S18K", "stop_id": "rDSiGFpR", "name": "Simson Or Periyar Bridge", "city": "CHENNAI"}, "geometry": {"type": "Point", "coordinates": [80.27388174341809, 13.070529313285379]}}, {"type": "Feature", "properties": {"route_name": "S18K", "stop_id": "LbKosGpD", "name": "Shanthi Theatre", "city": "CHENNAI"}, "geometry": {"type": "Point", "coordinates": [80.27047620448093, 13.067231830340535]}}, {"type": "Feature", "properties": {"route_name": "S18K", "stop_id": "NBopaFdP", "name": "Lic", "city": "CHENNAI"}, "geometry": {"type": "Point", "coordinates": [80.2663441938297, 13.06467874213801]}}, {"type": "Feature", "properties": {"route_name": "S18K", "stop_id": "mHRdWDIt", "name": "Spensor Plaza TVS", "city": "CHENNAI"}, "geometry": {"type": "Point", "coordinates": [80.2599162395787, 13.059476027356299]}}, {"type": "Feature", "properties": {"route_name": "S18K", "stop_id": "XFLojCJa", "name": "Anand Theatre", "city": "CHENNAI"}, "geometry": {"type": "Point", "coordinates": [80.25718621, 13.05641246]}}, {"type": "Feature", "properties": {"route_name": "S18K", "stop_id": "qpacHTVx", "name": "Church Park School", "city": "CHENNAI"}, "geometry": {"type": "Point", "coordinates": [80.25381812534101, 13.054320507629198]}}, {"type": "Feature", "properties": {"route_name": "S18K", "stop_id": "cPCRxZjy", "name": "Thousand light Or U S Embassy", "city": "CHENNAI"}, "geometry": {"type": "Point", "coordinates": [80.25297039129896, 13.053612965708266]}}, {"type": "Feature", "properties": {"route_name": "S18K", "stop_id": "LPfgjVyT", "name": "DMS", "city": "CHENNAI"}, "geometry": {"type": "Point", "coordinates": [80.24861385254701, 13.046978028476232]}}, {"type": "Feature", "properties": {"route_name": "S18K", "stop_id": "cniBuICf", "name": "Vanavil", "city": "CHENNAI"}, "geometry": {"type": "Point", "coordinates": [80.24742096301384, 13.041493303435086]}}, {"type": "Feature", "properties": {"route_name": "S18K", "stop_id": "WtPVEKaC", "name": "Teynampet Metro or SIET College", "city": "CHENNAI"}, "geometry": {"type": "Point", "coordinates": [80.24651083106585, 13.037120995799397]}}, {"type": "Feature", "properties": {"route_name": "S18K", "stop_id": "BYsSDXCP", "name": "Nandanam Metro", "city": "CHENNAI"}, "geometry": {"type": "Point", "coordinates": [80.24112919587397, 13.031649101433104]}}, {"type": "Feature", "properties": {"route_name": "S18K", "stop_id": "zjSAMvDn", "name": "Nandanam YMCA", "city": "CHENNAI"}, "geometry": {"type": "Point", "coordinates": [80.2366264217136, 13.02885415557313]}}, {"type": "Feature", "properties": {"route_name": "S18K", "stop_id": "bZroqIhX", "name": "CIT Nagar", "city": "CHENNAI"}, "geometry": {"type": "Point", "coordinates": [80.23073054407075, 13.02925281559845]}}, {"type": "Feature", "properties": {"route_name": "S18K", "stop_id": "DkqFSkSd", "name": "Kannammapettai Burial Ground", "city": "CHENNAI"}, "geometry": {"type": "Point", "coordinates": [80.22845836910233, 13.03034929701882]}}, {"type": "Feature", "properties": {"route_name": "S18K", "stop_id": "pZATYgJX", "name": "Kaveri Nager", "city": "CHENNAI"}, "geometry": {"type": "Point", "coordinates": [80.22722933510886, 13.028279589588612]}}, {"type": "Feature", "properties": {"route_name": "S18K", "stop_id": "dlzglDFV", "name": "Aranganathan Subway", "city": "CHENNAI"}, "geometry": {"type": "Point", "coordinates": [80.22409996467718, 13.02894358762073]}}, {"type": "Feature", "properties": {"route_name": "S18K", "stop_id": "yFEIEiOj", "name": "Srinivasa Theater", "city": "CHENNAI"}, "geometry": {"type": "Point", "coordinates": [80.22361961537831, 13.031109812862514]}}, {"type": "Feature", "properties": {"route_name": "S18K", "stop_id": "yXKTuRtI", "name": "Mettupalayam", "city": "CHENNAI"}, "geometry": {"type": "Point", "coordinates": [80.2200594638241, 13.03224027378055]}}, {"type": "Feature", "properties": {"route_name": "S18K", "stop_id": "RBVPcVzH", "name": "Mettupalayam Market", "city": "CHENNAI"}, "geometry": {"type": "Point", "coordinates": [80.21985496906836, 13.028535284562661]}}, {"type": "Feature", "properties": {"route_name": "S18K", "stop_id": "tWPpyLop", "name": "Manthoppu Hr Sec School", "city": "CHENNAI"}, "geometry": {"type": "Point", "coordinates": [80.21976139323672, 13.025049452301854]}}, {"type": "Feature", "properties": {"route_name": "S18K", "stop_id": "Nwfjifiy", "name": "Five Light", "city": "CHENNAI"}, "geometry": {"type": "Point", "coordinates": [80.2194654021409, 13.019633712545572]}}, {"type": "Feature", "properties": {"route_name": "S18K", "stop_id": "XMGigNUx", "name": "Annai Vellakanni Enginrig College", "city": "CHENNAI"}, "geometry": {"type": "Point", "coordinates": [80.21556438773155, 13.020200113251315]}}, {"type": "Feature", "properties": {"route_name": "S18K", "stop_id": "JAVDUixw", "name": "Parsn Nagar", "city": "CHENNAI"}, "geometry": {"type": "Point", "coordinates": [80.21417207818098, 13.019696574044586]}}, {"type": "Feature", "properties": {"name": "S18K"}, "geometry": {"type": "LineString", "coordinates": [[80.27569, 13.08215], [80.27589, 13.08205], [80.27602, 13.08185], [80.27629, 13.08188], [80.27661, 13.08194], [80.27746, 13.08205], [80.27798, 13.08211], [80.27798, 13.08251], [80.27804, 13.08291], [80.27809, 13.08341], [80.27861, 13.08356], [80.27891, 13.08365], [80.27898, 13.08355], [80.27902, 13.08341], [80.27896, 13.08325], [80.2789, 13.08314], [80.27869, 13.08259], [80.2786, 13.08231], [80.27857, 13.0822], [80.27837, 13.08215], [80.27856, 13.08217], [80.27853, 13.08206], [80.2784, 13.08205], [80.27669, 13.08183], [80.27665, 13.08182], [80.27666, 13.08179], [80.27604, 13.08168], [80.27572, 13.08164], [80.2755, 13.08156], [80.27532, 13.08152], [80.27527, 13.08149], [80.27524, 13.08144], [80.27525, 13.08117], [80.27529, 13.08069], [80.27534, 13.07998], [80.27534, 13.07973], [80.27529, 13.07939], [80.27518, 13.07885], [80.27519, 13.07876], [80.27522, 13.07867], [80.27528, 13.07856], [80.27537, 13.07845], [80.27544, 13.07841], [80.27573, 13.0783], [80.27606, 13.07819], [80.27616, 13.07807], [80.27622, 13.07786], [80.27633, 13.07542], [80.27642, 13.0742], [80.27647, 13.0738], [80.27652, 13.0737], [80.27589, 13.07309], [80.27512, 13.0724], [80.27469, 13.072], [80.2745, 13.07174], [80.27445, 13.07158], [80.27435, 13.07127], [80.27416, 13.07087], [80.27399, 13.0707], [80.27385, 13.07056], [80.27337, 13.07014], [80.27259, 13.06953], [80.27249, 13.06943], [80.27226, 13.06916], [80.27206, 13.06877], [80.27187, 13.0685], [80.27176, 13.0684], [80.27163, 13.06828], [80.27125, 13.06802], [80.27103, 13.06785], [80.27044, 13.06726], [80.27009, 13.06691], [80.2698, 13.06667], [80.26962, 13.06655], [80.26953, 13.0665], [80.26945, 13.06646], [80.26923, 13.06639], [80.26893, 13.06635], [80.26851, 13.06633], [80.26843, 13.06631], [80.26833, 13.06625], [80.26787, 13.06595], [80.26756, 13.06571], [80.2663, 13.06473], [80.26507, 13.06373], [80.26461, 13.06339], [80.26383, 13.06264], [80.26326, 13.06221], [80.26247, 13.06161], [80.26146, 13.06077], [80.26138, 13.06069], [80.2599, 13.05949], [80.25902, 13.05877], [80.25836, 13.05824], [80.25771, 13.05768], [80.25776, 13.05662], [80.25761, 13.05659], [80.25728, 13.05652], [80.25717, 13.05649], [80.25715, 13.05648], [80.25689, 13.05642], [80.25667, 13.05639], [80.25651, 13.05639], [80.25625, 13.05618], [80.25454, 13.05494], [80.25417, 13.05463], [80.2538, 13.05434], [80.25291, 13.05369], [80.25116, 13.05242], [80.25074, 13.05209], [80.25048, 13.05181], [80.25036, 13.05166], [80.25027, 13.05152], [80.25018, 13.05132], [80.25008, 13.05096], [80.25, 13.05045], [80.24992, 13.04979], [80.24985, 13.0494], [80.2498, 13.04884], [80.24972, 13.04858], [80.24958, 13.04834], [80.24933, 13.048], [80.24879, 13.04748], [80.24874, 13.04742], [80.24862, 13.04724], [80.24855, 13.047], [80.2483, 13.04599], [80.24822, 13.04556], [80.24813, 13.04496], [80.24785, 13.04355], [80.24762, 13.04253], [80.2474, 13.0415], [80.2472, 13.04048], [80.24704, 13.03946], [80.24697, 13.0392], [80.24685, 13.03872], [80.24659, 13.0376], [80.2462, 13.0359], [80.24606, 13.03533], [80.24592, 13.03504], [80.24581, 13.03491], [80.24567, 13.03478], [80.24489, 13.03416], [80.24429, 13.03373], [80.24299, 13.03274], [80.24254, 13.03244], [80.24229, 13.03229], [80.24141, 13.03181], [80.24112, 13.03166], [80.24019, 13.03123], [80.23974, 13.031], [80.23785, 13.02991], [80.23735, 13.0296], [80.23706, 13.02936], [80.23657, 13.02892], [80.23562, 13.02808], [80.23548, 13.02796], [80.2348, 13.02759], [80.23306, 13.02657], [80.2326, 13.02635], [80.23236, 13.02627], [80.23215, 13.02622], [80.2314, 13.02603], [80.23138, 13.0261], [80.23124, 13.02644], [80.23111, 13.027], [80.23098, 13.02754], [80.23097, 13.02764], [80.23079, 13.02926], [80.23075, 13.02969], [80.23073, 13.0302], [80.23065, 13.03078], [80.22993, 13.0306], [80.22935, 13.03037], [80.22917, 13.03034], [80.22886, 13.03034], [80.22846, 13.03038], [80.22749, 13.03049], [80.22736, 13.02964], [80.22729, 13.02919], [80.22722, 13.02873], [80.22713, 13.0283], [80.22707, 13.02805], [80.22699, 13.02796], [80.22686, 13.02791], [80.22668, 13.02792], [80.22579, 13.02809], [80.22463, 13.02833], [80.22404, 13.02844], [80.22404, 13.0285], [80.22404, 13.02889], [80.22409, 13.02895], [80.22424, 13.02912], [80.22428, 13.02924], [80.22429, 13.03105], [80.22429, 13.03122], [80.22398, 13.03119], [80.22381, 13.03118], [80.22362, 13.03118], [80.22334, 13.03119], [80.22291, 13.03125], [80.22277, 13.0313], [80.22238, 13.03153], [80.22185, 13.03178], [80.2214, 13.032], [80.22055, 13.03222], [80.22021, 13.03225], [80.22006, 13.03226], [80.22, 13.03226], [80.2201, 13.032], [80.22022, 13.03167], [80.22023, 13.03126], [80.22022, 13.03074], [80.22023, 13.03033], [80.22019, 13.02988], [80.22018, 13.02972], [80.2201, 13.02943], [80.22002, 13.02927], [80.2199, 13.02885], [80.21984, 13.02854], [80.21983, 13.02852], [80.21979, 13.02808], [80.21978, 13.0277], [80.21977, 13.02747], [80.21973, 13.02713], [80.21976, 13.02673], [80.21977, 13.02636], [80.21971, 13.02593], [80.21971, 13.02545], [80.21975, 13.02505], [80.21976, 13.02492], [80.21973, 13.02443], [80.21968, 13.0239], [80.21961, 13.02344], [80.21956, 13.02319], [80.21949, 13.02238], [80.21955, 13.02227], [80.21947, 13.02147], [80.21945, 13.02121], [80.21947, 13.02008], [80.21945, 13.01963], [80.21945, 13.01951], [80.21887, 13.01949], [80.21846, 13.01952], [80.21784, 13.01957], [80.21711, 13.01976], [80.21659, 13.01991], [80.21604, 13.02009], [80.21557, 13.02021], [80.2149, 13.0204], [80.2145, 13.02051], [80.21433, 13.02011], [80.2142, 13.01979], [80.21416, 13.0197]]}}]}