{"type": "FeatureCollection", "features": [{"type": "Feature", "properties": {"route_name": "517K", "stop_id": "uaUalZjh", "name": "Kovalam Bus Stand", "city": "CHENNAI"}, "geometry": {"type": "Point", "coordinates": [80.24981696737393, 12.78675363011011]}}, {"type": "Feature", "properties": {"route_name": "517K", "stop_id": "beniIHzL", "name": "Kovalam Kelambakam Road Junction", "city": "CHENNAI"}, "geometry": {"type": "Point", "coordinates": [80.245277891197, 12.784971555290847]}}, {"type": "Feature", "properties": {"route_name": "517K", "stop_id": "BNQPEsdW", "name": "Salt Office", "city": "CHENNAI"}, "geometry": {"type": "Point", "coordinates": [80.22945035900148, 12.782128164855616]}}, {"type": "Feature", "properties": {"route_name": "517K", "stop_id": "qKwvXMmm", "name": "Kelambakkam School", "city": "CHENNAI"}, "geometry": {"type": "Point", "coordinates": [80.22138518145971, 12.78571819801175]}}, {"type": "Feature", "properties": {"route_name": "517K", "stop_id": "uxBjVsKf", "name": "Kelambakkmm Police Station", "city": "CHENNAI"}, "geometry": {"type": "Point", "coordinates": [80.21990367384092, 12.785399610431222]}}, {"type": "Feature", "properties": {"route_name": "517K", "stop_id": "ngtiheSM", "name": "Kelambakkmm General Hospital", "city": "CHENNAI"}, "geometry": {"type": "Point", "coordinates": [80.22043933846362, 12.786694812130275]}}, {"type": "Feature", "properties": {"route_name": "517K", "stop_id": "rPcYYZtd", "name": "AP Super Market", "city": "CHENNAI"}, "geometry": {"type": "Point", "coordinates": [80.22132770552253, 12.789027384331868]}}, {"type": "Feature", "properties": {"route_name": "517K", "stop_id": "zBPHjWVd", "name": "Samiyar Pannai", "city": "CHENNAI"}, "geometry": {"type": "Point", "coordinates": [80.22083885104882, 12.79003563636055]}}, {"type": "Feature", "properties": {"route_name": "517K", "stop_id": "aNlaxeLS", "name": "Butterfly Company", "city": "CHENNAI"}, "geometry": {"type": "Point", "coordinates": [80.21738308935414, 12.79205911136289]}}, {"type": "Feature", "properties": {"route_name": "517K", "stop_id": "ZecyfkGE", "name": "Pudupakkam", "city": "CHENNAI"}, "geometry": {"type": "Point", "coordinates": [80.1978178323252, 12.799572651487257]}}, {"type": "Feature", "properties": {"route_name": "517K", "stop_id": "pFQacbfu", "name": "Anjaneyar Temple Pudupakkam", "city": "CHENNAI"}, "geometry": {"type": "Point", "coordinates": [80.18932639380637, 12.806008513614833]}}, {"type": "Feature", "properties": {"route_name": "517K", "stop_id": "AOtPxxNt", "name": "Military Camp Mambakkam", "city": "CHENNAI"}, "geometry": {"type": "Point", "coordinates": [80.18629871103985, 12.80859623287557]}}, {"type": "Feature", "properties": {"route_name": "517K", "stop_id": "pzScocJN", "name": "Mambakkam", "city": "CHENNAI"}, "geometry": {"type": "Point", "coordinates": [80.16493040472426, 12.827623874040325]}}, {"type": "Feature", "properties": {"route_name": "517K", "stop_id": "khOlLZay", "name": "Samathuvapuram", "city": "CHENNAI"}, "geometry": {"type": "Point", "coordinates": [80.15947302250481, 12.832542096449574]}}, {"type": "Feature", "properties": {"route_name": "517K", "stop_id": "CDXhVrrJ", "name": "Keelakottaiyur Or Malrosapuram", "city": "CHENNAI"}, "geometry": {"type": "Point", "coordinates": [80.15519815062589, 12.837350766407658]}}, {"type": "Feature", "properties": {"route_name": "517K", "stop_id": "yHCBRtBd", "name": "Melakottaiyur", "city": "CHENNAI"}, "geometry": {"type": "Point", "coordinates": [80.1488387323277, 12.845664691060307]}}, {"type": "Feature", "properties": {"route_name": "517K", "stop_id": "xnXFAboh", "name": "Kandigai", "city": "CHENNAI"}, "geometry": {"type": "Point", "coordinates": [80.14014813888787, 12.851216081007852]}}, {"type": "Feature", "properties": {"route_name": "517K", "stop_id": "NTCwKKsF", "name": "Rathinamangalam", "city": "CHENNAI"}, "geometry": {"type": "Point", "coordinates": [80.13365248841797, 12.857924696847444]}}, {"type": "Feature", "properties": {"route_name": "517K", "stop_id": "JKUqFAhf", "name": "Tagore Engineering College Rathinamangalam", "city": "CHENNAI"}, "geometry": {"type": "Point", "coordinates": [80.13089720370908, 12.860797972628758]}}, {"type": "Feature", "properties": {"route_name": "517K", "stop_id": "tkWZZFES", "name": "Vengambakkam Road Junction", "city": "CHENNAI"}, "geometry": {"type": "Point", "coordinates": [80.12683210566877, 12.862697082803901]}}, {"type": "Feature", "properties": {"route_name": "517K", "stop_id": "UTnQirag", "name": "Ramanujar Engg College Or Balaji Plytechnic", "city": "CHENNAI"}, "geometry": {"type": "Point", "coordinates": [80.11550883663176, 12.86712163562261]}}, {"type": "Feature", "properties": {"route_name": "517K", "stop_id": "GpOUDfXM", "name": "Kolapakkam Junction", "city": "CHENNAI"}, "geometry": {"type": "Point", "coordinates": [80.10696539721903, 12.870413402356698]}}, {"type": "Feature", "properties": {"route_name": "517K", "stop_id": "lOyAoICg", "name": "Anna Nagar Colony", "city": "CHENNAI"}, "geometry": {"type": "Point", "coordinates": [80.10180777627977, 12.871382151064015]}}, {"type": "Feature", "properties": {"route_name": "517K", "stop_id": "CbcrfuAf", "name": "Vandalur Zoo", "city": "CHENNAI"}, "geometry": {"type": "Point", "coordinates": [80.08058627698756, 12.88094584155778]}}, {"type": "Feature", "properties": {"route_name": "517K", "stop_id": "gGkadTNm", "name": "Vandalur Gate", "city": "CHENNAI"}, "geometry": {"type": "Point", "coordinates": [80.0861980335012, 12.89323631083488]}}, {"type": "Feature", "properties": {"route_name": "517K", "stop_id": "RyPegcUV", "name": "Iraniyamman Koil", "city": "CHENNAI"}, "geometry": {"type": "Point", "coordinates": [80.08932019596341, 12.897432906791021]}}, {"type": "Feature", "properties": {"route_name": "517K", "stop_id": "qPtpgxic", "name": "Perungalattur", "city": "CHENNAI"}, "geometry": {"type": "Point", "coordinates": [80.09617808374855, 12.906468063975968]}}, {"type": "Feature", "properties": {"route_name": "517K", "stop_id": "KzCxlBoL", "name": "Perungalatgur Lake View Stop", "city": "CHENNAI"}, "geometry": {"type": "Point", "coordinates": [80.09829410933969, 12.909055141933235]}}, {"type": "Feature", "properties": {"route_name": "517K", "stop_id": "SEVBrkvc", "name": "Irumbuliyur", "city": "CHENNAI"}, "geometry": {"type": "Point", "coordinates": [80.1058340174651, 12.916500866623101]}}, {"type": "Feature", "properties": {"route_name": "517K", "stop_id": "ojqTFFWy", "name": "Tambaram West Bus Stand", "city": "CHENNAI"}, "geometry": {"type": "Point", "coordinates": [80.11862628452741, 12.927652178598898]}}, {"type": "Feature", "properties": {"route_name": "517K", "stop_id": "puwcRgFs", "name": "Tambaram Sanatorium Bus Stand", "city": "CHENNAI"}, "geometry": {"type": "Point", "coordinates": [80.12748203125693, 12.937217648869067]}}, {"type": "Feature", "properties": {"route_name": "517K", "stop_id": "vyojaKRU", "name": "TB Hospital", "city": "CHENNAI"}, "geometry": {"type": "Point", "coordinates": [80.13450000658327, 12.944099170682174]}}, {"type": "Feature", "properties": {"route_name": "517K", "stop_id": "fzSWURzx", "name": "MIT Gate", "city": "CHENNAI"}, "geometry": {"type": "Point", "coordinates": [80.1374050176471, 12.947988238425095]}}, {"type": "Feature", "properties": {"route_name": "517K", "stop_id": "XiXLaJEL", "name": "Chromepet", "city": "CHENNAI"}, "geometry": {"type": "Point", "coordinates": [80.14007744716844, 12.95149481497275]}}, {"type": "Feature", "properties": {"route_name": "517K", "stop_id": "OyAyNkqZ", "name": "Saravana Store Chromepet", "city": "CHENNAI"}, "geometry": {"type": "Point", "coordinates": [80.14328253738302, 12.956911513898792]}}, {"type": "Feature", "properties": {"route_name": "517K", "stop_id": "cIQOVqQI", "name": "Ponds Company", "city": "CHENNAI"}, "geometry": {"type": "Point", "coordinates": [80.1456306546487, 12.961434135955843]}}, {"type": "Feature", "properties": {"route_name": "517K", "stop_id": "EKYbCcms", "name": "Pallavaram", "city": "CHENNAI"}, "geometry": {"type": "Point", "coordinates": [80.14962855, 12.96869503]}}, {"type": "Feature", "properties": {"route_name": "517K", "stop_id": "qeXIqBgp", "name": "Pallavaram Bus Stand", "city": "CHENNAI"}, "geometry": {"type": "Point", "coordinates": [80.15020472965345, 12.969321927480118]}}, {"type": "Feature", "properties": {"name": "517K"}, "geometry": {"type": "LineString", "coordinates": [[80.24982, 12.78671], [80.24837, 12.78681], [80.24798, 12.78686], [80.24736, 12.78703], [80.24654, 12.78727], [80.24633, 12.78725], [80.24624, 12.7872], [80.24621, 12.78715], [80.2461, 12.78697], [80.2458, 12.78633], [80.24532, 12.78524], [80.24527, 12.78505], [80.24525, 12.78498], [80.2452, 12.78479], [80.24513, 12.78452], [80.24506, 12.7844], [80.24485, 12.78419], [80.24476, 12.78413], [80.24467, 12.78408], [80.24419, 12.78388], [80.24391, 12.78381], [80.24376, 12.78381], [80.24349, 12.78385], [80.24228, 12.78412], [80.24166, 12.78422], [80.24116, 12.78411], [80.2397, 12.78374], [80.23952, 12.78371], [80.23866, 12.78372], [80.23753, 12.78374], [80.23695, 12.78378], [80.2357, 12.78391], [80.23472, 12.78392], [80.23392, 12.78397], [80.23235, 12.78416], [80.23205, 12.78418], [80.23183, 12.78418], [80.23174, 12.78414], [80.23161, 12.78402], [80.23148, 12.78384], [80.23089, 12.78293], [80.23066, 12.78258], [80.23049, 12.78239], [80.23032, 12.78232], [80.23009, 12.78225], [80.22975, 12.78217], [80.22945, 12.78215], [80.22918, 12.78219], [80.22843, 12.78228], [80.22815, 12.78236], [80.22761, 12.78246], [80.22726, 12.78252], [80.22679, 12.78266], [80.22562, 12.78298], [80.22442, 12.78333], [80.22428, 12.78338], [80.22405, 12.78352], [80.22357, 12.78389], [80.22335, 12.78399], [80.22293, 12.78401], [80.22263, 12.78403], [80.22226, 12.78419], [80.2218, 12.78437], [80.22162, 12.78447], [80.22157, 12.78451], [80.2215, 12.7846], [80.22147, 12.7847], [80.22143, 12.78498], [80.22137, 12.78572], [80.22135, 12.78615], [80.22132, 12.7862], [80.22123, 12.78624], [80.22033, 12.78621], [80.22026, 12.78603], [80.22017, 12.78575], [80.21996, 12.78535], [80.21955, 12.78462], [80.21887, 12.78344], [80.2188, 12.78347], [80.21944, 12.78459], [80.21953, 12.78473], [80.21991, 12.78538], [80.22011, 12.78576], [80.2202, 12.78607], [80.22028, 12.78623], [80.22046, 12.78669], [80.22065, 12.78717], [80.22094, 12.78794], [80.22135, 12.78902], [80.22155, 12.78961], [80.22139, 12.78972], [80.22086, 12.79006], [80.21878, 12.79131], [80.21739, 12.79208], [80.21741, 12.79211], [80.21711, 12.79224], [80.21672, 12.79238], [80.21567, 12.79262], [80.21536, 12.79267], [80.21529, 12.79269], [80.21415, 12.79296], [80.21234, 12.79337], [80.21113, 12.79364], [80.21043, 12.79382], [80.20966, 12.79413], [80.20638, 12.79555], [80.20567, 12.79586], [80.20468, 12.79632], [80.20113, 12.79785], [80.19954, 12.79854], [80.19933, 12.79865], [80.1988, 12.79897], [80.19785, 12.79962], [80.197, 12.80024], [80.19511, 12.80156], [80.19195, 12.80378], [80.1912, 12.80434], [80.1895, 12.8059], [80.18935, 12.80604], [80.18751, 12.80761], [80.1863, 12.80863], [80.18161, 12.81263], [80.18064, 12.81346], [80.1799, 12.81413], [80.17832, 12.81555], [80.17315, 12.82023], [80.17003, 12.82307], [80.16671, 12.82606], [80.16553, 12.82712], [80.16494, 12.82764], [80.16358, 12.8289], [80.16221, 12.83015], [80.15963, 12.83243], [80.15949, 12.83256], [80.15717, 12.83466], [80.15582, 12.83589], [80.15549, 12.83624], [80.15539, 12.83642], [80.15533, 12.8366], [80.15527, 12.83698], [80.15522, 12.83735], [80.15513, 12.83761], [80.15504, 12.83779], [80.15485, 12.83805], [80.15422, 12.83872], [80.15293, 12.84008], [80.15239, 12.84064], [80.1516, 12.84148], [80.15115, 12.84197], [80.15024, 12.84296], [80.14995, 12.84327], [80.14974, 12.84352], [80.14962, 12.84371], [80.14951, 12.84394], [80.14946, 12.84406], [80.14932, 12.84437], [80.14911, 12.84495], [80.14887, 12.84567], [80.14876, 12.84588], [80.1486, 12.84601], [80.14844, 12.84608], [80.14819, 12.84616], [80.147, 12.84649], [80.14669, 12.84659], [80.14644, 12.8467], [80.14484, 12.84759], [80.1437, 12.84826], [80.14288, 12.84878], [80.14207, 12.84927], [80.14105, 12.85032], [80.14017, 12.85124], [80.13966, 12.85175], [80.13834, 12.8531], [80.13603, 12.8555], [80.13495, 12.85663], [80.13442, 12.85717], [80.13369, 12.85796], [80.13322, 12.85843], [80.13211, 12.85962], [80.13113, 12.8606], [80.13091, 12.86081], [80.13051, 12.86118], [80.1301, 12.86142], [80.1293, 12.86178], [80.12882, 12.86196], [80.12685, 12.86273], [80.11975, 12.86548], [80.11683, 12.86663], [80.11552, 12.86715], [80.11372, 12.86787], [80.11326, 12.86807], [80.11269, 12.86829], [80.11139, 12.86884], [80.11078, 12.86908], [80.10917, 12.86975], [80.10801, 12.8702], [80.10737, 12.87036], [80.10697, 12.87045], [80.10548, 12.87075], [80.10392, 12.87106], [80.10185, 12.8714], [80.10181, 12.87141], [80.10089, 12.87158], [80.0997, 12.87175], [80.09637, 12.8722], [80.09598, 12.8723], [80.09486, 12.87271], [80.0909, 12.87416], [80.08975, 12.87458], [80.08913, 12.87486], [80.08848, 12.87523], [80.0872, 12.8761], [80.086, 12.87691], [80.08553, 12.87714], [80.08474, 12.87748], [80.08311, 12.87807], [80.08051, 12.879], [80.08023, 12.87905], [80.07993, 12.87918], [80.07997, 12.8793], [80.08046, 12.88057], [80.08058, 12.88093], [80.08053, 12.88105], [80.08054, 12.88111], [80.08075, 12.88172], [80.08126, 12.88295], [80.08167, 12.88395], [80.08191, 12.88446], [80.08205, 12.88476], [80.08224, 12.88509], [80.0824, 12.88528], [80.08253, 12.88538], [80.0826, 12.88544], [80.08277, 12.88597], [80.08281, 12.88608], [80.08345, 12.88769], [80.08393, 12.88879], [80.08457, 12.8904], [80.08472, 12.89073], [80.08477, 12.89078], [80.08507, 12.89144], [80.08544, 12.89212], [80.08581, 12.89268], [80.08611, 12.89307], [80.08623, 12.89322], [80.08686, 12.89408], [80.08933, 12.89738], [80.08935, 12.89741], [80.09299, 12.90224], [80.09363, 12.9031], [80.09455, 12.90427], [80.09542, 12.90546], [80.09619, 12.90646], [80.09739, 12.90804], [80.09792, 12.90867], [80.09824, 12.90892], [80.09834, 12.909], [80.09861, 12.90921], [80.09888, 12.9094], [80.10024, 12.9102], [80.10049, 12.91038], [80.10072, 12.91057], [80.10095, 12.91087], [80.10109, 12.91112], [80.10119, 12.9114], [80.10124, 12.91161], [80.1013, 12.91189], [80.10141, 12.91295], [80.10144, 12.91322], [80.1015, 12.91381], [80.10153, 12.91385], [80.10155, 12.91391], [80.10157, 12.91398], [80.10161, 12.91421], [80.10171, 12.91453], [80.10178, 12.91467], [80.10195, 12.91494], [80.10219, 12.91521], [80.10244, 12.9154], [80.10282, 12.91558], [80.10304, 12.91564], [80.10331, 12.91568], [80.10403, 12.91574], [80.10411, 12.91577], [80.10419, 12.91583], [80.10466, 12.91588], [80.10494, 12.91596], [80.10518, 12.91606], [80.10583, 12.91641], [80.10587, 12.91643], [80.10723, 12.91716], [80.10746, 12.91729], [80.10777, 12.91749], [80.10838, 12.91799], [80.10963, 12.919], [80.11067, 12.91979], [80.11139, 12.92043], [80.11237, 12.92138], [80.11392, 12.92287], [80.11555, 12.92452], [80.11738, 12.9263], [80.11753, 12.92649], [80.11792, 12.92692], [80.11828, 12.92725], [80.11867, 12.92761], [80.11904, 12.92801], [80.11957, 12.92853], [80.12033, 12.92931], [80.12111, 12.93006], [80.12135, 12.9303], [80.12214, 12.93113], [80.12285, 12.93182], [80.12337, 12.93233], [80.12444, 12.93335], [80.12554, 12.93446], [80.12614, 12.93512], [80.12696, 12.93605], [80.12745, 12.93661], [80.12722, 12.93679], [80.12752, 12.93719], [80.12773, 12.93749], [80.12778, 12.93746], [80.12791, 12.9374], [80.12798, 12.93745], [80.1281, 12.93761], [80.12817, 12.93769], [80.12825, 12.93772], [80.12839, 12.93775], [80.12931, 12.93876], [80.13055, 12.94023], [80.1321, 12.94169], [80.1335, 12.94304], [80.134, 12.94353], [80.13444, 12.944], [80.13451, 12.94409], [80.13475, 12.94441], [80.13629, 12.94636], [80.13672, 12.94694], [80.13744, 12.94796], [80.13828, 12.94912], [80.13877, 12.94976], [80.13942, 12.95054], [80.13964, 12.9508], [80.14014, 12.95145], [80.14063, 12.95207], [80.14072, 12.95216], [80.14124, 12.95282], [80.1415, 12.95323], [80.14169, 12.9536], [80.14217, 12.95452], [80.14316, 12.95644], [80.14339, 12.95686], [80.14381, 12.95761], [80.14407, 12.95813], [80.14455, 12.95899], [80.14528, 12.9604], [80.14561, 12.96102], [80.14579, 12.96134], [80.1457, 12.96134], [80.14566, 12.96134], [80.14565, 12.96134], [80.14561, 12.96134], [80.14565, 12.96143], [80.14587, 12.96184], [80.14606, 12.96221], [80.14658, 12.9632], [80.14673, 12.96346], [80.14676, 12.96349], [80.14687, 12.96352], [80.14703, 12.96359], [80.14716, 12.9638], [80.14747, 12.96433], [80.14761, 12.96465], [80.14777, 12.96495], [80.14788, 12.96513], [80.14796, 12.96519], [80.14804, 12.96531], [80.14827, 12.96574], [80.14874, 12.9667], [80.14939, 12.96814], [80.14965, 12.96869], [80.14981, 12.96904], [80.1501, 12.96967], [80.15023, 12.96961], [80.15011, 12.96935]]}}]}