{"type": "FeatureCollection", "features": [{"type": "Feature", "properties": {"route_name": "523A", "stop_id": "gyQqEnFq", "name": "Thiruvanmiyur Depot", "city": "CHENNAI"}, "geometry": {"type": "Point", "coordinates": [80.2592892551454, 12.98684992620367]}}, {"type": "Feature", "properties": {"route_name": "523A", "stop_id": "WvPJYXMk", "name": "Jayanthi Theatre", "city": "CHENNAI"}, "geometry": {"type": "Point", "coordinates": [80.25592678221915, 12.987564860705671]}}, {"type": "Feature", "properties": {"route_name": "523A", "stop_id": "qjwSVoCq", "name": "Tidel Park", "city": "CHENNAI"}, "geometry": {"type": "Point", "coordinates": [80.25166113484738, 12.987417059703843]}}, {"type": "Feature", "properties": {"route_name": "523A", "stop_id": "WynPMslR", "name": "SRP Tools", "city": "CHENNAI"}, "geometry": {"type": "Point", "coordinates": [80.25253830988527, 12.978613932506057]}}, {"type": "Feature", "properties": {"route_name": "523A", "stop_id": "vHkAlmCm", "name": "I G P", "city": "CHENNAI"}, "geometry": {"type": "Point", "coordinates": [80.25031108025769, 12.972735115385722]}}, {"type": "Feature", "properties": {"route_name": "523A", "stop_id": "GnOurcjN", "name": "Kandanchavadi", "city": "CHENNAI"}, "geometry": {"type": "Point", "coordinates": [80.24755243721381, 12.965315280574965]}}, {"type": "Feature", "properties": {"route_name": "523A", "stop_id": "yfIoPTHo", "name": "Perungudi", "city": "CHENNAI"}, "geometry": {"type": "Point", "coordinates": [80.24487159, 12.95946873]}}, {"type": "Feature", "properties": {"route_name": "523A", "stop_id": "EXTmTMKf", "name": "Seevaram", "city": "CHENNAI"}, "geometry": {"type": "Point", "coordinates": [80.24178128, 12.95164677]}}, {"type": "Feature", "properties": {"route_name": "523A", "stop_id": "zjGRmLyo", "name": "D B Jain College", "city": "CHENNAI"}, "geometry": {"type": "Point", "coordinates": [80.24000047, 12.94693162]}}, {"type": "Feature", "properties": {"route_name": "523A", "stop_id": "xbhuXgnr", "name": "Infoview Thoraipakkam", "city": "CHENNAI"}, "geometry": {"type": "Point", "coordinates": [80.23752734458492, 12.943733154235094]}}, {"type": "Feature", "properties": {"route_name": "523A", "stop_id": "JGydtICe", "name": "Mettukuppam", "city": "CHENNAI"}, "geometry": {"type": "Point", "coordinates": [80.23561417, 12.939223]}}, {"type": "Feature", "properties": {"route_name": "523A", "stop_id": "RtTLxXUv", "name": "PTC Quarters Or Mootakaran Chavadi", "city": "CHENNAI"}, "geometry": {"type": "Point", "coordinates": [80.23319617, 12.93422046]}}, {"type": "Feature", "properties": {"route_name": "523A", "stop_id": "FtWuEuzF", "name": "Okkiyampet", "city": "CHENNAI"}, "geometry": {"type": "Point", "coordinates": [80.23107766, 12.92583502]}}, {"type": "Feature", "properties": {"route_name": "523A", "stop_id": "ACkvbmee", "name": "KCG College", "city": "CHENNAI"}, "geometry": {"type": "Point", "coordinates": [80.23024746617386, 12.919637424938962]}}, {"type": "Feature", "properties": {"route_name": "523A", "stop_id": "wqGWmwVd", "name": "Karapakkam", "city": "CHENNAI"}, "geometry": {"type": "Point", "coordinates": [80.22938008346091, 12.913269786666612]}}, {"type": "Feature", "properties": {"route_name": "523A", "stop_id": "HxnLIWQq", "name": "Dollar Or Accenture", "city": "CHENNAI"}, "geometry": {"type": "Point", "coordinates": [80.22838879, 12.90631206]}}, {"type": "Feature", "properties": {"route_name": "523A", "stop_id": "ZqBGCTqq", "name": "P U Office Sholinganallur", "city": "CHENNAI"}, "geometry": {"type": "Point", "coordinates": [80.22815779090502, 12.903103588978746]}}, {"type": "Feature", "properties": {"route_name": "523A", "stop_id": "tcbhlVZo", "name": "Sholinganallur", "city": "CHENNAI"}, "geometry": {"type": "Point", "coordinates": [80.22795722, 12.89886946]}}, {"type": "Feature", "properties": {"route_name": "523A", "stop_id": "elxmPCDf", "name": "Government School Sholinganallur", "city": "CHENNAI"}, "geometry": {"type": "Point", "coordinates": [80.22765472, 12.89353373]}}, {"type": "Feature", "properties": {"route_name": "523A", "stop_id": "iYbcLrkT", "name": "Oodai", "city": "CHENNAI"}, "geometry": {"type": "Point", "coordinates": [80.2274603144279, 12.888546362996376]}}, {"type": "Feature", "properties": {"route_name": "523A", "stop_id": "tTjpyeuP", "name": "Ponniamman Kovil", "city": "CHENNAI"}, "geometry": {"type": "Point", "coordinates": [80.22701226, 12.8857514]}}, {"type": "Feature", "properties": {"route_name": "523A", "stop_id": "GMrJWgHs", "name": "Kumaran Nagar", "city": "CHENNAI"}, "geometry": {"type": "Point", "coordinates": [80.22698026, 12.87792635]}}, {"type": "Feature", "properties": {"route_name": "523A", "stop_id": "KnIeolpt", "name": "Satyabhama University", "city": "CHENNAI"}, "geometry": {"type": "Point", "coordinates": [80.22682621, 12.87194605]}}, {"type": "Feature", "properties": {"route_name": "523A", "stop_id": "RyhuDLev", "name": "Semmancheri", "city": "CHENNAI"}, "geometry": {"type": "Point", "coordinates": [80.22664377933688, 12.860518973722925]}}, {"type": "Feature", "properties": {"route_name": "523A", "stop_id": "fzmnvqlX", "name": "AGS Complex Navalur", "city": "CHENNAI"}, "geometry": {"type": "Point", "coordinates": [80.22669163072237, 12.850224191423946]}}, {"type": "Feature", "properties": {"route_name": "523A", "stop_id": "SEcoeimf", "name": "Navallur", "city": "CHENNAI"}, "geometry": {"type": "Point", "coordinates": [80.22677190971399, 12.844704723232628]}}, {"type": "Feature", "properties": {"route_name": "523A", "stop_id": "zzxlwhdI", "name": "Egattur", "city": "CHENNAI"}, "geometry": {"type": "Point", "coordinates": [80.22850377262876, 12.836728211035785]}}, {"type": "Feature", "properties": {"route_name": "523A", "stop_id": "wssOAckJ", "name": "IT Park Siruseri Or Muttukadu", "city": "CHENNAI"}, "geometry": {"type": "Point", "coordinates": [80.22916363, 12.83264936]}}, {"type": "Feature", "properties": {"route_name": "523A", "stop_id": "lbFoZTYJ", "name": "Sipcot", "city": "CHENNAI"}, "geometry": {"type": "Point", "coordinates": [80.22956229647839, 12.830863124820098]}}, {"type": "Feature", "properties": {"route_name": "523A", "stop_id": "obGcbWvT", "name": "Vaniyanchavadi Padma Adarsh School", "city": "CHENNAI"}, "geometry": {"type": "Point", "coordinates": [80.2314093463841, 12.826212168683032]}}, {"type": "Feature", "properties": {"route_name": "523A", "stop_id": "SfBAqteg", "name": "Kazhipattur", "city": "CHENNAI"}, "geometry": {"type": "Point", "coordinates": [80.23052348583872, 12.81898695059196]}}, {"type": "Feature", "properties": {"route_name": "523A", "stop_id": "selTNsQi", "name": "Akshaya Padur", "city": "CHENNAI"}, "geometry": {"type": "Point", "coordinates": [80.22807871585688, 12.810939790314205]}}, {"type": "Feature", "properties": {"route_name": "523A", "stop_id": "QyfZGsFT", "name": "Padur", "city": "CHENNAI"}, "geometry": {"type": "Point", "coordinates": [80.22410834793345, 12.80532731881903]}}, {"type": "Feature", "properties": {"route_name": "523A", "stop_id": "JgVaSAtG", "name": "Hindustan College", "city": "CHENNAI"}, "geometry": {"type": "Point", "coordinates": [80.22359673016649, 12.801139943966676]}}, {"type": "Feature", "properties": {"route_name": "523A", "stop_id": "hMBIVszx", "name": "Chettinad Hospital", "city": "CHENNAI"}, "geometry": {"type": "Point", "coordinates": [80.22295650091752, 12.796083839151873]}}, {"type": "Feature", "properties": {"route_name": "523A", "stop_id": "BWKNZpmt", "name": "Kelambakkam V A O Office", "city": "CHENNAI"}, "geometry": {"type": "Point", "coordinates": [80.22260208053004, 12.79383270191971]}}, {"type": "Feature", "properties": {"route_name": "523A", "stop_id": "MpBHVRZl", "name": "Kelambakkmm General Hospital", "city": "CHENNAI"}, "geometry": {"type": "Point", "coordinates": [80.22055903204091, 12.786677483168097]}}, {"type": "Feature", "properties": {"route_name": "523A", "stop_id": "BCwVkMhO", "name": "Kelambakkmm Police Station", "city": "CHENNAI"}, "geometry": {"type": "Point", "coordinates": [80.2199838, 12.78532768]}}, {"type": "Feature", "properties": {"route_name": "523A", "stop_id": "CgMBzfIg", "name": "Elavanthangal", "city": "CHENNAI"}, "geometry": {"type": "Point", "coordinates": [80.21737911024465, 12.78064052260931]}}, {"type": "Feature", "properties": {"route_name": "523A", "stop_id": "OXvlrfnG", "name": "Chenganmal Road Junction", "city": "CHENNAI"}, "geometry": {"type": "Point", "coordinates": [80.21320592444795, 12.77080354267838]}}, {"type": "Feature", "properties": {"route_name": "523A", "stop_id": "iZfXNAue", "name": "Vijaya Shanthi Lotus Pond", "city": "CHENNAI"}, "geometry": {"type": "Point", "coordinates": [80.20885193, 12.75975965]}}, {"type": "Feature", "properties": {"route_name": "523A", "stop_id": "CqPWXNIf", "name": "Koman Nagar Road Junction", "city": "CHENNAI"}, "geometry": {"type": "Point", "coordinates": [80.20718058784996, 12.756686401487213]}}, {"type": "Feature", "properties": {"route_name": "523A", "stop_id": "YVGWiGkc", "name": "SSN College", "city": "CHENNAI"}, "geometry": {"type": "Point", "coordinates": [80.20423125781258, 12.751194964536586]}}, {"type": "Feature", "properties": {"route_name": "523A", "stop_id": "FDrhtNjK", "name": "Kalavakkam School", "city": "CHENNAI"}, "geometry": {"type": "Point", "coordinates": [80.20035822, 12.74426545]}}, {"type": "Feature", "properties": {"route_name": "523A", "stop_id": "ucVTqZIB", "name": "Kalavakkam", "city": "CHENNAI"}, "geometry": {"type": "Point", "coordinates": [80.19744426, 12.74178678]}}, {"type": "Feature", "properties": {"route_name": "523A", "stop_id": "ZLCIvgrp", "name": "Thiruporur Or Kannagapattu", "city": "CHENNAI"}, "geometry": {"type": "Point", "coordinates": [80.19056921969991, 12.736200372957958]}}, {"type": "Feature", "properties": {"route_name": "523A", "stop_id": "Uacajbua", "name": "Thiruporur Kovil", "city": "CHENNAI"}, "geometry": {"type": "Point", "coordinates": [80.18900751120839, 12.729829417410928]}}, {"type": "Feature", "properties": {"route_name": "523A", "stop_id": "ZJxogzZw", "name": "Kandhaswami Temple Tank Thiruporur", "city": "CHENNAI"}, "geometry": {"type": "Point", "coordinates": [80.18802177, 12.7248927]}}, {"type": "Feature", "properties": {"route_name": "523A", "stop_id": "wcUGKfLa", "name": "Thiruporur Bus Stand", "city": "CHENNAI"}, "geometry": {"type": "Point", "coordinates": [80.18732844490751, 12.722195066711881]}}, {"type": "Feature", "properties": {"route_name": "523A", "stop_id": "EZonlaGf", "name": "Manamathi Koot Road", "city": "CHENNAI"}, "geometry": {"type": "Point", "coordinates": [80.1777552727333, 12.719235397448985]}}, {"type": "Feature", "properties": {"route_name": "523A", "stop_id": "XYPsfiKq", "name": "Illalur Junction", "city": "CHENNAI"}, "geometry": {"type": "Point", "coordinates": [80.15020807987264, 12.714063545411348]}}, {"type": "Feature", "properties": {"route_name": "523A", "stop_id": "UHrZZaJI", "name": "Madayathur", "city": "CHENNAI"}, "geometry": {"type": "Point", "coordinates": [80.14538591860571, 12.712961158928884]}}, {"type": "Feature", "properties": {"route_name": "523A", "stop_id": "veZdNrwJ", "name": "Sunnambu Kalvai", "city": "CHENNAI"}, "geometry": {"type": "Point", "coordinates": [80.13766825739606, 12.711525775362158]}}, {"type": "Feature", "properties": {"route_name": "523A", "stop_id": "vLvetIEj", "name": "Chembakkam Junction", "city": "CHENNAI"}, "geometry": {"type": "Point", "coordinates": [80.12551165615514, 12.709562177049275]}}, {"type": "Feature", "properties": {"route_name": "523A", "stop_id": "VbipnzIy", "name": "Vengur Junction", "city": "CHENNAI"}, "geometry": {"type": "Point", "coordinates": [80.09869776264873, 12.711259573449533]}}, {"type": "Feature", "properties": {"route_name": "523A", "stop_id": "LEMCEoBI", "name": "Karumbakkam", "city": "CHENNAI"}, "geometry": {"type": "Point", "coordinates": [80.09160830038832, 12.705098382305616]}}, {"type": "Feature", "properties": {"route_name": "523A", "stop_id": "iHPgoVQd", "name": "Mullipakam Junction", "city": "CHENNAI"}, "geometry": {"type": "Point", "coordinates": [80.06950895499176, 12.695933676690474]}}, {"type": "Feature", "properties": {"route_name": "523A", "stop_id": "mSlRsDTZ", "name": "Thandarai Or Perunthandalam", "city": "CHENNAI"}, "geometry": {"type": "Point", "coordinates": [80.06171121301483, 12.693074399520787]}}, {"type": "Feature", "properties": {"route_name": "523A", "stop_id": "DcYEFBXI", "name": "Thiruvadaisoolam School", "city": "CHENNAI"}, "geometry": {"type": "Point", "coordinates": [80.03182415638985, 12.692863785244013]}}, {"type": "Feature", "properties": {"route_name": "523A", "stop_id": "xGVMKwkH", "name": "Ganapureswarar Temple", "city": "CHENNAI"}, "geometry": {"type": "Point", "coordinates": [80.02992685223427, 12.696175025154117]}}, {"type": "Feature", "properties": {"route_name": "523A", "stop_id": "vlhncUdg", "name": "Karpurath Amman Koil", "city": "CHENNAI"}, "geometry": {"type": "Point", "coordinates": [80.02544910813492, 12.701091234739069]}}, {"type": "Feature", "properties": {"route_name": "523A", "stop_id": "wgnVmusT", "name": "Thiruvadaisoolam Devi Karumariamman Koil", "city": "CHENNAI"}, "geometry": {"type": "Point", "coordinates": [80.0210560121616, 12.697856908072604]}}, {"type": "Feature", "properties": {"name": "523A"}, "geometry": {"type": "LineString", "coordinates": [[80.2593, 12.98729], [80.25843, 12.98734], [80.25758, 12.98739], [80.25587, 12.98757], [80.25593, 12.9876], [80.2557, 12.98764], [80.25356, 12.98785], [80.25222, 12.988], [80.25191, 12.98795], [80.25168, 12.98791], [80.2516, 12.98773], [80.25158, 12.98763], [80.2516, 12.9875], [80.25163, 12.98741], [80.25161, 12.98762], [80.25173, 12.98689], [80.25219, 12.98543], [80.25242, 12.98436], [80.25257, 12.98351], [80.25274, 12.98052], [80.25272, 12.97937], [80.25249, 12.97863], [80.25235, 12.97839], [80.25192, 12.97787], [80.25163, 12.9775], [80.25148, 12.97725], [80.25136, 12.977], [80.25129, 12.97676], [80.25099, 12.97557], [80.25092, 12.97537], [80.25081, 12.97501], [80.2509, 12.975], [80.25084, 12.9748], [80.2506, 12.9739], [80.25052, 12.97362], [80.2503, 12.97274], [80.24993, 12.97138], [80.24963, 12.97039], [80.24899, 12.96883], [80.24853, 12.96765], [80.24841, 12.96738], [80.24809, 12.96677], [80.24796, 12.96646], [80.24769, 12.96582], [80.24755, 12.96547], [80.24751, 12.96532], [80.24749, 12.96533], [80.24748, 12.96525], [80.24742, 12.96506], [80.24723, 12.9646], [80.24695, 12.96388], [80.24666, 12.96326], [80.24629, 12.96253], [80.24622, 12.96256], [80.24561, 12.96131], [80.24525, 12.96049], [80.24533, 12.96046], [80.24529, 12.96037], [80.24504, 12.95978], [80.24498, 12.95961], [80.24491, 12.95945], [80.24435, 12.95829], [80.24424, 12.958], [80.24414, 12.95793], [80.2438, 12.95696], [80.24333, 12.9558], [80.24293, 12.95499], [80.24296, 12.95489], [80.24297, 12.95482], [80.24287, 12.95456], [80.24235, 12.95335], [80.24212, 12.95266], [80.24195, 12.95229], [80.24183, 12.95199], [80.24172, 12.95167], [80.24126, 12.95025], [80.24093, 12.94923], [80.24082, 12.94893], [80.24057, 12.94824], [80.24039, 12.9478], [80.24016, 12.94738], [80.23999, 12.94694], [80.24016, 12.94738], [80.24007, 12.94739], [80.23987, 12.94692], [80.23946, 12.94589], [80.23937, 12.94569], [80.23924, 12.94544], [80.23904, 12.94518], [80.23877, 12.9449], [80.23796, 12.94415], [80.2375, 12.94376], [80.23722, 12.94351], [80.2373, 12.94342], [80.23702, 12.94315], [80.23674, 12.9427], [80.23654, 12.94219], [80.23644, 12.94186], [80.23632, 12.94154], [80.23625, 12.94124], [80.23619, 12.9409], [80.23595, 12.94012], [80.23584, 12.93979], [80.23559, 12.93924], [80.23511, 12.93829], [80.2349, 12.93785], [80.23483, 12.93788], [80.23465, 12.93751], [80.23417, 12.93654], [80.23381, 12.9358], [80.23388, 12.93577], [80.23327, 12.93445], [80.23317, 12.93423], [80.23297, 12.93379], [80.23292, 12.93368], [80.23253, 12.93275], [80.2319, 12.9309], [80.23169, 12.93013], [80.2316, 12.92978], [80.23152, 12.92979], [80.23133, 12.92891], [80.23116, 12.92766], [80.23106, 12.92689], [80.23102, 12.92658], [80.23111, 12.92657], [80.23109, 12.92633], [80.23105, 12.92584], [80.23097, 12.92519], [80.23089, 12.92512], [80.23082, 12.9246], [80.23078, 12.92424], [80.23065, 12.9234], [80.23062, 12.92301], [80.23066, 12.9229], [80.23063, 12.92254], [80.2306, 12.92231], [80.2304, 12.9208], [80.23023, 12.91966], [80.23023, 12.91964], [80.23014, 12.91907], [80.23004, 12.91908], [80.22986, 12.91766], [80.22965, 12.91609], [80.22951, 12.9152], [80.22934, 12.91399], [80.2294, 12.91397], [80.22943, 12.91387], [80.22942, 12.91338], [80.22937, 12.91328], [80.2293, 12.91313], [80.22927, 12.91287], [80.2292, 12.91232], [80.22912, 12.91183], [80.22905, 12.91132], [80.22896, 12.91133], [80.22889, 12.91083], [80.22877, 12.91], [80.22864, 12.90926], [80.2285, 12.90824], [80.22831, 12.9068], [80.2283, 12.90673], [80.22837, 12.90673], [80.22836, 12.90631], [80.22836, 12.90609], [80.22833, 12.90562], [80.22831, 12.90536], [80.22818, 12.90359], [80.22815, 12.9031], [80.22814, 12.90141], [80.228, 12.89929], [80.22794, 12.89887], [80.22788, 12.89813], [80.22787, 12.89794], [80.22779, 12.89794], [80.22773, 12.89704], [80.22771, 12.89631], [80.22767, 12.89532], [80.22763, 12.89457], [80.2277, 12.89457], [80.22767, 12.89416], [80.22767, 12.89406], [80.22766, 12.89369], [80.22764, 12.89354], [80.22758, 12.89319], [80.22753, 12.89282], [80.22747, 12.8919], [80.22747, 12.89071], [80.22744, 12.88855], [80.22738, 12.88789], [80.22729, 12.88728], [80.22699, 12.88576], [80.22683, 12.88523], [80.22679, 12.88505], [80.2268, 12.88364], [80.22673, 12.88365], [80.22675, 12.8822], [80.22676, 12.88094], [80.22677, 12.88004], [80.22682, 12.87854], [80.22683, 12.87847], [80.2269, 12.87847], [80.22695, 12.8781], [80.22697, 12.87793], [80.22704, 12.87676], [80.22706, 12.8764], [80.22698, 12.8764], [80.22698, 12.87605], [80.22693, 12.87529], [80.22685, 12.87458], [80.22673, 12.87349], [80.22671, 12.87299], [80.22679, 12.87299], [80.22678, 12.87278], [80.2268, 12.87195], [80.2268, 12.87138], [80.22666, 12.87139], [80.22665, 12.87109], [80.22662, 12.87055], [80.22658, 12.8701], [80.22642, 12.86876], [80.2264, 12.86835], [80.22647, 12.86753], [80.22657, 12.86652], [80.2266, 12.86603], [80.22661, 12.86545], [80.22659, 12.86472], [80.22655, 12.86371], [80.22656, 12.8629], [80.22658, 12.86206], [80.22665, 12.86206], [80.22665, 12.862], [80.22667, 12.86141], [80.22664, 12.86075], [80.22663, 12.86052], [80.22658, 12.8601], [80.22644, 12.85914], [80.22639, 12.85868], [80.22636, 12.85815], [80.22641, 12.85718], [80.22654, 12.85585], [80.22672, 12.85421], [80.22679, 12.85316], [80.22679, 12.85277], [80.22675, 12.85184], [80.22672, 12.85107], [80.22668, 12.85057], [80.22667, 12.85025], [80.22667, 12.85021], [80.22667, 12.8493], [80.22667, 12.84857], [80.22672, 12.84834], [80.22672, 12.84787], [80.2267, 12.84777], [80.22666, 12.84759], [80.22667, 12.84744], [80.22667, 12.84708], [80.22669, 12.84654], [80.2267, 12.8459], [80.22672, 12.84514], [80.22676, 12.8447], [80.22695, 12.84314], [80.22703, 12.84268], [80.22694, 12.84266], [80.22714, 12.84186], [80.22755, 12.84037], [80.22783, 12.8393], [80.22792, 12.83893], [80.22798, 12.83886], [80.22803, 12.83878], [80.22828, 12.8378], [80.22833, 12.83755], [80.22848, 12.83673], [80.22876, 12.83485], [80.22895, 12.83373], [80.22915, 12.83265], [80.22928, 12.83201], [80.2293, 12.8318], [80.22925, 12.83171], [80.2293, 12.8315], [80.22939, 12.83122], [80.22953, 12.83085], [80.2296, 12.83064], [80.2301, 12.82937], [80.2304, 12.82874], [80.23094, 12.82777], [80.23122, 12.82721], [80.2313, 12.8269], [80.23135, 12.82655], [80.23141, 12.8259], [80.23142, 12.82548], [80.23142, 12.82492], [80.23137, 12.82458], [80.23108, 12.82356], [80.23078, 12.82271], [80.23061, 12.8221], [80.23052, 12.82152], [80.23049, 12.82064], [80.23053, 12.81919], [80.23051, 12.81899], [80.2305, 12.81894], [80.23021, 12.81828], [80.22985, 12.81748], [80.22966, 12.81699], [80.22962, 12.81681], [80.22939, 12.81538], [80.22925, 12.81447], [80.22918, 12.81418], [80.2282, 12.81131], [80.22807, 12.81096], [80.2276, 12.80982], [80.22743, 12.80947], [80.22732, 12.80927], [80.22694, 12.80877], [80.22588, 12.80759], [80.22509, 12.8067], [80.22467, 12.80622], [80.22429, 12.80575], [80.22418, 12.80558], [80.2241, 12.80533], [80.22402, 12.80502], [80.22395, 12.80447], [80.22393, 12.80411], [80.22374, 12.8028], [80.22361, 12.80145], [80.22357, 12.80114], [80.22358, 12.80114], [80.22347, 12.79993], [80.22343, 12.79931], [80.22326, 12.79786], [80.2232, 12.79744], [80.22297, 12.79625], [80.22294, 12.79609], [80.22268, 12.79451], [80.22259, 12.79383], [80.2225, 12.79314], [80.22238, 12.79246], [80.22219, 12.79167], [80.22216, 12.79142], [80.22201, 12.7909], [80.22177, 12.79006], [80.22165, 12.78967], [80.2209, 12.78762], [80.22075, 12.78718], [80.22054, 12.78669], [80.22026, 12.78605], [80.22017, 12.78575], [80.21996, 12.78535], [80.21955, 12.78462], [80.2189, 12.7834], [80.21867, 12.78306], [80.21844, 12.78264], [80.21736, 12.78065], [80.21718, 12.78029], [80.21684, 12.77969], [80.2161, 12.77821], [80.2159, 12.77774], [80.21563, 12.77705], [80.21519, 12.77607], [80.21475, 12.77498], [80.21413, 12.77345], [80.21373, 12.77239], [80.2132, 12.77081], [80.21317, 12.77081], [80.21183, 12.76716], [80.21123, 12.76548], [80.21059, 12.76376], [80.21045, 12.76324], [80.21034, 12.76293], [80.20971, 12.76148], [80.20947, 12.76099], [80.2088, 12.75979], [80.20716, 12.7567], [80.20569, 12.75403], [80.20439, 12.75154], [80.20421, 12.75121], [80.20414, 12.75124], [80.20278, 12.74849], [80.20198, 12.74686], [80.20127, 12.74551], [80.201, 12.74503], [80.2009, 12.74487], [80.20066, 12.7446], [80.20034, 12.74428], [80.19832, 12.74252], [80.19756, 12.74191], [80.19742, 12.74181], [80.19602, 12.74082], [80.19514, 12.74019], [80.19427, 12.73955], [80.19339, 12.73894], [80.19257, 12.73828], [80.19228, 12.73797], [80.19051, 12.73626], [80.19022, 12.73597], [80.19011, 12.73583], [80.18987, 12.73543], [80.18973, 12.7351], [80.18962, 12.73472], [80.18952, 12.73342], [80.18947, 12.73307], [80.18938, 12.73274], [80.18933, 12.73243], [80.18917, 12.73168], [80.18911, 12.73093], [80.189, 12.73037], [80.18894, 12.7299], [80.18894, 12.72983], [80.18891, 12.72937], [80.18892, 12.72903], [80.18891, 12.72893], [80.18887, 12.72878], [80.18876, 12.72841], [80.18869, 12.72815], [80.18854, 12.72782], [80.18833, 12.72698], [80.18818, 12.72626], [80.18796, 12.7249], [80.18786, 12.72431], [80.18775, 12.72387], [80.1873, 12.7222], [80.18708, 12.72145], [80.18694, 12.72106], [80.18671, 12.72084], [80.18663, 12.72078], [80.18634, 12.72063], [80.1858, 12.72046], [80.185, 12.72035], [80.18452, 12.72032], [80.18388, 12.72021], [80.18263, 12.72001], [80.18097, 12.71974], [80.17886, 12.71943], [80.17775, 12.71926], [80.17566, 12.71896], [80.17455, 12.71878], [80.1717, 12.71841], [80.16979, 12.71816], [80.16813, 12.71793], [80.16632, 12.71764], [80.16451, 12.71726], [80.16224, 12.71679], [80.16018, 12.71636], [80.15918, 12.71608], [80.15765, 12.71567], [80.15587, 12.71521], [80.15482, 12.71497], [80.1536, 12.71474], [80.15057, 12.71415], [80.1502, 12.71409], [80.14615, 12.71314], [80.14541, 12.71299], [80.14538, 12.71299], [80.14268, 12.71243], [80.14047, 12.71203], [80.13794, 12.71159], [80.13766, 12.71155], [80.13469, 12.711], [80.13267, 12.71071], [80.13119, 12.71042], [80.13104, 12.7104], [80.12927, 12.71015], [80.12551, 12.70959], [80.12313, 12.7092], [80.11968, 12.7086], [80.11842, 12.70833], [80.11744, 12.7081], [80.11726, 12.70807], [80.11701, 12.70807], [80.1159, 12.7083], [80.11562, 12.70839], [80.11541, 12.70849], [80.11293, 12.7096], [80.11102, 12.71045], [80.10987, 12.71089], [80.10963, 12.71095], [80.10947, 12.71096], [80.10921, 12.71091], [80.10847, 12.71064], [80.108, 12.71047], [80.10789, 12.71045], [80.10781, 12.71044], [80.10751, 12.71045], [80.10682, 12.71051], [80.10644, 12.7105], [80.10613, 12.71051], [80.10574, 12.71057], [80.10562, 12.7106], [80.10495, 12.71087], [80.10305, 12.71159], [80.10266, 12.71171], [80.10237, 12.71176], [80.10223, 12.71176], [80.10098, 12.71163], [80.10015, 12.71154], [80.09902, 12.71138], [80.09869, 12.71129], [80.09856, 12.71123], [80.09839, 12.71112], [80.09799, 12.71068], [80.09634, 12.70913], [80.0943, 12.70724], [80.09307, 12.70612], [80.09215, 12.70535], [80.09186, 12.70519], [80.0916, 12.70514], [80.09136, 12.70514], [80.0901, 12.70538], [80.08546, 12.70631], [80.08497, 12.70636], [80.08475, 12.70636], [80.0846, 12.70633], [80.08438, 12.70623], [80.08204, 12.70463], [80.07948, 12.70283], [80.07812, 12.70191], [80.07643, 12.70073], [80.0739, 12.69899], [80.06949, 12.69597], [80.06732, 12.69448], [80.06484, 12.6929], [80.06467, 12.69281], [80.06449, 12.69276], [80.0643, 12.69274], [80.06393, 12.69274], [80.06315, 12.69279], [80.06231, 12.69291], [80.06194, 12.69301], [80.06171, 12.69308], [80.06104, 12.69333], [80.06059, 12.69346], [80.06007, 12.69358], [80.05941, 12.69364], [80.0591, 12.69371], [80.05887, 12.6938], [80.05857, 12.69398], [80.05824, 12.69422], [80.05798, 12.69444], [80.05701, 12.69546], [80.05661, 12.69575], [80.05596, 12.69601], [80.05458, 12.69649], [80.05202, 12.69738], [80.05169, 12.69743], [80.05143, 12.69744], [80.05064, 12.69738], [80.04941, 12.69732], [80.04925, 12.69731], [80.04909, 12.69729], [80.04869, 12.69717], [80.0458, 12.69618], [80.04538, 12.69609], [80.04438, 12.69597], [80.04161, 12.69566], [80.04015, 12.6955], [80.03745, 12.69513], [80.03583, 12.69492], [80.0355, 12.6949], [80.03435, 12.69488], [80.03409, 12.69483], [80.03397, 12.69479], [80.03374, 12.69463], [80.03182, 12.69287], [80.03257, 12.69357], [80.03175, 12.69385], [80.03144, 12.69397], [80.03051, 12.69461], [80.03016, 12.69489], [80.02976, 12.69519], [80.02983, 12.69555], [80.02993, 12.69617], [80.03015, 12.69735], [80.02932, 12.69752], [80.02932, 12.69766], [80.02929, 12.69794], [80.02918, 12.69826], [80.02901, 12.69837], [80.02884, 12.6986], [80.02846, 12.6993], [80.02823, 12.69954], [80.02753, 12.69996], [80.02698, 12.70026], [80.0265, 12.70057], [80.02578, 12.70112], [80.02571, 12.70114], [80.02545, 12.7011], [80.02533, 12.70108], [80.02507, 12.70072], [80.02469, 12.70019], [80.02389, 12.69888], [80.02378, 12.69875], [80.0236, 12.69859], [80.02334, 12.69841], [80.02242, 12.69819], [80.02156, 12.69797], [80.02105, 12.69787]]}}]}