{"type": "FeatureCollection", "features": [{"type": "Feature", "properties": {"route_name": "60H", "stop_id": "EkWBPXmr", "name": "Broadway", "city": "CHENNAI"}, "geometry": {"type": "Point", "coordinates": [80.28388983, 13.08820568]}}, {"type": "Feature", "properties": {"route_name": "60H", "stop_id": "zVYhNTdK", "name": "Flower Bazzar", "city": "CHENNAI"}, "geometry": {"type": "Point", "coordinates": [80.28141873, 13.08750696]}}, {"type": "Feature", "properties": {"route_name": "60H", "stop_id": "xbiDwIOu", "name": "Payaigada Evening Bazar", "city": "CHENNAI"}, "geometry": {"type": "Point", "coordinates": [80.28017343, 13.08554921]}}, {"type": "Feature", "properties": {"route_name": "60H", "stop_id": "BqZQArDi", "name": "Nurse Quarters", "city": "CHENNAI"}, "geometry": {"type": "Point", "coordinates": [80.27852104691374, 13.082227452128128]}}, {"type": "Feature", "properties": {"route_name": "60H", "stop_id": "TShNRujB", "name": "Mgr Central Station Or Rajiv Gandhi Government General Hospital", "city": "CHENNAI"}, "geometry": {"type": "Point", "coordinates": [80.27666299527485, 13.081750493356726]}}, {"type": "Feature", "properties": {"route_name": "60H", "stop_id": "hxSTJhOz", "name": "Pallavan Salai", "city": "CHENNAI"}, "geometry": {"type": "Point", "coordinates": [80.27638522507527, 13.075417794179309]}}, {"type": "Feature", "properties": {"route_name": "60H", "stop_id": "rDSiGFpR", "name": "Simson Or Periyar Bridge", "city": "CHENNAI"}, "geometry": {"type": "Point", "coordinates": [80.27388174341809, 13.070529313285379]}}, {"type": "Feature", "properties": {"route_name": "60H", "stop_id": "LbKosGpD", "name": "Shanthi Theatre", "city": "CHENNAI"}, "geometry": {"type": "Point", "coordinates": [80.27047620448093, 13.067231830340535]}}, {"type": "Feature", "properties": {"route_name": "60H", "stop_id": "NBopaFdP", "name": "Lic", "city": "CHENNAI"}, "geometry": {"type": "Point", "coordinates": [80.2663441938297, 13.06467874213801]}}, {"type": "Feature", "properties": {"route_name": "60H", "stop_id": "mHRdWDIt", "name": "Spensor Plaza TVS", "city": "CHENNAI"}, "geometry": {"type": "Point", "coordinates": [80.2599162395787, 13.059476027356299]}}, {"type": "Feature", "properties": {"route_name": "60H", "stop_id": "XFLojCJa", "name": "Anand Theatre", "city": "CHENNAI"}, "geometry": {"type": "Point", "coordinates": [80.25718621, 13.05641246]}}, {"type": "Feature", "properties": {"route_name": "60H", "stop_id": "qpacHTVx", "name": "Church Park School", "city": "CHENNAI"}, "geometry": {"type": "Point", "coordinates": [80.25381812534101, 13.054320507629198]}}, {"type": "Feature", "properties": {"route_name": "60H", "stop_id": "cPCRxZjy", "name": "Thousand light Or U S Embassy", "city": "CHENNAI"}, "geometry": {"type": "Point", "coordinates": [80.25297039129896, 13.053612965708266]}}, {"type": "Feature", "properties": {"route_name": "60H", "stop_id": "LPfgjVyT", "name": "DMS", "city": "CHENNAI"}, "geometry": {"type": "Point", "coordinates": [80.24861385254701, 13.046978028476232]}}, {"type": "Feature", "properties": {"route_name": "60H", "stop_id": "cniBuICf", "name": "Vanavil", "city": "CHENNAI"}, "geometry": {"type": "Point", "coordinates": [80.24742096301384, 13.041493303435086]}}, {"type": "Feature", "properties": {"route_name": "60H", "stop_id": "WtPVEKaC", "name": "Teynampet Metro or SIET College", "city": "CHENNAI"}, "geometry": {"type": "Point", "coordinates": [80.24651083106585, 13.037120995799397]}}, {"type": "Feature", "properties": {"route_name": "60H", "stop_id": "BYsSDXCP", "name": "Nandanam Metro", "city": "CHENNAI"}, "geometry": {"type": "Point", "coordinates": [80.24112919587397, 13.031649101433104]}}, {"type": "Feature", "properties": {"route_name": "60H", "stop_id": "zjSAMvDn", "name": "Nandanam YMCA", "city": "CHENNAI"}, "geometry": {"type": "Point", "coordinates": [80.2366264217136, 13.02885415557313]}}, {"type": "Feature", "properties": {"route_name": "60H", "stop_id": "fubLBmAl", "name": "Saidapet Veterinary Hospital Or Raja Hostel", "city": "CHENNAI"}, "geometry": {"type": "Point", "coordinates": [80.22976399085928, 13.025144344408464]}}, {"type": "Feature", "properties": {"route_name": "60H", "stop_id": "DOGyniWl", "name": "Saidapet Metro", "city": "CHENNAI"}, "geometry": {"type": "Point", "coordinates": [80.2281859358351, 13.023758074666299]}}, {"type": "Feature", "properties": {"route_name": "60H", "stop_id": "ItndWSiW", "name": "Saidapet", "city": "CHENNAI"}, "geometry": {"type": "Point", "coordinates": [80.2272533, 13.02297368]}}, {"type": "Feature", "properties": {"route_name": "60H", "stop_id": "GbYxEXTt", "name": "Tamil Nadu Open University Or Panagal Maligai", "city": "CHENNAI"}, "geometry": {"type": "Point", "coordinates": [80.22567676852101, 13.021143761114198]}}, {"type": "Feature", "properties": {"route_name": "60H", "stop_id": "YmkUpvHU", "name": "Chinnamalai B S or Saidapet Court", "city": "CHENNAI"}, "geometry": {"type": "Point", "coordinates": [80.22645940770053, 13.0139397637957]}}, {"type": "Feature", "properties": {"route_name": "60H", "stop_id": "rRGVruPM", "name": "Raj Bhavan Quarters", "city": "CHENNAI"}, "geometry": {"type": "Point", "coordinates": [80.22517469844684, 13.010580746325664]}}, {"type": "Feature", "properties": {"route_name": "60H", "stop_id": "GpnhEWuy", "name": "Concorde or Chellammal College", "city": "CHENNAI"}, "geometry": {"type": "Point", "coordinates": [80.22194994, 13.01186343]}}, {"type": "Feature", "properties": {"route_name": "60H", "stop_id": "QDIpIlEK", "name": "Guindy Railway Station", "city": "CHENNAI"}, "geometry": {"type": "Point", "coordinates": [80.21333453957197, 13.008223468910234]}}, {"type": "Feature", "properties": {"route_name": "60H", "stop_id": "GiONHkbf", "name": "Maduvankarai", "city": "CHENNAI"}, "geometry": {"type": "Point", "coordinates": [80.21229393909084, 13.00458785205742]}}, {"type": "Feature", "properties": {"route_name": "60H", "stop_id": "WFZVQzrl", "name": "Guindy M K N Salai", "city": "CHENNAI"}, "geometry": {"type": "Point", "coordinates": [80.20971883, 13.00723642]}}, {"type": "Feature", "properties": {"route_name": "60H", "stop_id": "GgLRqpEG", "name": "Kathipara Urban Square", "city": "CHENNAI"}, "geometry": {"type": "Point", "coordinates": [80.20373346896257, 13.006824793878286]}}, {"type": "Feature", "properties": {"route_name": "60H", "stop_id": "uhUmvvRs", "name": "Alandur Metro", "city": "CHENNAI"}, "geometry": {"type": "Point", "coordinates": [80.20129584, 13.00412247]}}, {"type": "Feature", "properties": {"route_name": "60H", "stop_id": "lQIpGOTn", "name": "St Thomas Mount Head Post Office", "city": "CHENNAI"}, "geometry": {"type": "Point", "coordinates": [80.1972223156829, 13.001938458082947]}}, {"type": "Feature", "properties": {"route_name": "60H", "stop_id": "GtMUYUwJ", "name": "Alandur Court", "city": "CHENNAI"}, "geometry": {"type": "Point", "coordinates": [80.19280664345685, 12.997692475842992]}}, {"type": "Feature", "properties": {"route_name": "60H", "stop_id": "lEwLedpG", "name": "Alandur", "city": "CHENNAI"}, "geometry": {"type": "Point", "coordinates": [80.1890026083795, 12.99562167829451]}}, {"type": "Feature", "properties": {"route_name": "60H", "stop_id": "ysSWNERo", "name": "Meeanambakkam International Airport", "city": "CHENNAI"}, "geometry": {"type": "Point", "coordinates": [80.17430849877292, 12.986066570693998]}}, {"type": "Feature", "properties": {"route_name": "60H", "stop_id": "jFRqfnFl", "name": "Thirusoolam National Airport", "city": "CHENNAI"}, "geometry": {"type": "Point", "coordinates": [80.16225610684478, 12.979372299463616]}}, {"type": "Feature", "properties": {"route_name": "60H", "stop_id": "gmsNDepi", "name": "Pallavaram Or English Electrical", "city": "CHENNAI"}, "geometry": {"type": "Point", "coordinates": [80.15321195823662, 12.97327910608956]}}, {"type": "Feature", "properties": {"route_name": "60H", "stop_id": "qeXIqBgp", "name": "Pallavaram Bus Stand", "city": "CHENNAI"}, "geometry": {"type": "Point", "coordinates": [80.15020472965345, 12.969321927480118]}}, {"type": "Feature", "properties": {"route_name": "60H", "stop_id": "njiqgOWt", "name": "Pallavaram", "city": "CHENNAI"}, "geometry": {"type": "Point", "coordinates": [80.14897622320939, 12.967530958330997]}}, {"type": "Feature", "properties": {"route_name": "60H", "stop_id": "jVOVHrFU", "name": "Pallavaram  Market", "city": "CHENNAI"}, "geometry": {"type": "Point", "coordinates": [80.14755268220904, 12.969603161605855]}}, {"type": "Feature", "properties": {"route_name": "60H", "stop_id": "mEEGNlDG", "name": "Pallavaram Aadu Thotti", "city": "CHENNAI"}, "geometry": {"type": "Point", "coordinates": [80.1451296803566, 12.970507954255819]}}, {"type": "Feature", "properties": {"route_name": "60H", "stop_id": "itmFNPnQ", "name": "Muthamil Nagar Pallavaram", "city": "CHENNAI"}, "geometry": {"type": "Point", "coordinates": [80.14253993500847, 12.971471264717449]}}, {"type": "Feature", "properties": {"route_name": "60H", "stop_id": "ffHVhHJj", "name": "Krishna Nagar", "city": "CHENNAI"}, "geometry": {"type": "Point", "coordinates": [80.13864546798754, 12.972669809335471]}}, {"type": "Feature", "properties": {"route_name": "60H", "stop_id": "BGChynOq", "name": "Pammal", "city": "CHENNAI"}, "geometry": {"type": "Point", "coordinates": [80.13531462176434, 12.974370132364264]}}, {"type": "Feature", "properties": {"route_name": "60H", "stop_id": "mBlbMFFC", "name": "Pammal Sankar Nagar", "city": "CHENNAI"}, "geometry": {"type": "Point", "coordinates": [80.13295350470844, 12.974831839264107]}}, {"type": "Feature", "properties": {"route_name": "60H", "stop_id": "PiHPpcZe", "name": "Shri Bhavani Amman Koil", "city": "CHENNAI"}, "geometry": {"type": "Point", "coordinates": [80.12897771809799, 12.973006726172347]}}, {"type": "Feature", "properties": {"route_name": "60H", "stop_id": "niXvpzjO", "name": "Sri Sankara Health Centre", "city": "CHENNAI"}, "geometry": {"type": "Point", "coordinates": [80.12698311848158, 12.966145005047013]}}, {"type": "Feature", "properties": {"name": "60H"}, "geometry": {"type": "LineString", "coordinates": [[80.28388, 13.08836], [80.28347, 13.08833], [80.28291, 13.08832], [80.28261, 13.08833], [80.28227, 13.08828], [80.28204, 13.08823], [80.28184, 13.08815], [80.28156, 13.08799], [80.28153, 13.08794], [80.28145, 13.08769], [80.2814, 13.08751], [80.28095, 13.08603], [80.28087, 13.08583], [80.28083, 13.08578], [80.28076, 13.08575], [80.28024, 13.0856], [80.28016, 13.08559], [80.27982, 13.08551], [80.27957, 13.08537], [80.27943, 13.08516], [80.27937, 13.08497], [80.27928, 13.08459], [80.27914, 13.08376], [80.27898, 13.08332], [80.27883, 13.08295], [80.27864, 13.08243], [80.27857, 13.08221], [80.27856, 13.08221], [80.27852, 13.08209], [80.27838, 13.08209], [80.27796, 13.08201], [80.27668, 13.0818], [80.27666, 13.08179], [80.27604, 13.08168], [80.27572, 13.08164], [80.2755, 13.08156], [80.27532, 13.08152], [80.27527, 13.08149], [80.27524, 13.08144], [80.27525, 13.08117], [80.27529, 13.08069], [80.27534, 13.07998], [80.27534, 13.07973], [80.27529, 13.07939], [80.27518, 13.07885], [80.27519, 13.07876], [80.27522, 13.07867], [80.27528, 13.07856], [80.27537, 13.07845], [80.27544, 13.07841], [80.27573, 13.0783], [80.27606, 13.07819], [80.27616, 13.07807], [80.27622, 13.07786], [80.27633, 13.07542], [80.27642, 13.0742], [80.27647, 13.0738], [80.27652, 13.0737], [80.27589, 13.07309], [80.27512, 13.0724], [80.27469, 13.072], [80.2745, 13.07174], [80.27445, 13.07158], [80.27435, 13.07127], [80.27416, 13.07087], [80.27399, 13.0707], [80.27385, 13.07056], [80.27387, 13.07061], [80.27389, 13.07058], [80.27386, 13.07056], [80.27351, 13.07032], [80.27279, 13.06971], [80.27251, 13.06941], [80.27217, 13.069], [80.27204, 13.06875], [80.2719, 13.06846], [80.27179, 13.06836], [80.27165, 13.06823], [80.27125, 13.06799], [80.27103, 13.06785], [80.27044, 13.06726], [80.27009, 13.06691], [80.2698, 13.06667], [80.26962, 13.06655], [80.26953, 13.0665], [80.26945, 13.06646], [80.26923, 13.06639], [80.26893, 13.06635], [80.26851, 13.06633], [80.26843, 13.06631], [80.26833, 13.06625], [80.26787, 13.06595], [80.26756, 13.06571], [80.2663, 13.06473], [80.26507, 13.06373], [80.26461, 13.06339], [80.26383, 13.06264], [80.26326, 13.06221], [80.26247, 13.06161], [80.26146, 13.06077], [80.261, 13.06036], [80.26042, 13.05988], [80.26011, 13.05967], [80.25989, 13.0595], [80.2599, 13.05949], [80.25902, 13.05877], [80.25836, 13.05824], [80.25771, 13.05768], [80.25776, 13.05662], [80.25761, 13.05659], [80.25728, 13.05652], [80.25717, 13.05649], [80.25715, 13.05648], [80.25689, 13.05642], [80.25667, 13.05639], [80.25651, 13.05639], [80.25625, 13.05618], [80.25454, 13.05494], [80.25417, 13.05463], [80.2538, 13.05434], [80.25291, 13.05369], [80.25293, 13.05368], [80.25232, 13.05327], [80.25203, 13.05306], [80.25116, 13.05242], [80.25074, 13.05209], [80.25048, 13.05181], [80.25036, 13.05166], [80.25027, 13.05152], [80.25018, 13.05132], [80.25008, 13.05096], [80.25, 13.05045], [80.24992, 13.04979], [80.24985, 13.0494], [80.2498, 13.04884], [80.24972, 13.04858], [80.24958, 13.04834], [80.24933, 13.048], [80.24875, 13.04744], [80.24865, 13.0473], [80.24858, 13.04713], [80.24855, 13.047], [80.2483, 13.04599], [80.2482, 13.04556], [80.24819, 13.04539], [80.24813, 13.04496], [80.24793, 13.04393], [80.2478, 13.04332], [80.2474, 13.0415], [80.2472, 13.04048], [80.24694, 13.0392], [80.24659, 13.0376], [80.24649, 13.03713], [80.24611, 13.03555], [80.24606, 13.03533], [80.24592, 13.03504], [80.24581, 13.03491], [80.24567, 13.03478], [80.24489, 13.03416], [80.24462, 13.03396], [80.24429, 13.03373], [80.24299, 13.03274], [80.24254, 13.03244], [80.24229, 13.03229], [80.24141, 13.03181], [80.24121, 13.0317], [80.24112, 13.03166], [80.24019, 13.03123], [80.23974, 13.031], [80.23785, 13.02991], [80.23735, 13.0296], [80.23706, 13.02936], [80.23657, 13.02892], [80.23562, 13.02808], [80.23548, 13.02796], [80.2348, 13.02759], [80.23306, 13.02657], [80.2326, 13.02635], [80.23236, 13.02627], [80.23215, 13.02622], [80.2314, 13.02603], [80.23108, 13.02592], [80.23089, 13.02586], [80.23051, 13.02571], [80.23024, 13.02557], [80.22973, 13.02518], [80.22835, 13.02408], [80.22809, 13.02386], [80.22873, 13.02438], [80.2285, 13.02421], [80.22813, 13.02382], [80.22766, 13.02346], [80.22722, 13.023], [80.22631, 13.02197], [80.22576, 13.02123], [80.22569, 13.02114], [80.22513, 13.02039], [80.22497, 13.02023], [80.22468, 13.01979], [80.22459, 13.01965], [80.22452, 13.01949], [80.22446, 13.01919], [80.22447, 13.01893], [80.22514, 13.01725], [80.22537, 13.01666], [80.22545, 13.01641], [80.22569, 13.01577], [80.22622, 13.01442], [80.22641, 13.01392], [80.22677, 13.01294], [80.22751, 13.01108], [80.22792, 13.01013], [80.22796, 13.00986], [80.22794, 13.00965], [80.22789, 13.00958], [80.22779, 13.00953], [80.22769, 13.00952], [80.22747, 13.00959], [80.22629, 13.01014], [80.22615, 13.01018], [80.22607, 13.01018], [80.22541, 13.0105], [80.22519, 13.01061], [80.22492, 13.01074], [80.22486, 13.01075], [80.22467, 13.01083], [80.22409, 13.01106], [80.22357, 13.01125], [80.22323, 13.01137], [80.22204, 13.01188], [80.22196, 13.0119], [80.22136, 13.01211], [80.22113, 13.01219], [80.22101, 13.01216], [80.22021, 13.01189], [80.21913, 13.01155], [80.21816, 13.01123], [80.21773, 13.01106], [80.21689, 13.01073], [80.21656, 13.01056], [80.21619, 13.01039], [80.21618, 13.01034], [80.21613, 13.01029], [80.21601, 13.01021], [80.21542, 13.00995], [80.21501, 13.00972], [80.21487, 13.00962], [80.21468, 13.00946], [80.21413, 13.00903], [80.21362, 13.00864], [80.21343, 13.00842], [80.21332, 13.00823], [80.21331, 13.00824], [80.21324, 13.0081], [80.21297, 13.00773], [80.21292, 13.00765], [80.21285, 13.00747], [80.21275, 13.00692], [80.21274, 13.00682], [80.21275, 13.00661], [80.21277, 13.00642], [80.21294, 13.00603], [80.213, 13.00587], [80.21297, 13.00571], [80.21293, 13.00562], [80.21283, 13.00553], [80.21263, 13.00522], [80.2123, 13.00467], [80.21227, 13.0046], [80.2122, 13.00445], [80.21209, 13.00411], [80.21201, 13.00378], [80.21201, 13.00372], [80.21169, 13.00369], [80.2115, 13.00369], [80.21117, 13.00374], [80.21081, 13.00368], [80.20976, 13.00355], [80.20952, 13.00356], [80.20881, 13.00371], [80.20871, 13.00374], [80.20865, 13.0038], [80.2086, 13.0039], [80.20861, 13.00405], [80.20932, 13.00566], [80.20954, 13.00625], [80.2097, 13.00682], [80.20979, 13.00722], [80.20998, 13.00808], [80.20996, 13.00816], [80.20991, 13.00822], [80.20984, 13.00827], [80.20972, 13.00822], [80.20946, 13.00813], [80.20919, 13.00805], [80.20866, 13.00798], [80.20706, 13.00774], [80.20595, 13.00761], [80.20589, 13.00756], [80.20565, 13.00748], [80.20535, 13.00739], [80.20493, 13.00723], [80.2048, 13.0073], [80.20472, 13.00731], [80.20424, 13.00728], [80.20414, 13.00728], [80.20407, 13.00721], [80.20389, 13.00701], [80.20372, 13.00684], [80.20364, 13.00672], [80.2035, 13.00649], [80.20345, 13.00633], [80.20315, 13.00611], [80.20283, 13.00591], [80.20246, 13.00573], [80.20223, 13.00563], [80.20205, 13.00551], [80.20185, 13.00538], [80.20172, 13.00526], [80.20159, 13.00511], [80.20144, 13.005], [80.20135, 13.00486], [80.20121, 13.00459], [80.20109, 13.00417], [80.20089, 13.00341], [80.20075, 13.00282], [80.20057, 13.00233], [80.20045, 13.00216], [80.2003, 13.00201], [80.20005, 13.00184], [80.1998, 13.00179], [80.19944, 13.00174], [80.19913, 13.00172], [80.19894, 13.00175], [80.19825, 13.00186], [80.19731, 13.00197], [80.19722, 13.00198], [80.19722, 13.00197], [80.19722, 13.00198], [80.19695, 13.00195], [80.19667, 13.00186], [80.19633, 13.00164], [80.196, 13.00139], [80.19447, 13.00017], [80.19371, 12.99957], [80.19294, 12.99899], [80.19233, 12.99848], [80.1922, 12.99838], [80.19227, 12.99829], [80.1928, 12.99768], [80.19315, 12.99724], [80.19324, 12.99707], [80.19331, 12.99697], [80.19335, 12.99695], [80.19338, 12.99687], [80.19334, 12.99678], [80.19326, 12.99675], [80.19321, 12.99676], [80.19318, 12.99678], [80.19316, 12.99682], [80.19316, 12.99684], [80.1929, 12.99677], [80.19244, 12.99665], [80.18993, 12.99598], [80.18962, 12.99593], [80.1894, 12.99593], [80.18935, 12.99602], [80.18913, 12.99585], [80.18893, 12.99572], [80.18893, 12.99573], [80.18798, 12.99524], [80.18744, 12.99493], [80.18736, 12.99485], [80.18725, 12.9948], [80.1868, 12.99458], [80.1852, 12.99378], [80.18294, 12.99251], [80.18227, 12.99202], [80.18087, 12.991], [80.17995, 12.99026], [80.17924, 12.98969], [80.17791, 12.98865], [80.17587, 12.98719], [80.17428, 12.9861], [80.17218, 12.98468], [80.17104, 12.98397], [80.17032, 12.98358], [80.1694, 12.98302], [80.16805, 12.9822], [80.16671, 12.98142], [80.16575, 12.98086], [80.16506, 12.9805], [80.16475, 12.98037], [80.16402, 12.98015], [80.1631, 12.97991], [80.16288, 12.97983], [80.16254, 12.97967], [80.1622, 12.97946], [80.15985, 12.97783], [80.15864, 12.97701], [80.15687, 12.97585], [80.1554, 12.97484], [80.15318, 12.97332], [80.15318, 12.97333], [80.15219, 12.97267], [80.15183, 12.97241], [80.15154, 12.97214], [80.15142, 12.972], [80.1513, 12.97185], [80.15124, 12.97174], [80.15086, 12.97098], [80.15026, 12.96972], [80.1501, 12.96937], [80.14983, 12.96878], [80.14949, 12.96811], [80.14918, 12.9674], [80.14886, 12.96674], [80.14842, 12.96582], [80.14764, 12.96445], [80.14715, 12.96357], [80.14707, 12.96345], [80.1471, 12.96338], [80.14711, 12.96332], [80.1471, 12.96313], [80.14679, 12.96256], [80.14642, 12.96193], [80.14607, 12.96128], [80.14579, 12.96134], [80.14703, 12.96359], [80.14747, 12.96433], [80.14767, 12.96477], [80.14788, 12.96513], [80.14859, 12.96658], [80.14903, 12.9675], [80.14903, 12.96757], [80.14879, 12.96788], [80.14759, 12.9696], [80.14758, 12.96962], [80.14695, 12.97045], [80.14669, 12.9703], [80.14637, 12.9701], [80.14597, 12.96981], [80.14548, 12.97039], [80.14516, 12.97056], [80.14498, 12.97066], [80.14436, 12.97094], [80.14352, 12.97123], [80.14279, 12.97147], [80.14255, 12.97152], [80.14101, 12.97179], [80.14022, 12.972], [80.13971, 12.97219], [80.13919, 12.97246], [80.13867, 12.97271], [80.13821, 12.97292], [80.138, 12.97299], [80.13721, 12.97325], [80.13676, 12.97351], [80.13658, 12.97359], [80.13639, 12.97372], [80.13549, 12.97429], [80.13533, 12.97439], [80.13521, 12.97446], [80.13503, 12.97453], [80.13476, 12.97461], [80.13409, 12.97474], [80.13325, 12.97485], [80.13296, 12.97488], [80.13283, 12.97489], [80.13242, 12.97477], [80.13233, 12.97474], [80.13226, 12.97469], [80.13218, 12.97456], [80.13206, 12.97417], [80.13202, 12.9741], [80.13187, 12.9739], [80.13178, 12.97382], [80.13164, 12.97376], [80.13128, 12.97365], [80.13037, 12.97357], [80.13024, 12.97351], [80.13015, 12.97341], [80.1301, 12.97339], [80.12992, 12.9734], [80.12962, 12.97342], [80.12944, 12.97332], [80.12905, 12.97308], [80.12897, 12.97303], [80.12877, 12.97287], [80.12847, 12.97203], [80.12809, 12.97021], [80.12718, 12.96676], [80.12684, 12.96605]]}}]}