{"type": "FeatureCollection", "features": [{"type": "Feature", "properties": {"route_name": "7M", "stop_id": "XGJiqzLW", "name": "J J Nagar West Terminus", "city": "CHENNAI"}, "geometry": {"type": "Point", "coordinates": [80.17028816893207, 13.082530096212153]}}, {"type": "Feature", "properties": {"route_name": "7M", "stop_id": "NioHjTzW", "name": "M G R Salai", "city": "CHENNAI"}, "geometry": {"type": "Point", "coordinates": [80.16979198777449, 13.08535235900378]}}, {"type": "Feature", "properties": {"route_name": "7M", "stop_id": "VcqDmTtv", "name": "Mogaipair Road Junction", "city": "CHENNAI"}, "geometry": {"type": "Point", "coordinates": [80.16949222685514, 13.08861499726557]}}, {"type": "Feature", "properties": {"route_name": "7M", "stop_id": "pKTlpooZ", "name": "Wavin", "city": "CHENNAI"}, "geometry": {"type": "Point", "coordinates": [80.17188356687484, 13.088632157632475]}}, {"type": "Feature", "properties": {"route_name": "7M", "stop_id": "voXQjjKh", "name": "Golden Flats", "city": "CHENNAI"}, "geometry": {"type": "Point", "coordinates": [80.17839382, 13.08834394]}}, {"type": "Feature", "properties": {"route_name": "7M", "stop_id": "FYonLsVT", "name": "T S Krishna Nagar", "city": "CHENNAI"}, "geometry": {"type": "Point", "coordinates": [80.18378983, 13.08811083]}}, {"type": "Feature", "properties": {"route_name": "7M", "stop_id": "XCZfXGna", "name": "Collector Nagar", "city": "CHENNAI"}, "geometry": {"type": "Point", "coordinates": [80.18893033, 13.08788421]}}, {"type": "Feature", "properties": {"route_name": "7M", "stop_id": "PIUpvPaY", "name": "Thirumangalam EB Office", "city": "CHENNAI"}, "geometry": {"type": "Point", "coordinates": [80.19756840067225, 13.087322925887744]}}, {"type": "Feature", "properties": {"route_name": "7M", "stop_id": "SfxDAXEq", "name": "Thirumangalam Or Sunguvarchattram", "city": "CHENNAI"}, "geometry": {"type": "Point", "coordinates": [80.19909876, 13.08546828]}}, {"type": "Feature", "properties": {"route_name": "7M", "stop_id": "GtaXwPrK", "name": "12th Main Road", "city": "CHENNAI"}, "geometry": {"type": "Point", "coordinates": [80.20464566132978, 13.085243349131467]}}, {"type": "Feature", "properties": {"route_name": "7M", "stop_id": "uSZbdBno", "name": "Blue Star", "city": "CHENNAI"}, "geometry": {"type": "Point", "coordinates": [80.21156534, 13.08502072]}}, {"type": "Feature", "properties": {"route_name": "7M", "stop_id": "VJibZvbS", "name": "Anna Nagar Roundtana", "city": "CHENNAI"}, "geometry": {"type": "Point", "coordinates": [80.21696497499067, 13.0847518506962]}}, {"type": "Feature", "properties": {"route_name": "7M", "stop_id": "bdIbpKdP", "name": "Anna Nagar East Metro Station", "city": "CHENNAI"}, "geometry": {"type": "Point", "coordinates": [80.21982796331599, 13.084684674531335]}}, {"type": "Feature", "properties": {"route_name": "7M", "stop_id": "IATYolYz", "name": "Giriyas", "city": "CHENNAI"}, "geometry": {"type": "Point", "coordinates": [80.223578715695, 13.085009582080092]}}, {"type": "Feature", "properties": {"route_name": "7M", "stop_id": "pYVbvizw", "name": "Chinthamani", "city": "CHENNAI"}, "geometry": {"type": "Point", "coordinates": [80.22453681255024, 13.08461877766061]}}, {"type": "Feature", "properties": {"route_name": "7M", "stop_id": "qVoRAqeW", "name": "Bala Vihar", "city": "CHENNAI"}, "geometry": {"type": "Point", "coordinates": [80.22990074555184, 13.083189499097795]}}, {"type": "Feature", "properties": {"route_name": "7M", "stop_id": "NZGnRwVn", "name": "Kilpauk Garden", "city": "CHENNAI"}, "geometry": {"type": "Point", "coordinates": [80.23310077, 13.08352591]}}, {"type": "Feature", "properties": {"route_name": "7M", "stop_id": "MzWshIAL", "name": "Mummy Daddy", "city": "CHENNAI"}, "geometry": {"type": "Point", "coordinates": [80.24176788, 13.08307311]}}, {"type": "Feature", "properties": {"route_name": "7M", "stop_id": "SqxhBMol", "name": "Motcham Aysha Hospital Or Motcham Theatre", "city": "CHENNAI"}, "geometry": {"type": "Point", "coordinates": [80.25019329, 13.08489827]}}, {"type": "Feature", "properties": {"route_name": "7M", "stop_id": "qvujbmjR", "name": "Purasaivakkam Tank", "city": "CHENNAI"}, "geometry": {"type": "Point", "coordinates": [80.25375225, 13.08560766]}}, {"type": "Feature", "properties": {"route_name": "7M", "stop_id": "mKIQRbrs", "name": "Doveton", "city": "CHENNAI"}, "geometry": {"type": "Point", "coordinates": [80.25785369, 13.08699492]}}, {"type": "Feature", "properties": {"route_name": "7M", "stop_id": "isVKhOXG", "name": "Doveton Or Vepery", "city": "CHENNAI"}, "geometry": {"type": "Point", "coordinates": [80.26242215, 13.08825998]}}, {"type": "Feature", "properties": {"route_name": "7M", "stop_id": "aVjdmBcp", "name": "Madras Veterinary Hospital", "city": "CHENNAI"}, "geometry": {"type": "Point", "coordinates": [80.2668693276978, 13.0853011861328]}}, {"type": "Feature", "properties": {"route_name": "7M", "stop_id": "FDPmqphv", "name": "Periyamedu", "city": "CHENNAI"}, "geometry": {"type": "Point", "coordinates": [80.27067178719562, 13.083700316294573]}}, {"type": "Feature", "properties": {"route_name": "7M", "stop_id": "PSjGjQXK", "name": "Park Station", "city": "CHENNAI"}, "geometry": {"type": "Point", "coordinates": [80.27331973115014, 13.081535577598643]}}, {"type": "Feature", "properties": {"route_name": "7M", "stop_id": "KwaxxmSs", "name": "Nurse Quarters", "city": "CHENNAI"}, "geometry": {"type": "Point", "coordinates": [80.27896059391605, 13.082298318772699]}}, {"type": "Feature", "properties": {"route_name": "7M", "stop_id": "neNWquOh", "name": "Central Dental College", "city": "CHENNAI"}, "geometry": {"type": "Point", "coordinates": [80.28199470667641, 13.08298870082699]}}, {"type": "Feature", "properties": {"route_name": "7M", "stop_id": "QHFmFyLR", "name": "High Court ", "city": "CHENNAI"}, "geometry": {"type": "Point", "coordinates": [80.28344657999999, 13.085009446858479]}}, {"type": "Feature", "properties": {"route_name": "7M", "stop_id": "EkWBPXmr", "name": "Broadway", "city": "CHENNAI"}, "geometry": {"type": "Point", "coordinates": [80.28388983, 13.08820568]}}, {"type": "Feature", "properties": {"name": "7M"}, "geometry": {"type": "LineString", "coordinates": [[80.17027, 13.08259], [80.1698, 13.08247], [80.16978, 13.08254], [80.17063, 13.08277], [80.17012, 13.08444], [80.16983, 13.08536], [80.16944, 13.08665], [80.16942, 13.08679], [80.16943, 13.0873], [80.16951, 13.08854], [80.16952, 13.08861], [80.16953, 13.08873], [80.17037, 13.08867], [80.17153, 13.08858], [80.17188, 13.08857], [80.17379, 13.08846], [80.17415, 13.08846], [80.17432, 13.08848], [80.17586, 13.08839], [80.17722, 13.0883], [80.17839, 13.08828], [80.18052, 13.08825], [80.18244, 13.08815], [80.18379, 13.08809], [80.18487, 13.08806], [80.18531, 13.08803], [80.18633, 13.08801], [80.18756, 13.08792], [80.18893, 13.08786], [80.18933, 13.08783], [80.19027, 13.08773], [80.19112, 13.08761], [80.19278, 13.08743], [80.19408, 13.08738], [80.19669, 13.08732], [80.19757, 13.08729], [80.19845, 13.08727], [80.19868, 13.08726], [80.19867, 13.08712], [80.19864, 13.08582], [80.19865, 13.08543], [80.19888, 13.08542], [80.1991, 13.08542], [80.2005, 13.08538], [80.20341, 13.08527], [80.20464, 13.08521], [80.20684, 13.08513], [80.20834, 13.08508], [80.21156, 13.08497], [80.21624, 13.08477], [80.21696, 13.08474], [80.21769, 13.08471], [80.21778, 13.08473], [80.21784, 13.08478], [80.21793, 13.08478], [80.21801, 13.08474], [80.21804, 13.08471], [80.21834, 13.08467], [80.21982, 13.0846], [80.22097, 13.08456], [80.22245, 13.08451], [80.22283, 13.08453], [80.2229, 13.08454], [80.22305, 13.08461], [80.2236, 13.08498], [80.22403, 13.08526], [80.22408, 13.0852], [80.22452, 13.08461], [80.2254, 13.08344], [80.22541, 13.08344], [80.22544, 13.08344], [80.22548, 13.08342], [80.2255, 13.0834], [80.22565, 13.08334], [80.22647, 13.08325], [80.22792, 13.0831], [80.22854, 13.0831], [80.22941, 13.08313], [80.2299, 13.08315], [80.23064, 13.08319], [80.23107, 13.08322], [80.23181, 13.08324], [80.23215, 13.08323], [80.23235, 13.08326], [80.23275, 13.08333], [80.23312, 13.08344], [80.23361, 13.08354], [80.2342, 13.08364], [80.23488, 13.08369], [80.23575, 13.0837], [80.2361, 13.0837], [80.23682, 13.08367], [80.23786, 13.08352], [80.23816, 13.08349], [80.23852, 13.08349], [80.23905, 13.08362], [80.23939, 13.08369], [80.23965, 13.08369], [80.24007, 13.08362], [80.24036, 13.08356], [80.24062, 13.08345], [80.24077, 13.08335], [80.24106, 13.08311], [80.24123, 13.08298], [80.24132, 13.08294], [80.24148, 13.08291], [80.24179, 13.08299], [80.24225, 13.08313], [80.24276, 13.08325], [80.24334, 13.08339], [80.24407, 13.08349], [80.24411, 13.08347], [80.24413, 13.08342], [80.24412, 13.08332], [80.24384, 13.0827], [80.24373, 13.08244], [80.24378, 13.08234], [80.24385, 13.08225], [80.24403, 13.08211], [80.2446, 13.08198], [80.24528, 13.08179], [80.24568, 13.08172], [80.24599, 13.08168], [80.24658, 13.08162], [80.24728, 13.08156], [80.24849, 13.08152], [80.24903, 13.08151], [80.24934, 13.08146], [80.24947, 13.08144], [80.24969, 13.08201], [80.2498, 13.08242], [80.24989, 13.083], [80.25002, 13.08374], [80.25016, 13.08446], [80.25024, 13.08489], [80.25039, 13.0859], [80.25043, 13.08597], [80.25054, 13.08591], [80.25062, 13.0859], [80.25084, 13.08587], [80.25127, 13.08583], [80.2521, 13.08569], [80.25289, 13.08561], [80.25311, 13.08558], [80.25336, 13.08558], [80.25375, 13.08559], [80.25446, 13.08568], [80.25471, 13.08577], [80.25631, 13.08636], [80.25636, 13.08643], [80.25755, 13.08685], [80.25787, 13.08694], [80.25835, 13.08706], [80.25855, 13.08714], [80.25891, 13.08723], [80.26005, 13.08753], [80.26076, 13.08773], [80.2609, 13.08777], [80.26099, 13.08776], [80.26244, 13.0882], [80.2631, 13.0884], [80.26329, 13.08825], [80.26302, 13.08723], [80.26296, 13.08657], [80.26287, 13.08571], [80.26301, 13.0857], [80.26431, 13.08559], [80.26558, 13.08548], [80.26624, 13.08538], [80.26681, 13.08527], [80.26686, 13.08526], [80.26765, 13.08503], [80.2679, 13.08499], [80.26852, 13.08494], [80.26891, 13.0849], [80.2691, 13.08487], [80.26941, 13.08478], [80.26983, 13.08459], [80.27049, 13.08436], [80.27055, 13.08402], [80.27061, 13.08369], [80.27076, 13.08262], [80.27097, 13.08101], [80.27124, 13.08109], [80.27179, 13.08123], [80.27329, 13.0815], [80.27331, 13.08151], [80.27395, 13.08162], [80.27516, 13.08172], [80.27537, 13.08172], [80.27589, 13.08179], [80.27623, 13.08187], [80.27793, 13.08212], [80.27897, 13.08221], [80.27894, 13.08221], [80.27896, 13.08219], [80.27921, 13.08219], [80.27972, 13.08223], [80.28026, 13.08229], [80.2809, 13.08235], [80.28141, 13.08239], [80.28169, 13.08239], [80.28176, 13.08251], [80.28191, 13.08278], [80.28204, 13.08294], [80.28205, 13.08296], [80.28253, 13.08375], [80.28303, 13.08448], [80.28334, 13.08483], [80.2835, 13.08495], [80.28367, 13.08511], [80.28362, 13.08549], [80.2835, 13.08551], [80.28351, 13.08586], [80.28352, 13.08625], [80.2836, 13.08651], [80.28369, 13.08695], [80.28379, 13.08822]]}}]}