{"type": "FeatureCollection", "features": [{"type": "Feature", "properties": {"route_name": "19BET", "stop_id": "NtHXPmMe", "name": "Thaiyur Koman Nagar Road Junction", "city": "CHENNAI"}, "geometry": {"type": "Point", "coordinates": [80.18487376013877, 12.770777573294433]}}, {"type": "Feature", "properties": {"route_name": "19BET", "stop_id": "fkorQYac", "name": "Thaiyur", "city": "CHENNAI"}, "geometry": {"type": "Point", "coordinates": [80.19401923068506, 12.774639172397416]}}, {"type": "Feature", "properties": {"route_name": "19BET", "stop_id": "YoiymRxk", "name": "Chinnama Nagar", "city": "CHENNAI"}, "geometry": {"type": "Point", "coordinates": [80.19608175247959, 12.774333382212426]}}, {"type": "Feature", "properties": {"route_name": "19BET", "stop_id": "cNvMQUdA", "name": "Periyammal Nagar", "city": "CHENNAI"}, "geometry": {"type": "Point", "coordinates": [80.20134323459524, 12.773958016632365]}}, {"type": "Feature", "properties": {"route_name": "19BET", "stop_id": "azqUKhQu", "name": "Chenganmal Road Junction", "city": "CHENNAI"}, "geometry": {"type": "Point", "coordinates": [80.2130667848553, 12.770894116705879]}}, {"type": "Feature", "properties": {"route_name": "19BET", "stop_id": "CgMBzfIg", "name": "Elavanthangal", "city": "CHENNAI"}, "geometry": {"type": "Point", "coordinates": [80.21737911024465, 12.78064052260931]}}, {"type": "Feature", "properties": {"route_name": "19BET", "stop_id": "uxBjVsKf", "name": "Kelambakkmm Police Station", "city": "CHENNAI"}, "geometry": {"type": "Point", "coordinates": [80.21990367384092, 12.785399610431222]}}, {"type": "Feature", "properties": {"route_name": "19BET", "stop_id": "ngtiheSM", "name": "Kelambakkmm General Hospital", "city": "CHENNAI"}, "geometry": {"type": "Point", "coordinates": [80.22043933846362, 12.786694812130275]}}, {"type": "Feature", "properties": {"route_name": "19BET", "stop_id": "rPcYYZtd", "name": "AP Super Market", "city": "CHENNAI"}, "geometry": {"type": "Point", "coordinates": [80.22132770552253, 12.789027384331868]}}, {"type": "Feature", "properties": {"route_name": "19BET", "stop_id": "bzkCWXwV", "name": "Chettinad Hospital", "city": "CHENNAI"}, "geometry": {"type": "Point", "coordinates": [80.2228130055016, 12.795946845148737]}}, {"type": "Feature", "properties": {"route_name": "19BET", "stop_id": "aEhaaulL", "name": "Hindustan College", "city": "CHENNAI"}, "geometry": {"type": "Point", "coordinates": [80.22351492279154, 12.801378939055358]}}, {"type": "Feature", "properties": {"route_name": "19BET", "stop_id": "syNMMSsu", "name": "Padur", "city": "CHENNAI"}, "geometry": {"type": "Point", "coordinates": [80.22406912062661, 12.805495364581848]}}, {"type": "Feature", "properties": {"route_name": "19BET", "stop_id": "nermFKBU", "name": "Akshaya Padur", "city": "CHENNAI"}, "geometry": {"type": "Point", "coordinates": [80.22794594651066, 12.811019888178407]}}, {"type": "Feature", "properties": {"route_name": "19BET", "stop_id": "eHBdrFbQ", "name": "Kazhipattur", "city": "CHENNAI"}, "geometry": {"type": "Point", "coordinates": [80.2303923928731, 12.819641442911562]}}, {"type": "Feature", "properties": {"route_name": "19BET", "stop_id": "AQHsowCO", "name": "Vaniyanchavadi Padma Adarsh School", "city": "CHENNAI"}, "geometry": {"type": "Point", "coordinates": [80.23128127090364, 12.826347836413337]}}, {"type": "Feature", "properties": {"route_name": "19BET", "stop_id": "IyDNJzPw", "name": "Sipcot", "city": "CHENNAI"}, "geometry": {"type": "Point", "coordinates": [80.2293527488991, 12.830988656016658]}}, {"type": "Feature", "properties": {"route_name": "19BET", "stop_id": "oLzlCKof", "name": "IT Park Siruseri Or Muttukadu", "city": "CHENNAI"}, "geometry": {"type": "Point", "coordinates": [80.22873179927922, 12.833150500179274]}}, {"type": "Feature", "properties": {"route_name": "19BET", "stop_id": "sxnLITXs", "name": "Egattur", "city": "CHENNAI"}, "geometry": {"type": "Point", "coordinates": [80.22806355507419, 12.837194692074005]}}, {"type": "Feature", "properties": {"route_name": "19BET", "stop_id": "QxkHLGuk", "name": "Navallur", "city": "CHENNAI"}, "geometry": {"type": "Point", "coordinates": [80.22643294554973, 12.844722701975323]}}, {"type": "Feature", "properties": {"route_name": "19BET", "stop_id": "MlXQVZuf", "name": "AGS Complex Navalur", "city": "CHENNAI"}, "geometry": {"type": "Point", "coordinates": [80.22641201043257, 12.850397437266455]}}, {"type": "Feature", "properties": {"route_name": "19BET", "stop_id": "VHmQaoRO", "name": "Semmancheri", "city": "CHENNAI"}, "geometry": {"type": "Point", "coordinates": [80.22640137469716, 12.861658751682949]}}, {"type": "Feature", "properties": {"route_name": "19BET", "stop_id": "kbNsckqG", "name": "Satyabhama University", "city": "CHENNAI"}, "geometry": {"type": "Point", "coordinates": [80.22641348472621, 12.871049493792462]}}, {"type": "Feature", "properties": {"route_name": "19BET", "stop_id": "qQJgvOFz", "name": "Kumaran Nagar", "city": "CHENNAI"}, "geometry": {"type": "Point", "coordinates": [80.22664666211551, 12.87764362828838]}}, {"type": "Feature", "properties": {"route_name": "19BET", "stop_id": "oRUBDfuD", "name": "Ponniamman Kovil", "city": "CHENNAI"}, "geometry": {"type": "Point", "coordinates": [80.22668805211401, 12.886070391143019]}}, {"type": "Feature", "properties": {"route_name": "19BET", "stop_id": "QbrsudyQ", "name": "Oodai", "city": "CHENNAI"}, "geometry": {"type": "Point", "coordinates": [80.22710659811406, 12.888364972772314]}}, {"type": "Feature", "properties": {"route_name": "19BET", "stop_id": "nunLDRbE", "name": "Government School Sholinganallur", "city": "CHENNAI"}, "geometry": {"type": "Point", "coordinates": [80.22740828807878, 12.894547209831996]}}, {"type": "Feature", "properties": {"route_name": "19BET", "stop_id": "deapEAbC", "name": "Sholinganallur", "city": "CHENNAI"}, "geometry": {"type": "Point", "coordinates": [80.22767726599693, 12.899912649167579]}}, {"type": "Feature", "properties": {"route_name": "19BET", "stop_id": "wrFiwNtD", "name": "P U Office Sholinganallur", "city": "CHENNAI"}, "geometry": {"type": "Point", "coordinates": [80.22786576539852, 12.903154898159626]}}, {"type": "Feature", "properties": {"route_name": "19BET", "stop_id": "aZtqChJJ", "name": "Dollar Or Accenture", "city": "CHENNAI"}, "geometry": {"type": "Point", "coordinates": [80.22815376423773, 12.907483001033574]}}, {"type": "Feature", "properties": {"route_name": "19BET", "stop_id": "ttVqQknl", "name": "Karapakkam", "city": "CHENNAI"}, "geometry": {"type": "Point", "coordinates": [80.22904078402053, 12.913497563941869]}}, {"type": "Feature", "properties": {"route_name": "19BET", "stop_id": "ryJVAbFB", "name": "KCG College", "city": "CHENNAI"}, "geometry": {"type": "Point", "coordinates": [80.22990280231544, 12.919772388546608]}}, {"type": "Feature", "properties": {"route_name": "19BET", "stop_id": "vnfcOAch", "name": "Okkiyampet", "city": "CHENNAI"}, "geometry": {"type": "Point", "coordinates": [80.23068170361807, 12.925773911721457]}}, {"type": "Feature", "properties": {"route_name": "19BET", "stop_id": "pjRBTtLk", "name": "PTC Quarters Or Mootakaran Chavadi", "city": "CHENNAI"}, "geometry": {"type": "Point", "coordinates": [80.23226845685394, 12.932983957165462]}}, {"type": "Feature", "properties": {"route_name": "19BET", "stop_id": "ZKEtlMvK", "name": "Mettukuppam", "city": "CHENNAI"}, "geometry": {"type": "Point", "coordinates": [80.23517663146639, 12.939144572388123]}}, {"type": "Feature", "properties": {"route_name": "19BET", "stop_id": "DHQRQBBP", "name": "Infoview Thoraipakkam", "city": "CHENNAI"}, "geometry": {"type": "Point", "coordinates": [80.23732349669979, 12.94388476940461]}}, {"type": "Feature", "properties": {"route_name": "19BET", "stop_id": "kohCEyKT", "name": "D B Jain College", "city": "CHENNAI"}, "geometry": {"type": "Point", "coordinates": [80.2395089526666, 12.946610098943609]}}, {"type": "Feature", "properties": {"route_name": "19BET", "stop_id": "FaHpkwNs", "name": "Seevaram", "city": "CHENNAI"}, "geometry": {"type": "Point", "coordinates": [80.24123143189831, 12.951040325394723]}}, {"type": "Feature", "properties": {"route_name": "19BET", "stop_id": "DpeufCiu", "name": "Perungudi", "city": "CHENNAI"}, "geometry": {"type": "Point", "coordinates": [80.24428318538433, 12.958837152218576]}}, {"type": "Feature", "properties": {"route_name": "19BET", "stop_id": "SGVPbDEb", "name": "Kandanchavadi", "city": "CHENNAI"}, "geometry": {"type": "Point", "coordinates": [80.24782736363784, 12.96693486906636]}}, {"type": "Feature", "properties": {"route_name": "19BET", "stop_id": "MtINPaKl", "name": "I G P", "city": "CHENNAI"}, "geometry": {"type": "Point", "coordinates": [80.25036841247538, 12.974300093869873]}}, {"type": "Feature", "properties": {"route_name": "19BET", "stop_id": "RuAJZyMI", "name": "SRP Tools", "city": "CHENNAI"}, "geometry": {"type": "Point", "coordinates": [80.25223488499046, 12.978552510802254]}}, {"type": "Feature", "properties": {"route_name": "19BET", "stop_id": "rSnWVhOw", "name": "Tidel Park", "city": "CHENNAI"}, "geometry": {"type": "Point", "coordinates": [80.25073061004582, 12.9896336475486]}}, {"type": "Feature", "properties": {"route_name": "19BET", "stop_id": "CqefHKGq", "name": "Womens Polytechnic College", "city": "CHENNAI"}, "geometry": {"type": "Point", "coordinates": [80.2489356315998, 12.996787491573743]}}, {"type": "Feature", "properties": {"route_name": "19BET", "stop_id": "nYVfIRsk", "name": "Madhya Kailash", "city": "CHENNAI"}, "geometry": {"type": "Point", "coordinates": [80.2461821771177, 13.00651661419635]}}, {"type": "Feature", "properties": {"route_name": "19BET", "stop_id": "knCDNjnp", "name": "IIT Madras Or Guindy National Park", "city": "CHENNAI"}, "geometry": {"type": "Point", "coordinates": [80.23999363331677, 13.00679210140227]}}, {"type": "Feature", "properties": {"route_name": "19BET", "stop_id": "mLBQtksd", "name": "Anna University Or Engineer College", "city": "CHENNAI"}, "geometry": {"type": "Point", "coordinates": [80.2366756977184, 13.007404587801359]}}, {"type": "Feature", "properties": {"route_name": "19BET", "stop_id": "rRGVruPM", "name": "Raj Bhavan Quarters", "city": "CHENNAI"}, "geometry": {"type": "Point", "coordinates": [80.22517469844684, 13.010580746325664]}}, {"type": "Feature", "properties": {"route_name": "19BET", "stop_id": "GpnhEWuy", "name": "Concorde or Chellammal College", "city": "CHENNAI"}, "geometry": {"type": "Point", "coordinates": [80.22194994, 13.01186343]}}, {"type": "Feature", "properties": {"route_name": "19BET", "stop_id": "FyoAuDvn", "name": "Little Mount ", "city": "CHENNAI"}, "geometry": {"type": "Point", "coordinates": [80.2250649963828, 13.015597546918361]}}, {"type": "Feature", "properties": {"route_name": "19BET", "stop_id": "NXLrCKMp", "name": "Panagal Maligai Or Saiadapet Bridge", "city": "CHENNAI"}, "geometry": {"type": "Point", "coordinates": [80.2243533022414, 13.019119618356324]}}, {"type": "Feature", "properties": {"route_name": "19BET", "stop_id": "xiTGCYEl", "name": "Saidapet", "city": "CHENNAI"}, "geometry": {"type": "Point", "coordinates": [80.22645189784225, 13.02237471448576]}}, {"type": "Feature", "properties": {"route_name": "19BET", "stop_id": "yNIUaSyZ", "name": "Thadandar Nagar", "city": "CHENNAI"}, "geometry": {"type": "Point", "coordinates": [80.22842398188516, 13.024420523467967]}}, {"type": "Feature", "properties": {"route_name": "19BET", "stop_id": "cNuIRYrx", "name": "Saidapet Veterinary Hospital Or Raja Hostel", "city": "CHENNAI"}, "geometry": {"type": "Point", "coordinates": [80.22971101723124, 13.025441595631346]}}, {"type": "Feature", "properties": {"route_name": "19BET", "stop_id": "bZroqIhX", "name": "CIT Nagar", "city": "CHENNAI"}, "geometry": {"type": "Point", "coordinates": [80.23073054407075, 13.02925281559845]}}, {"type": "Feature", "properties": {"route_name": "19BET", "stop_id": "eTJQHplR", "name": "Thiyagaraya Nagar Bus Depot", "city": "CHENNAI"}, "geometry": {"type": "Point", "coordinates": [80.23005108, 13.03449501]}}, {"type": "Feature", "properties": {"name": "19BET"}, "geometry": {"type": "LineString", "coordinates": [[80.18488, 12.77076], [80.18516, 12.77082], [80.18545, 12.77083], [80.18616, 12.77085], [80.18644, 12.77088], [80.18703, 12.77098], [80.18724, 12.77101], [80.18796, 12.77109], [80.18849, 12.77117], [80.18859, 12.77122], [80.18867, 12.77131], [80.18876, 12.77154], [80.18889, 12.77188], [80.18906, 12.77236], [80.18907, 12.77246], [80.18921, 12.77278], [80.18938, 12.77305], [80.18956, 12.77364], [80.18966, 12.77396], [80.18992, 12.77421], [80.19034, 12.7746], [80.19054, 12.77479], [80.19066, 12.77488], [80.19086, 12.77502], [80.19099, 12.77509], [80.19113, 12.77516], [80.19133, 12.77522], [80.19165, 12.7753], [80.19206, 12.77538], [80.19227, 12.7754], [80.19243, 12.77539], [80.19251, 12.77536], [80.19268, 12.77526], [80.19297, 12.77501], [80.19316, 12.77488], [80.19342, 12.7748], [80.19357, 12.77476], [80.19365, 12.77474], [80.19398, 12.77463], [80.19402, 12.77463], [80.19478, 12.77449], [80.19509, 12.7744], [80.19547, 12.77435], [80.19583, 12.77429], [80.19608, 12.77428], [80.19758, 12.77421], [80.19809, 12.77422], [80.19869, 12.77416], [80.19935, 12.77412], [80.20106, 12.77394], [80.20134, 12.77391], [80.20239, 12.77384], [80.20287, 12.77375], [80.20322, 12.77367], [80.20394, 12.77354], [80.2043, 12.7735], [80.20562, 12.77331], [80.20684, 12.77298], [80.20756, 12.77275], [80.20856, 12.7725], [80.20927, 12.77229], [80.20987, 12.77206], [80.21079, 12.77158], [80.21164, 12.77119], [80.2119, 12.77111], [80.21212, 12.77107], [80.21238, 12.77104], [80.21274, 12.77093], [80.21291, 12.77086], [80.21306, 12.7708], [80.21309, 12.77088], [80.2131, 12.77088], [80.21383, 12.77292], [80.21503, 12.77598], [80.21556, 12.77719], [80.2159, 12.77804], [80.2166, 12.77943], [80.21858, 12.7831], [80.21881, 12.78344], [80.2189, 12.7834], [80.21868, 12.78309], [80.21862, 12.78297], [80.21807, 12.78197], [80.21736, 12.78065], [80.21718, 12.78029], [80.21684, 12.77969], [80.21668, 12.77938], [80.2166, 12.77943], [80.21706, 12.7803], [80.21805, 12.7821], [80.21858, 12.7831], [80.21881, 12.78344], [80.21898, 12.78371], [80.21944, 12.78459], [80.21953, 12.78473], [80.21991, 12.78538], [80.22011, 12.78576], [80.2202, 12.78607], [80.22028, 12.78623], [80.22046, 12.78669], [80.22065, 12.78717], [80.22094, 12.78794], [80.22135, 12.78902], [80.22166, 12.78992], [80.22187, 12.79079], [80.22224, 12.79227], [80.22236, 12.79289], [80.22253, 12.79412], [80.22283, 12.79594], [80.22313, 12.79747], [80.22321, 12.79811], [80.22338, 12.79994], [80.22352, 12.80146], [80.22376, 12.80326], [80.22389, 12.80412], [80.22392, 12.80472], [80.22397, 12.80504], [80.22409, 12.80549], [80.22416, 12.80566], [80.22422, 12.80575], [80.22558, 12.80735], [80.22596, 12.8078], [80.22686, 12.80877], [80.22725, 12.80932], [80.22753, 12.80984], [80.228, 12.811], [80.22834, 12.81197], [80.22885, 12.81349], [80.22912, 12.81443], [80.22924, 12.81532], [80.2294, 12.81605], [80.22952, 12.81682], [80.22968, 12.8173], [80.23009, 12.81817], [80.23042, 12.81895], [80.23045, 12.81922], [80.23044, 12.81965], [80.23039, 12.82085], [80.23041, 12.82125], [80.23044, 12.82155], [80.23049, 12.82192], [80.2306, 12.82234], [80.23088, 12.82324], [80.2311, 12.82404], [80.23125, 12.82465], [80.23133, 12.82513], [80.23134, 12.8255], [80.23131, 12.82621], [80.2313, 12.82636], [80.23124, 12.82688], [80.23116, 12.82716], [80.23101, 12.82749], [80.23044, 12.8285], [80.23014, 12.82909], [80.22938, 12.831], [80.22915, 12.83168], [80.22908, 12.83192], [80.22901, 12.83194], [80.22898, 12.83197], [80.22892, 12.83221], [80.22875, 12.83315], [80.22865, 12.83378], [80.22873, 12.8338], [80.2286, 12.83451], [80.22853, 12.83493], [80.22844, 12.83548], [80.22833, 12.83637], [80.22824, 12.83636], [80.2282, 12.83665], [80.22814, 12.83692], [80.22809, 12.8372], [80.22799, 12.83788], [80.22779, 12.8387], [80.22778, 12.83889], [80.22779, 12.83892], [80.22782, 12.83895], [80.22775, 12.83919], [80.22762, 12.83966], [80.22754, 12.84], [80.22744, 12.84035], [80.2274, 12.84036], [80.22733, 12.84044], [80.22719, 12.84091], [80.22692, 12.84197], [80.2268, 12.84247], [80.22667, 12.84315], [80.22654, 12.84395], [80.22646, 12.84459], [80.22645, 12.84472], [80.22642, 12.84555], [80.2264, 12.84661], [80.2264, 12.84688], [80.22652, 12.84687], [80.2265, 12.84866], [80.2265, 12.84933], [80.2264, 12.84933], [80.2264, 12.8496], [80.22643, 12.85041], [80.2265, 12.85237], [80.22659, 12.85237], [80.2266, 12.85284], [80.22661, 12.85293], [80.22657, 12.85368], [80.22642, 12.85527], [80.22621, 12.85723], [80.22617, 12.85796], [80.22621, 12.85869], [80.22647, 12.86059], [80.22637, 12.8606], [80.22638, 12.86067], [80.22641, 12.86112], [80.22641, 12.86166], [80.22639, 12.86207], [80.22637, 12.86249], [80.22647, 12.86249], [80.22645, 12.8629], [80.22645, 12.86367], [80.22651, 12.86488], [80.22651, 12.86566], [80.22649, 12.86623], [80.22647, 12.86651], [80.22632, 12.86795], [80.22629, 12.86842], [80.22633, 12.86893], [80.22649, 12.8703], [80.2265, 12.87053], [80.22641, 12.87054], [80.22643, 12.87103], [80.22643, 12.87105], [80.22649, 12.87189], [80.22651, 12.87297], [80.22656, 12.87298], [80.22659, 12.87299], [80.22659, 12.87313], [80.22659, 12.87365], [80.22667, 12.87428], [80.22678, 12.87496], [80.22684, 12.87551], [80.22687, 12.8765], [80.22678, 12.87649], [80.22673, 12.87709], [80.22669, 12.87737], [80.22666, 12.87764], [80.22663, 12.87833], [80.22674, 12.87834], [80.22672, 12.87854], [80.22666, 12.87947], [80.22664, 12.88039], [80.22663, 12.88225], [80.22662, 12.88435], [80.22663, 12.88484], [80.22666, 12.8851], [80.22668, 12.88525], [80.22658, 12.88529], [80.22666, 12.88585], [80.2267, 12.88607], [80.22682, 12.88651], [80.22704, 12.88752], [80.22709, 12.88798], [80.22713, 12.88836], [80.22714, 12.88861], [80.22715, 12.88914], [80.22718, 12.89121], [80.22722, 12.89246], [80.22725, 12.89283], [80.22735, 12.89366], [80.22742, 12.89455], [80.22747, 12.89512], [80.22748, 12.89549], [80.22757, 12.89548], [80.22761, 12.89643], [80.22763, 12.89708], [80.2277, 12.8983], [80.22771, 12.89866], [80.2276, 12.89866], [80.22769, 12.89991], [80.22785, 12.90311], [80.22791, 12.90315], [80.22788, 12.90315], [80.2279, 12.90351], [80.22795, 12.90405], [80.22801, 12.90534], [80.22805, 12.90598], [80.2281, 12.90673], [80.22817, 12.90748], [80.2283, 12.90837], [80.2284, 12.90835], [80.22849, 12.90894], [80.22868, 12.91012], [80.22885, 12.91137], [80.22904, 12.91266], [80.22905, 12.91274], [80.22898, 12.91276], [80.22904, 12.91333], [80.22906, 12.9135], [80.22918, 12.91435], [80.22923, 12.91476], [80.22933, 12.91474], [80.22939, 12.91516], [80.2296, 12.91653], [80.2298, 12.91795], [80.22995, 12.91909], [80.22988, 12.9191], [80.22993, 12.91965], [80.22995, 12.91981], [80.23007, 12.92072], [80.23008, 12.92077], [80.23015, 12.92076], [80.23025, 12.92152], [80.23063, 12.92397], [80.23069, 12.92433], [80.23066, 12.92442], [80.23064, 12.92448], [80.23062, 12.92466], [80.23066, 12.92533], [80.2307, 12.92577], [80.23079, 12.92622], [80.2309, 12.92702], [80.23099, 12.92774], [80.23107, 12.92772], [80.2312, 12.92862], [80.23138, 12.92963], [80.2315, 12.93014], [80.23186, 12.93133], [80.23219, 12.93236], [80.23223, 12.93248], [80.23214, 12.9325], [80.2322, 12.93276], [80.23228, 12.93298], [80.23238, 12.93325], [80.23258, 12.93362], [80.23273, 12.93392], [80.23313, 12.93478], [80.2341, 12.93681], [80.23471, 12.93806], [80.23521, 12.9391], [80.23518, 12.93911], [80.23553, 12.93984], [80.23564, 12.94019], [80.23583, 12.94063], [80.23593, 12.94121], [80.23604, 12.94154], [80.23612, 12.94193], [80.23621, 12.94224], [80.23635, 12.94261], [80.23647, 12.94286], [80.23681, 12.94337], [80.23733, 12.94388], [80.23813, 12.94461], [80.23884, 12.94528], [80.23907, 12.94559], [80.2392, 12.94582], [80.2395, 12.94657], [80.23952, 12.94661], [80.23954, 12.94661], [80.23964, 12.9466], [80.23985, 12.94712], [80.24077, 12.9493], [80.24129, 12.95097], [80.24123, 12.95104], [80.24124, 12.95104], [80.24142, 12.9516], [80.2415, 12.95157], [80.24167, 12.95209], [80.24187, 12.9526], [80.24207, 12.95316], [80.24241, 12.95397], [80.24278, 12.95499], [80.24334, 12.95638], [80.24381, 12.95749], [80.24402, 12.95797], [80.24399, 12.95805], [80.24398, 12.95808], [80.24403, 12.95823], [80.24429, 12.95882], [80.24452, 12.95939], [80.24527, 12.96102], [80.24596, 12.96245], [80.24602, 12.96239], [80.24647, 12.9633], [80.24656, 12.96347], [80.2468, 12.96398], [80.24737, 12.96554], [80.24753, 12.96593], [80.24772, 12.96639], [80.24788, 12.96678], [80.24779, 12.9668], [80.24785, 12.96693], [80.24821, 12.96774], [80.24845, 12.96832], [80.24862, 12.96876], [80.24932, 12.97047], [80.24941, 12.97073], [80.24948, 12.97071], [80.24959, 12.97105], [80.25008, 12.97279], [80.25022, 12.97333], [80.25015, 12.97334], [80.25037, 12.97421], [80.25039, 12.97429], [80.25122, 12.9772], [80.25133, 12.97742], [80.25145, 12.97757], [80.25162, 12.97774], [80.25186, 12.97799], [80.25216, 12.9784], [80.25225, 12.97855], [80.25186, 12.97799], [80.25149, 12.97762], [80.25127, 12.97732], [80.25114, 12.97693], [80.25086, 12.97594], [80.25044, 12.97448], [80.25019, 12.9735], [80.25015, 12.97334], [80.25022, 12.97333], [80.25046, 12.97419], [80.25076, 12.97522], [80.25106, 12.97632], [80.2512, 12.97684], [80.25139, 12.97732], [80.25155, 12.97759], [80.25163, 12.97771], [80.25196, 12.97805], [80.25221, 12.97834], [80.2524, 12.97868], [80.25253, 12.97916], [80.25257, 12.97936], [80.25257, 12.97953], [80.25261, 12.97998], [80.2526, 12.98044], [80.25254, 12.98257], [80.25249, 12.98321], [80.25244, 12.98355], [80.25199, 12.98528], [80.25171, 12.98639], [80.25165, 12.98667], [80.25142, 12.98735], [80.25134, 12.98741], [80.2513, 12.98752], [80.25119, 12.9877], [80.25111, 12.98778], [80.25107, 12.98779], [80.25102, 12.98782], [80.25091, 12.98787], [80.25085, 12.98792], [80.25083, 12.98801], [80.25085, 12.98812], [80.25095, 12.98831], [80.25097, 12.98845], [80.25095, 12.98856], [80.25084, 12.98892], [80.25086, 12.98907], [80.25079, 12.98941], [80.25074, 12.98964], [80.25066, 12.99003], [80.25058, 12.99034], [80.25029, 12.99149], [80.25018, 12.99192], [80.2503, 12.99193], [80.25004, 12.99299], [80.24978, 12.99392], [80.24956, 12.99484], [80.24924, 12.99606], [80.24911, 12.99658], [80.24891, 12.9974], [80.24882, 12.99738], [80.24889, 12.99708], [80.24895, 12.99679], [80.24882, 12.99738], [80.24891, 12.9974], [80.24877, 12.99793], [80.24852, 12.99895], [80.24798, 13.00123], [80.24763, 13.00256], [80.24753, 13.00314], [80.24742, 13.00375], [80.24733, 13.00451], [80.24724, 13.00516], [80.24718, 13.00529], [80.24711, 13.00561], [80.24705, 13.00592], [80.24691, 13.00616], [80.24674, 13.00635], [80.24654, 13.00648], [80.24621, 13.00661], [80.24621, 13.0066], [80.24599, 13.00666], [80.24538, 13.00664], [80.24455, 13.00663], [80.24237, 13.00662], [80.24206, 13.0066], [80.24162, 13.0066], [80.24132, 13.00664], [80.24108, 13.00665], [80.24058, 13.00672], [80.24019, 13.00678], [80.24, 13.00683], [80.23812, 13.0072], [80.2372, 13.0074], [80.237, 13.00744], [80.23693, 13.00742], [80.23692, 13.00742], [80.23669, 13.00747], [80.2367, 13.0075], [80.23504, 13.00784], [80.23164, 13.00851], [80.22853, 13.00913], [80.2282, 13.0092], [80.22753, 13.00947], [80.22625, 13.01004], [80.22613, 13.01011], [80.22607, 13.01018], [80.22541, 13.0105], [80.22519, 13.01061], [80.22492, 13.01074], [80.22486, 13.01075], [80.22467, 13.01083], [80.22409, 13.01106], [80.22357, 13.01125], [80.22323, 13.01137], [80.22204, 13.01188], [80.22196, 13.0119], [80.22159, 13.01203], [80.22149, 13.01207], [80.22143, 13.01218], [80.22141, 13.01223], [80.2214, 13.01231], [80.22146, 13.01241], [80.22174, 13.01263], [80.2224, 13.01314], [80.22313, 13.01375], [80.22316, 13.01379], [80.22317, 13.01387], [80.22367, 13.01429], [80.22468, 13.01514], [80.22472, 13.01525], [80.22503, 13.0156], [80.22505, 13.01561], [80.22523, 13.01581], [80.2253, 13.01593], [80.22534, 13.01605], [80.22536, 13.01614], [80.22535, 13.01627], [80.22527, 13.01662], [80.22509, 13.01709], [80.22441, 13.01877], [80.22436, 13.0191], [80.22436, 13.01912], [80.2244, 13.01942], [80.22451, 13.0197], [80.22462, 13.01991], [80.22491, 13.02035], [80.22625, 13.02209], [80.22648, 13.02235], [80.22747, 13.02349], [80.22771, 13.02374], [80.22799, 13.02398], [80.22846, 13.02437], [80.22978, 13.02536], [80.22998, 13.02552], [80.23026, 13.02571], [80.23051, 13.02583], [80.23083, 13.02593], [80.23138, 13.0261], [80.23124, 13.02644], [80.23111, 13.027], [80.23098, 13.02754], [80.23097, 13.02764], [80.23079, 13.02926], [80.23075, 13.02969], [80.23073, 13.0302], [80.23065, 13.03078], [80.23058, 13.03198], [80.23042, 13.03402], [80.23038, 13.0342], [80.23002, 13.03423], [80.23002, 13.0345]]}}]}