{"type": "FeatureCollection", "features": [{"type": "Feature", "properties": {"route_name": "S86", "stop_id": "eTJQHplR", "name": "Thiyagaraya Nagar Bus Depot", "city": "CHENNAI"}, "geometry": {"type": "Point", "coordinates": [80.23005108, 13.03449501]}}, {"type": "Feature", "properties": {"route_name": "S86", "stop_id": "DkqFSkSd", "name": "Kannammapettai Burial Ground", "city": "CHENNAI"}, "geometry": {"type": "Point", "coordinates": [80.22845836910233, 13.03034929701882]}}, {"type": "Feature", "properties": {"route_name": "S86", "stop_id": "pZATYgJX", "name": "Kaveri Nager", "city": "CHENNAI"}, "geometry": {"type": "Point", "coordinates": [80.22722933510886, 13.028279589588612]}}, {"type": "Feature", "properties": {"route_name": "S86", "stop_id": "dlzglDFV", "name": "Aranganathan Subway", "city": "CHENNAI"}, "geometry": {"type": "Point", "coordinates": [80.22409996467718, 13.02894358762073]}}, {"type": "Feature", "properties": {"route_name": "S86", "stop_id": "yFEIEiOj", "name": "Srinivasa Theater", "city": "CHENNAI"}, "geometry": {"type": "Point", "coordinates": [80.22361961537831, 13.031109812862514]}}, {"type": "Feature", "properties": {"route_name": "S86", "stop_id": "yXKTuRtI", "name": "Mettupalayam", "city": "CHENNAI"}, "geometry": {"type": "Point", "coordinates": [80.2200594638241, 13.03224027378055]}}, {"type": "Feature", "properties": {"route_name": "S86", "stop_id": "gNlImmtJ", "name": "Ram Colony", "city": "CHENNAI"}, "geometry": {"type": "Point", "coordinates": [80.2161722952577, 13.034234239313996]}}, {"type": "Feature", "properties": {"route_name": "S86", "stop_id": "vSdfqYeK", "name": "Ashok Pillar", "city": "CHENNAI"}, "geometry": {"type": "Point", "coordinates": [80.21208679, 13.03354348]}}, {"type": "Feature", "properties": {"route_name": "S86", "stop_id": "PjfwSZnl", "name": "Kasi Theatre", "city": "CHENNAI"}, "geometry": {"type": "Point", "coordinates": [80.20920231469609, 13.030140031639672]}}, {"type": "Feature", "properties": {"route_name": "S86", "stop_id": "BRTaWOYs", "name": "Bharathidasan Colony", "city": "CHENNAI"}, "geometry": {"type": "Point", "coordinates": [80.2053184199553, 13.032658877044433]}}, {"type": "Feature", "properties": {"route_name": "S86", "stop_id": "busLwOKM", "name": "Kailankadai", "city": "CHENNAI"}, "geometry": {"type": "Point", "coordinates": [80.20302495337297, 13.03292523157666]}}, {"type": "Feature", "properties": {"route_name": "S86", "stop_id": "apZtGMSe", "name": "Indra Colony", "city": "CHENNAI"}, "geometry": {"type": "Point", "coordinates": [80.20247918924385, 13.031421203459931]}}, {"type": "Feature", "properties": {"route_name": "S86", "stop_id": "OGOfNBpR", "name": "Saravana Electrical", "city": "CHENNAI"}, "geometry": {"type": "Point", "coordinates": [80.19923145218031, 13.031557495425298]}}, {"type": "Feature", "properties": {"route_name": "S86", "stop_id": "sHyVyxBf", "name": "Anjali Mahal", "city": "CHENNAI"}, "geometry": {"type": "Point", "coordinates": [80.19660267638064, 13.03099928649519]}}, {"type": "Feature", "properties": {"route_name": "S86", "stop_id": "YstCZidS", "name": "Anbu Woins", "city": "CHENNAI"}, "geometry": {"type": "Point", "coordinates": [80.19499181059068, 13.03109237373685]}}, {"type": "Feature", "properties": {"route_name": "S86", "stop_id": "qaJzTzwj", "name": "Sullaipallam", "city": "CHENNAI"}, "geometry": {"type": "Point", "coordinates": [80.19173402331353, 13.031358286491876]}}, {"type": "Feature", "properties": {"route_name": "S86", "stop_id": "lniHSWWA", "name": "Nesapakkam MGR Statue", "city": "CHENNAI"}, "geometry": {"type": "Point", "coordinates": [80.19130252092963, 13.031512091155388]}}, {"type": "Feature", "properties": {"route_name": "S86", "stop_id": "BzikVGUK", "name": "Nellai Stores", "city": "CHENNAI"}, "geometry": {"type": "Point", "coordinates": [80.18755103191184, 13.031616627780867]}}, {"type": "Feature", "properties": {"route_name": "S86", "stop_id": "ImyQzgIv", "name": "Balaji Hospital", "city": "CHENNAI"}, "geometry": {"type": "Point", "coordinates": [80.18675075214958, 13.031672870315305]}}, {"type": "Feature", "properties": {"route_name": "S86", "stop_id": "VDSTHuJo", "name": "Ramapuram Ashram", "city": "CHENNAI"}, "geometry": {"type": "Point", "coordinates": [80.18394860643751, 13.031750688560678]}}, {"type": "Feature", "properties": {"route_name": "S86", "stop_id": "zdgoUaFA", "name": "SRM University", "city": "CHENNAI"}, "geometry": {"type": "Point", "coordinates": [80.17864933900348, 13.031717782425432]}}, {"type": "Feature", "properties": {"route_name": "S86", "stop_id": "fTKGeENK", "name": "Ramapuram", "city": "CHENNAI"}, "geometry": {"type": "Point", "coordinates": [80.17583813656961, 13.032922134561247]}}, {"type": "Feature", "properties": {"name": "S86"}, "geometry": {"type": "LineString", "coordinates": [[80.23002, 13.0345], [80.23002, 13.03423], [80.23038, 13.0342], [80.23046, 13.0342], [80.23046, 13.03403], [80.23055, 13.0331], [80.23062, 13.03229], [80.23074, 13.03079], [80.23002, 13.03063], [80.22939, 13.03038], [80.22922, 13.03034], [80.229, 13.03033], [80.22846, 13.03038], [80.22749, 13.03049], [80.22736, 13.02964], [80.22729, 13.02919], [80.22715, 13.02829], [80.22709, 13.0281], [80.22703, 13.02799], [80.22697, 13.02794], [80.22679, 13.02791], [80.22629, 13.02799], [80.22614, 13.02803], [80.22499, 13.02827], [80.22404, 13.02844], [80.22403, 13.02858], [80.22404, 13.02889], [80.22409, 13.02895], [80.22424, 13.02912], [80.22428, 13.02924], [80.22429, 13.03105], [80.22429, 13.03122], [80.22398, 13.03119], [80.22381, 13.03118], [80.22362, 13.03118], [80.22334, 13.03119], [80.22291, 13.03125], [80.22277, 13.0313], [80.22238, 13.03153], [80.22185, 13.03178], [80.2214, 13.032], [80.22055, 13.03222], [80.22021, 13.03225], [80.22006, 13.03226], [80.21842, 13.03223], [80.21842, 13.03272], [80.21836, 13.03325], [80.21813, 13.03362], [80.21784, 13.0339], [80.21752, 13.03408], [80.21724, 13.03414], [80.21617, 13.03426], [80.2147, 13.03446], [80.21376, 13.03461], [80.21225, 13.03484], [80.21209, 13.03418], [80.21202, 13.03361], [80.21178, 13.03231], [80.21181, 13.03187], [80.21018, 13.0321], [80.21006, 13.03125], [80.20974, 13.03003], [80.20918, 13.03019], [80.20898, 13.03025], [80.20905, 13.03054], [80.20915, 13.03084], [80.20939, 13.03165], [80.20948, 13.03202], [80.20811, 13.03223], [80.20642, 13.0325], [80.20536, 13.03268], [80.20532, 13.03268], [80.20541, 13.03268], [80.20541, 13.03266], [80.20537, 13.03265], [80.20532, 13.03268], [80.20393, 13.03288], [80.20301, 13.033], [80.203, 13.03293], [80.203, 13.0329], [80.20272, 13.03185], [80.2027, 13.03176], [80.20259, 13.03156], [80.20251, 13.03147], [80.20247, 13.03144], [80.20237, 13.0314], [80.20227, 13.03138], [80.20199, 13.03138], [80.20073, 13.03148], [80.20028, 13.03151], [80.19985, 13.03156], [80.19923, 13.03158], [80.19905, 13.03156], [80.19894, 13.03152], [80.19886, 13.03145], [80.19871, 13.0313], [80.19853, 13.03121], [80.1983, 13.03114], [80.19807, 13.0311], [80.19742, 13.03104], [80.1966, 13.03102], [80.19593, 13.03104], [80.19531, 13.03108], [80.19513, 13.03112], [80.19499, 13.03111], [80.19445, 13.03094], [80.19395, 13.03075], [80.19362, 13.03056], [80.19353, 13.03053], [80.19329, 13.0305], [80.19315, 13.03053], [80.19275, 13.0307], [80.19267, 13.03071], [80.19246, 13.03073], [80.19215, 13.03082], [80.19208, 13.03085], [80.192, 13.03091], [80.19194, 13.03106], [80.19187, 13.03129], [80.19179, 13.03138], [80.19174, 13.03139], [80.1914, 13.03138], [80.19132, 13.03152], [80.19131, 13.03154], [80.19085, 13.03148], [80.19056, 13.03147], [80.19028, 13.0315], [80.18956, 13.0316], [80.18883, 13.0316], [80.1884, 13.03161], [80.18777, 13.03162], [80.18755, 13.03164], [80.18675, 13.0317], [80.18586, 13.03175], [80.18553, 13.03176], [80.18474, 13.03182], [80.18395, 13.03177], [80.18378, 13.03176], [80.18348, 13.03177], [80.18309, 13.03174], [80.18237, 13.03176], [80.18172, 13.03173], [80.18156, 13.03176], [80.18123, 13.03174], [80.18086, 13.0317], [80.18055, 13.03164], [80.1803, 13.0316], [80.17981, 13.03162], [80.17953, 13.03165], [80.17869, 13.03173], [80.17866, 13.03174], [80.17715, 13.03208], [80.17679, 13.03223], [80.17651, 13.03239], [80.17626, 13.03257], [80.176, 13.0328], [80.17585, 13.03294]]}}]}