{"type": "FeatureCollection", "features": [{"type": "Feature", "properties": {"route_name": "11G", "stop_id": "sZwmfbNt", "name": "K K Nagar", "city": "CHENNAI"}, "geometry": {"type": "Point", "coordinates": [80.20558811091587, 13.035679009879493]}}, {"type": "Feature", "properties": {"route_name": "11G", "stop_id": "BeiMHrtx", "name": "M G R Nagar Market", "city": "CHENNAI"}, "geometry": {"type": "Point", "coordinates": [80.20159352478572, 13.036295261548064]}}, {"type": "Feature", "properties": {"route_name": "11G", "stop_id": "hhrNEaMZ", "name": "Data Udupi Hotel", "city": "CHENNAI"}, "geometry": {"type": "Point", "coordinates": [80.19843000687092, 13.036731714994842]}}, {"type": "Feature", "properties": {"route_name": "11G", "stop_id": "tpTDqbZI", "name": "M G R Nagar", "city": "CHENNAI"}, "geometry": {"type": "Point", "coordinates": [80.19602489857266, 13.037087340738266]}}, {"type": "Feature", "properties": {"route_name": "11G", "stop_id": "SgGmeaHk", "name": "Munusamy Salai", "city": "CHENNAI"}, "geometry": {"type": "Point", "coordinates": [80.19279563690316, 13.03853813085209]}}, {"type": "Feature", "properties": {"route_name": "11G", "stop_id": "fQmxveIO", "name": "Pondicherry Guest House", "city": "CHENNAI"}, "geometry": {"type": "Point", "coordinates": [80.19365178418866, 13.041874891070442]}}, {"type": "Feature", "properties": {"route_name": "11G", "stop_id": "FXLsUIQr", "name": "Ramasamy Salai Amman Koil", "city": "CHENNAI"}, "geometry": {"type": "Point", "coordinates": [80.19676413259344, 13.041441106544651]}}, {"type": "Feature", "properties": {"route_name": "11G", "stop_id": "blTjmaLj", "name": "Pandmashashathri Or City Union Bank", "city": "CHENNAI"}, "geometry": {"type": "Point", "coordinates": [80.19925822854736, 13.041143562699796]}}, {"type": "Feature", "properties": {"route_name": "11G", "stop_id": "qQrteapK", "name": "Sivan Park", "city": "CHENNAI"}, "geometry": {"type": "Point", "coordinates": [80.20509299070056, 13.041037159053529]}}, {"type": "Feature", "properties": {"route_name": "11G", "stop_id": "SDiGilLw", "name": "Mathews Church", "city": "CHENNAI"}, "geometry": {"type": "Point", "coordinates": [80.20894285822065, 13.041685701302677]}}, {"type": "Feature", "properties": {"route_name": "11G", "stop_id": "zCyzbjXU", "name": "Velankanni Matric Higher Secondary School", "city": "CHENNAI"}, "geometry": {"type": "Point", "coordinates": [80.20846135112856, 13.038590573286573]}}, {"type": "Feature", "properties": {"route_name": "11G", "stop_id": "lOtREfVG", "name": "ESI Hospital K K Nagar", "city": "CHENNAI"}, "geometry": {"type": "Point", "coordinates": [80.2083753047666, 13.035489206467808]}}, {"type": "Feature", "properties": {"route_name": "11G", "stop_id": "AmahvgQB", "name": "Udhayam Theatre Or Ashok Pillar", "city": "CHENNAI"}, "geometry": {"type": "Point", "coordinates": [80.21088471292683, 13.035133560218684]}}, {"type": "Feature", "properties": {"route_name": "11G", "stop_id": "vSdfqYeK", "name": "Ashok Pillar", "city": "CHENNAI"}, "geometry": {"type": "Point", "coordinates": [80.21208679, 13.03354348]}}, {"type": "Feature", "properties": {"route_name": "11G", "stop_id": "CvtLjMFW", "name": "KK Nagar Telephone Exchange Jaffarkhanpet", "city": "CHENNAI"}, "geometry": {"type": "Point", "coordinates": [80.21261366679852, 13.031857596704317]}}, {"type": "Feature", "properties": {"route_name": "11G", "stop_id": "exgtgIgV", "name": "Ram Colony", "city": "CHENNAI"}, "geometry": {"type": "Point", "coordinates": [80.21604354922499, 13.034320471704362]}}, {"type": "Feature", "properties": {"route_name": "11G", "stop_id": "zJsEFgSs", "name": "Postal Colony", "city": "CHENNAI"}, "geometry": {"type": "Point", "coordinates": [80.2205851070022, 13.036524444070213]}}, {"type": "Feature", "properties": {"route_name": "11G", "stop_id": "ggaXnTUz", "name": "Indian Bank Gowda Road", "city": "CHENNAI"}, "geometry": {"type": "Point", "coordinates": [80.22147131197949, 13.040744820307742]}}, {"type": "Feature", "properties": {"route_name": "11G", "stop_id": "mBSaKJib", "name": "Anjugam School", "city": "CHENNAI"}, "geometry": {"type": "Point", "coordinates": [80.22164018104365, 13.041680990113992]}}, {"type": "Feature", "properties": {"route_name": "11G", "stop_id": "yfzTmEfw", "name": "Vrindavan Street", "city": "CHENNAI"}, "geometry": {"type": "Point", "coordinates": [80.22463371461879, 13.042261159123544]}}, {"type": "Feature", "properties": {"route_name": "11G", "stop_id": "QgwCgjAi", "name": "Panagal Park", "city": "CHENNAI"}, "geometry": {"type": "Point", "coordinates": [80.23311542465956, 13.042139934739156]}}, {"type": "Feature", "properties": {"route_name": "11G", "stop_id": "VuPuNOXM", "name": "Holy Angels School", "city": "CHENNAI"}, "geometry": {"type": "Point", "coordinates": [80.24155294297111, 13.040367118297047]}}, {"type": "Feature", "properties": {"route_name": "11G", "stop_id": "WeXgsZLY", "name": "Pondy Bazar Globus", "city": "CHENNAI"}, "geometry": {"type": "Point", "coordinates": [80.2433104353671, 13.040127534242016]}}, {"type": "Feature", "properties": {"route_name": "11G", "stop_id": "tTrMaEIS", "name": "Aalayamman Temple", "city": "CHENNAI"}, "geometry": {"type": "Point", "coordinates": [80.24557369790386, 13.039640201077292]}}, {"type": "Feature", "properties": {"route_name": "11G", "stop_id": "HQVZivsH", "name": "Vanavil", "city": "CHENNAI"}, "geometry": {"type": "Point", "coordinates": [80.24704813596077, 13.040751202786833]}}, {"type": "Feature", "properties": {"route_name": "11G", "stop_id": "UTBcifAN", "name": "DMS", "city": "CHENNAI"}, "geometry": {"type": "Point", "coordinates": [80.24829534022649, 13.046974109023331]}}, {"type": "Feature", "properties": {"route_name": "11G", "stop_id": "suszCmcx", "name": "Anand Theatre or Thousand Light", "city": "CHENNAI"}, "geometry": {"type": "Point", "coordinates": [80.25671112714463, 13.056879507984267]}}, {"type": "Feature", "properties": {"route_name": "11G", "stop_id": "lwcIkPvE", "name": "Spensor Plaza TVS", "city": "CHENNAI"}, "geometry": {"type": "Point", "coordinates": [80.2612747814826, 13.06090035070302]}}, {"type": "Feature", "properties": {"route_name": "11G", "stop_id": "EocVuyzS", "name": "Lic", "city": "CHENNAI"}, "geometry": {"type": "Point", "coordinates": [80.26386382104317, 13.063008515983547]}}, {"type": "Feature", "properties": {"route_name": "11G", "stop_id": "lctVuVOk", "name": "Shanthi Theatre", "city": "CHENNAI"}, "geometry": {"type": "Point", "coordinates": [80.2689268934987, 13.067733478670458]}}, {"type": "Feature", "properties": {"route_name": "11G", "stop_id": "iPNesxKP", "name": "Simson Or Periyar Bridge", "city": "CHENNAI"}, "geometry": {"type": "Point", "coordinates": [80.27400513, 13.07108876]}}, {"type": "Feature", "properties": {"route_name": "11G", "stop_id": "NQaaFyOm", "name": "Pallavan Salai", "city": "CHENNAI"}, "geometry": {"type": "Point", "coordinates": [80.27618439, 13.0754805]}}, {"type": "Feature", "properties": {"route_name": "11G", "stop_id": "gzZgDndk", "name": "MGR Central Station", "city": "CHENNAI"}, "geometry": {"type": "Point", "coordinates": [80.27560345417622, 13.082012529953504]}}, {"type": "Feature", "properties": {"route_name": "11G", "stop_id": "KwaxxmSs", "name": "Nurse Quarters", "city": "CHENNAI"}, "geometry": {"type": "Point", "coordinates": [80.27896059391605, 13.082298318772699]}}, {"type": "Feature", "properties": {"route_name": "11G", "stop_id": "neNWquOh", "name": "Central Dental College", "city": "CHENNAI"}, "geometry": {"type": "Point", "coordinates": [80.28199470667641, 13.08298870082699]}}, {"type": "Feature", "properties": {"route_name": "11G", "stop_id": "QHFmFyLR", "name": "High Court ", "city": "CHENNAI"}, "geometry": {"type": "Point", "coordinates": [80.28344657999999, 13.085009446858479]}}, {"type": "Feature", "properties": {"route_name": "11G", "stop_id": "EkWBPXmr", "name": "Broadway", "city": "CHENNAI"}, "geometry": {"type": "Point", "coordinates": [80.28388983, 13.08820568]}}, {"type": "Feature", "properties": {"name": "11G"}, "geometry": {"type": "LineString", "coordinates": [[80.2056, 13.03575], [80.20431, 13.03594], [80.20411, 13.03599], [80.20344, 13.03609], [80.20257, 13.0362], [80.2016, 13.03635], [80.19844, 13.03681], [80.19764, 13.03693], [80.19652, 13.0371], [80.19604, 13.03718], [80.19494, 13.03734], [80.19313, 13.03757], [80.19294, 13.03761], [80.19289, 13.03763], [80.19281, 13.0377], [80.19276, 13.03779], [80.19272, 13.03795], [80.19279, 13.03808], [80.19282, 13.03835], [80.19285, 13.03853], [80.19294, 13.03928], [80.19312, 13.04041], [80.19339, 13.04188], [80.19365, 13.04185], [80.19645, 13.04145], [80.19676, 13.04142], [80.19707, 13.04136], [80.1982, 13.04118], [80.19924, 13.04102], [80.19925, 13.04106], [80.19923, 13.04103], [80.20115, 13.04077], [80.20436, 13.0403], [80.20499, 13.04022], [80.20511, 13.04104], [80.20521, 13.04138], [80.2063, 13.04122], [80.20704, 13.04183], [80.20744, 13.04198], [80.20842, 13.04189], [80.20895, 13.04184], [80.20894, 13.04174], [80.20893, 13.04169], [80.20884, 13.0412], [80.20869, 13.04008], [80.20846, 13.03859], [80.20839, 13.03809], [80.20822, 13.03707], [80.20799, 13.03551], [80.20837, 13.03545], [80.20993, 13.03522], [80.21004, 13.03519], [80.21059, 13.03507], [80.21083, 13.03501], [80.21092, 13.03507], [80.21099, 13.03509], [80.2111, 13.03509], [80.2112, 13.03507], [80.21133, 13.03498], [80.21139, 13.03493], [80.21144, 13.03493], [80.21181, 13.03491], [80.21185, 13.03486], [80.2119, 13.03482], [80.21202, 13.03478], [80.21208, 13.03471], [80.21209, 13.03466], [80.21206, 13.03444], [80.21206, 13.03419], [80.21204, 13.03388], [80.21198, 13.03355], [80.21176, 13.03199], [80.21261, 13.03186], [80.21512, 13.03151], [80.2157, 13.03145], [80.21598, 13.03144], [80.21598, 13.03212], [80.21603, 13.03288], [80.21605, 13.03359], [80.21613, 13.03426], [80.21604, 13.03427], [80.21613, 13.03426], [80.2162, 13.03491], [80.21626, 13.03592], [80.21627, 13.03623], [80.2171, 13.03617], [80.21842, 13.03604], [80.21907, 13.03598], [80.21987, 13.03594], [80.22052, 13.03591], [80.22054, 13.03603], [80.22059, 13.03636], [80.22062, 13.03652], [80.22085, 13.03757], [80.22104, 13.0386], [80.22116, 13.0391], [80.22127, 13.03971], [80.2215, 13.04074], [80.22171, 13.04166], [80.22206, 13.04291], [80.22244, 13.04283], [80.22299, 13.04267], [80.22411, 13.04237], [80.22463, 13.04225], [80.22562, 13.04204], [80.22673, 13.04177], [80.22712, 13.04165], [80.22752, 13.04157], [80.22857, 13.04132], [80.22875, 13.04126], [80.22941, 13.0411], [80.23085, 13.04082], [80.23177, 13.0406], [80.23196, 13.0409], [80.23198, 13.041], [80.23205, 13.04124], [80.23211, 13.0415], [80.23224, 13.04223], [80.23256, 13.04217], [80.23306, 13.04205], [80.23308, 13.04215], [80.23306, 13.04205], [80.23357, 13.04195], [80.23397, 13.04187], [80.23411, 13.04185], [80.23403, 13.04162], [80.23393, 13.0412], [80.23468, 13.04112], [80.23544, 13.04103], [80.23885, 13.04059], [80.23957, 13.04047], [80.24036, 13.04038], [80.24049, 13.04042], [80.24155, 13.04031], [80.24216, 13.04024], [80.24322, 13.04009], [80.2433, 13.04008], [80.24392, 13.04], [80.24453, 13.03985], [80.24556, 13.0396], [80.24645, 13.03935], [80.24682, 13.03923], [80.24701, 13.04], [80.24715, 13.04073], [80.2473, 13.04156], [80.24739, 13.04195], [80.24752, 13.04254], [80.24802, 13.04492], [80.24812, 13.04543], [80.24817, 13.04576], [80.24821, 13.04592], [80.24832, 13.04652], [80.24836, 13.04689], [80.24837, 13.04696], [80.24841, 13.04712], [80.24852, 13.04736], [80.24885, 13.04773], [80.24929, 13.0482], [80.24955, 13.04855], [80.24962, 13.04879], [80.24973, 13.0494], [80.24977, 13.04982], [80.24989, 13.05024], [80.25005, 13.05109], [80.25011, 13.05128], [80.25025, 13.05159], [80.25052, 13.05202], [80.25065, 13.05214], [80.25098, 13.05241], [80.25168, 13.0529], [80.25293, 13.05381], [80.25406, 13.05467], [80.25485, 13.05527], [80.25562, 13.05585], [80.25619, 13.05624], [80.25647, 13.05648], [80.25657, 13.0566], [80.25677, 13.05683], [80.25712, 13.05723], [80.25737, 13.05751], [80.25751, 13.05764], [80.25763, 13.05769], [80.25803, 13.05809], [80.25809, 13.05813], [80.25873, 13.05867], [80.25925, 13.05906], [80.25993, 13.05961], [80.26005, 13.05977], [80.26087, 13.06039], [80.26078, 13.06049], [80.2609, 13.06058], [80.26105, 13.06069], [80.26129, 13.06088], [80.26188, 13.06137], [80.26234, 13.06174], [80.26249, 13.06183], [80.26261, 13.06185], [80.26297, 13.06215], [80.26393, 13.06293], [80.26429, 13.06322], [80.26448, 13.0634], [80.26488, 13.06374], [80.26535, 13.06411], [80.26591, 13.06458], [80.2672, 13.06563], [80.26746, 13.06582], [80.26781, 13.06609], [80.26814, 13.06631], [80.26817, 13.06636], [80.26823, 13.06648], [80.26832, 13.06663], [80.26837, 13.0667], [80.26841, 13.06682], [80.2686, 13.06711], [80.2689, 13.06756], [80.26898, 13.06771], [80.2693, 13.06829], [80.26945, 13.0683], [80.26988, 13.06823], [80.27032, 13.06821], [80.27085, 13.06819], [80.27125, 13.06816], [80.27169, 13.06846], [80.27179, 13.06857], [80.27187, 13.06874], [80.2721, 13.0692], [80.27224, 13.06939], [80.27235, 13.06952], [80.27278, 13.06986], [80.27391, 13.07078], [80.27403, 13.07108], [80.27435, 13.07177], [80.27459, 13.07208], [80.27497, 13.07243], [80.27636, 13.07371], [80.27632, 13.07398], [80.27623, 13.07516], [80.27622, 13.07548], [80.27612, 13.07789], [80.27608, 13.07801], [80.27601, 13.07809], [80.27588, 13.07815], [80.27556, 13.07825], [80.27533, 13.07835], [80.27518, 13.07851], [80.27514, 13.07859], [80.2751, 13.07872], [80.2751, 13.07889], [80.27516, 13.0792], [80.27524, 13.07962], [80.27527, 13.07988], [80.27527, 13.08001], [80.27519, 13.0813], [80.27516, 13.08164], [80.27516, 13.08172], [80.27525, 13.08186], [80.27527, 13.0819], [80.27533, 13.08193], [80.27553, 13.08198], [80.27561, 13.08199], [80.27585, 13.08202], [80.27592, 13.08202], [80.276, 13.08188], [80.27602, 13.08183], [80.27623, 13.08187], [80.27656, 13.08192], [80.27793, 13.08212], [80.27844, 13.08216], [80.27897, 13.08221], [80.27896, 13.08219], [80.279, 13.08221], [80.28129, 13.08239], [80.28168, 13.08239], [80.28203, 13.08297], [80.28205, 13.08296], [80.28253, 13.08375], [80.28303, 13.08448], [80.28334, 13.08483], [80.2835, 13.08495], [80.28367, 13.08506], [80.28366, 13.08519], [80.28363, 13.08548], [80.28351, 13.08552], [80.2835, 13.08599], [80.28354, 13.0863], [80.28361, 13.08653], [80.28387, 13.08822]]}}]}