{"type": "FeatureCollection", "features": [{"type": "Feature", "properties": {"route_name": "95X", "stop_id": "gyQqEnFq", "name": "Thiruvanmiyur Depot", "city": "CHENNAI"}, "geometry": {"type": "Point", "coordinates": [80.2592892551454, 12.98684992620367]}}, {"type": "Feature", "properties": {"route_name": "95X", "stop_id": "qjwSVoCq", "name": "Tidel Park", "city": "CHENNAI"}, "geometry": {"type": "Point", "coordinates": [80.25166113484738, 12.987417059703843]}}, {"type": "Feature", "properties": {"route_name": "95X", "stop_id": "WynPMslR", "name": "SRP Tools", "city": "CHENNAI"}, "geometry": {"type": "Point", "coordinates": [80.25253830988527, 12.978613932506057]}}, {"type": "Feature", "properties": {"route_name": "95X", "stop_id": "vHkAlmCm", "name": "I G P", "city": "CHENNAI"}, "geometry": {"type": "Point", "coordinates": [80.25031108025769, 12.972735115385722]}}, {"type": "Feature", "properties": {"route_name": "95X", "stop_id": "GnOurcjN", "name": "Kandanchavadi", "city": "CHENNAI"}, "geometry": {"type": "Point", "coordinates": [80.24755243721381, 12.965315280574965]}}, {"type": "Feature", "properties": {"route_name": "95X", "stop_id": "yfIoPTHo", "name": "Perungudi", "city": "CHENNAI"}, "geometry": {"type": "Point", "coordinates": [80.24487159, 12.95946873]}}, {"type": "Feature", "properties": {"route_name": "95X", "stop_id": "EXTmTMKf", "name": "Seevaram", "city": "CHENNAI"}, "geometry": {"type": "Point", "coordinates": [80.24178128, 12.95164677]}}, {"type": "Feature", "properties": {"route_name": "95X", "stop_id": "zjGRmLyo", "name": "D B Jain College", "city": "CHENNAI"}, "geometry": {"type": "Point", "coordinates": [80.24000047, 12.94693162]}}, {"type": "Feature", "properties": {"route_name": "95X", "stop_id": "xbhuXgnr", "name": "Infoview Thoraipakkam", "city": "CHENNAI"}, "geometry": {"type": "Point", "coordinates": [80.23752734458492, 12.943733154235094]}}, {"type": "Feature", "properties": {"route_name": "95X", "stop_id": "JGydtICe", "name": "Mettukuppam", "city": "CHENNAI"}, "geometry": {"type": "Point", "coordinates": [80.23561417, 12.939223]}}, {"type": "Feature", "properties": {"route_name": "95X", "stop_id": "RtTLxXUv", "name": "PTC Quarters Or Mootakaran Chavadi", "city": "CHENNAI"}, "geometry": {"type": "Point", "coordinates": [80.23319617, 12.93422046]}}, {"type": "Feature", "properties": {"route_name": "95X", "stop_id": "FtWuEuzF", "name": "Okkiyampet", "city": "CHENNAI"}, "geometry": {"type": "Point", "coordinates": [80.23107766, 12.92583502]}}, {"type": "Feature", "properties": {"route_name": "95X", "stop_id": "ACkvbmee", "name": "KCG College", "city": "CHENNAI"}, "geometry": {"type": "Point", "coordinates": [80.23024746617386, 12.919637424938962]}}, {"type": "Feature", "properties": {"route_name": "95X", "stop_id": "wqGWmwVd", "name": "Karapakkam", "city": "CHENNAI"}, "geometry": {"type": "Point", "coordinates": [80.22938008346091, 12.913269786666612]}}, {"type": "Feature", "properties": {"route_name": "95X", "stop_id": "HxnLIWQq", "name": "Dollar Or Accenture", "city": "CHENNAI"}, "geometry": {"type": "Point", "coordinates": [80.22838879, 12.90631206]}}, {"type": "Feature", "properties": {"route_name": "95X", "stop_id": "ZqBGCTqq", "name": "P U Office Sholinganallur", "city": "CHENNAI"}, "geometry": {"type": "Point", "coordinates": [80.22815779090502, 12.903103588978746]}}, {"type": "Feature", "properties": {"route_name": "95X", "stop_id": "BMDeXhVp", "name": "HCL Company", "city": "CHENNAI"}, "geometry": {"type": "Point", "coordinates": [80.21825826322174, 12.901606636370014]}}, {"type": "Feature", "properties": {"route_name": "95X", "stop_id": "RchOKnYD", "name": "Global Hospital", "city": "CHENNAI"}, "geometry": {"type": "Point", "coordinates": [80.20801933292091, 12.905339416156119]}}, {"type": "Feature", "properties": {"route_name": "95X", "stop_id": "JZbiEaEt", "name": "Bharathi Vidyalaya", "city": "CHENNAI"}, "geometry": {"type": "Point", "coordinates": [80.2019175573671, 12.907473728058768]}}, {"type": "Feature", "properties": {"route_name": "95X", "stop_id": "LsuNFzpq", "name": "Perumbakkam", "city": "CHENNAI"}, "geometry": {"type": "Point", "coordinates": [80.19887966709041, 12.907649955704613]}}, {"type": "Feature", "properties": {"route_name": "95X", "stop_id": "kVCEAUTv", "name": "Pallavan Nagar", "city": "CHENNAI"}, "geometry": {"type": "Point", "coordinates": [80.19619733627133, 12.910885931747881]}}, {"type": "Feature", "properties": {"route_name": "95X", "stop_id": "dHuMOmqh", "name": "Medavakkam Junction", "city": "CHENNAI"}, "geometry": {"type": "Point", "coordinates": [80.19285620789992, 12.916974279647274]}}, {"type": "Feature", "properties": {"route_name": "95X", "stop_id": "LDSuadxM", "name": "Medavakkam Koot Road", "city": "CHENNAI"}, "geometry": {"type": "Point", "coordinates": [80.18506928718648, 12.920436910102584]}}, {"type": "Feature", "properties": {"route_name": "95X", "stop_id": "OhBAPvsb", "name": "Medavakkam", "city": "CHENNAI"}, "geometry": {"type": "Point", "coordinates": [80.18177681698546, 12.919679021015655]}}, {"type": "Feature", "properties": {"route_name": "95X", "stop_id": "SOzmnmNW", "name": "Vijaya Nagaram", "city": "CHENNAI"}, "geometry": {"type": "Point", "coordinates": [80.17887353649951, 12.918774346776358]}}, {"type": "Feature", "properties": {"route_name": "95X", "stop_id": "fPhIOSOj", "name": "Santhosapuram", "city": "CHENNAI"}, "geometry": {"type": "Point", "coordinates": [80.17127853007378, 12.919726217964017]}}, {"type": "Feature", "properties": {"route_name": "95X", "stop_id": "SgXyhVwd", "name": "Sivet", "city": "CHENNAI"}, "geometry": {"type": "Point", "coordinates": [80.16794055890989, 12.920755069426948]}}, {"type": "Feature", "properties": {"route_name": "95X", "stop_id": "llFTEWtD", "name": "Sembakkam", "city": "CHENNAI"}, "geometry": {"type": "Point", "coordinates": [80.16030140509429, 12.923158652199788]}}, {"type": "Feature", "properties": {"route_name": "95X", "stop_id": "IulxyPoH", "name": "Kamarajapuram Camp Road", "city": "CHENNAI"}, "geometry": {"type": "Point", "coordinates": [80.15498377076062, 12.923374958898465]}}, {"type": "Feature", "properties": {"route_name": "95X", "stop_id": "PXPVuGmP", "name": "Mahalakshmi Nagar", "city": "CHENNAI"}, "geometry": {"type": "Point", "coordinates": [80.14737610606244, 12.922571293296809]}}, {"type": "Feature", "properties": {"route_name": "95X", "stop_id": "fQRLOpha", "name": "Camp Road Junction Selaiyur", "city": "CHENNAI"}, "geometry": {"type": "Point", "coordinates": [80.14366724623437, 12.922460660937919]}}, {"type": "Feature", "properties": {"route_name": "95X", "stop_id": "byRkdSCW", "name": "Selaiyur", "city": "CHENNAI"}, "geometry": {"type": "Point", "coordinates": [80.13835491840268, 12.922392941063933]}}, {"type": "Feature", "properties": {"route_name": "95X", "stop_id": "hFISFuCO", "name": "East Tambaram Convent", "city": "CHENNAI"}, "geometry": {"type": "Point", "coordinates": [80.13105561978773, 12.922724324147596]}}, {"type": "Feature", "properties": {"route_name": "95X", "stop_id": "BxmxkKGC", "name": "Tambaram East Bus Stop", "city": "CHENNAI"}, "geometry": {"type": "Point", "coordinates": [80.12062185170589, 12.923224179122043]}}, {"type": "Feature", "properties": {"route_name": "95X", "stop_id": "AUmOMGnp", "name": "Irumbuliyur", "city": "CHENNAI"}, "geometry": {"type": "Point", "coordinates": [80.10666718, 12.91663681]}}, {"type": "Feature", "properties": {"route_name": "95X", "stop_id": "YqlTLIQa", "name": "Perungalatgur Lake View Stop", "city": "CHENNAI"}, "geometry": {"type": "Point", "coordinates": [80.0985925050926, 12.908779320619445]}}, {"type": "Feature", "properties": {"route_name": "95X", "stop_id": "ALhaazBT", "name": "Perungalattur", "city": "CHENNAI"}, "geometry": {"type": "Point", "coordinates": [80.09644663992617, 12.906403356437842]}}, {"type": "Feature", "properties": {"route_name": "95X", "stop_id": "AoRkaUmb", "name": "Sriram Gate", "city": "CHENNAI"}, "geometry": {"type": "Point", "coordinates": [80.09228760816568, 12.900984026911052]}}, {"type": "Feature", "properties": {"route_name": "95X", "stop_id": "KgwKZlse", "name": "Iraniyamman Koil", "city": "CHENNAI"}, "geometry": {"type": "Point", "coordinates": [80.08960316901448, 12.897427677710802]}}, {"type": "Feature", "properties": {"route_name": "95X", "stop_id": "FZsFzszJ", "name": "Vandalur Gate", "city": "CHENNAI"}, "geometry": {"type": "Point", "coordinates": [80.08640892276996, 12.89311473169435]}}, {"type": "Feature", "properties": {"route_name": "95X", "stop_id": "gzTQJVMW", "name": "Vandalur Zoo", "city": "CHENNAI"}, "geometry": {"type": "Point", "coordinates": [80.0808152705822, 12.88055624912894]}}, {"type": "Feature", "properties": {"route_name": "95X", "stop_id": "RVEyrwjR", "name": "Kilambakkam Bus Terminus", "city": "CHENNAI"}, "geometry": {"type": "Point", "coordinates": [80.07837988343238, 12.874093789888684]}}, {"type": "Feature", "properties": {"name": "95X"}, "geometry": {"type": "LineString", "coordinates": [[80.25907, 12.98689], [80.25917, 12.98734], [80.25857, 12.98739], [80.2573, 12.98749], [80.2559, 12.9876], [80.25576, 12.98764], [80.25509, 12.98772], [80.25239, 12.98797], [80.25213, 12.98795], [80.25169, 12.98785], [80.25159, 12.98768], [80.25167, 12.98742], [80.2519, 12.98658], [80.25218, 12.98541], [80.25229, 12.98504], [80.25221, 12.985], [80.2524, 12.98432], [80.2526, 12.98347], [80.2527, 12.98274], [80.25277, 12.97998], [80.25275, 12.97959], [80.25271, 12.97907], [80.25267, 12.97891], [80.25255, 12.97861], [80.25241, 12.97837], [80.2521, 12.97799], [80.25179, 12.97763], [80.25161, 12.97739], [80.25147, 12.97713], [80.25134, 12.97675], [80.25085, 12.97502], [80.25093, 12.975], [80.25087, 12.97479], [80.25072, 12.97432], [80.25045, 12.97334], [80.25029, 12.97274], [80.24993, 12.9714], [80.24975, 12.97078], [80.24962, 12.97034], [80.24951, 12.97008], [80.24898, 12.9688], [80.24865, 12.96793], [80.24854, 12.96765], [80.24841, 12.96738], [80.24811, 12.9668], [80.24797, 12.96646], [80.24762, 12.9656], [80.24753, 12.96532], [80.24742, 12.96494], [80.247, 12.9639], [80.24687, 12.96358], [80.2467, 12.96324], [80.24633, 12.96243], [80.24536, 12.96046], [80.24528, 12.96048], [80.24513, 12.96012], [80.24484, 12.95948], [80.2446, 12.95895], [80.24436, 12.95831], [80.24417, 12.95787], [80.24398, 12.95743], [80.24382, 12.95697], [80.2436, 12.95646], [80.24333, 12.9558], [80.24313, 12.95534], [80.24284, 12.95468], [80.24243, 12.95362], [80.24182, 12.95206], [80.24169, 12.95168], [80.24142, 12.95091], [80.24087, 12.94919], [80.24041, 12.94804], [80.23996, 12.94695], [80.2395, 12.94587], [80.23927, 12.94542], [80.23907, 12.94517], [80.23879, 12.94488], [80.23797, 12.94414], [80.23753, 12.94373], [80.23714, 12.94337], [80.23686, 12.94302], [80.23665, 12.94266], [80.23653, 12.94239], [80.23646, 12.94212], [80.23627, 12.94143], [80.2361, 12.94074], [80.23592, 12.94013], [80.23572, 12.93966], [80.23541, 12.93901], [80.23485, 12.93788], [80.23449, 12.93717], [80.2342, 12.93653], [80.23386, 12.93582], [80.23394, 12.93579], [80.23458, 12.93717], [80.23462, 12.93727], [80.23492, 12.93784], [80.23512, 12.93828], [80.23527, 12.93856], [80.2356, 12.93923], [80.23527, 12.93856], [80.23512, 12.93828], [80.23492, 12.93784], [80.23462, 12.93727], [80.23458, 12.93717], [80.23394, 12.93579], [80.23333, 12.93449], [80.23321, 12.93422], [80.23295, 12.93367], [80.23288, 12.93369], [80.23276, 12.9334], [80.23256, 12.93291], [80.23186, 12.93086], [80.23166, 12.93014], [80.23139, 12.92896], [80.23114, 12.92705], [80.23107, 12.92634], [80.23114, 12.92633], [80.23109, 12.92583], [80.23099, 12.92517], [80.23098, 12.92508], [80.23091, 12.92509], [80.23075, 12.92389], [80.23064, 12.92299], [80.23033, 12.92083], [80.23019, 12.91963], [80.23011, 12.91907], [80.23018, 12.91907], [80.23027, 12.91963], [80.23018, 12.91907], [80.23011, 12.91907], [80.22995, 12.91795], [80.22983, 12.91715], [80.22962, 12.9155], [80.2294, 12.91398], [80.22944, 12.91395], [80.22945, 12.91392], [80.22943, 12.91366], [80.22938, 12.91327], [80.22931, 12.91286], [80.22928, 12.91261], [80.22922, 12.91262], [80.22913, 12.91207], [80.22902, 12.91133], [80.22883, 12.90999], [80.22854, 12.90823], [80.22834, 12.90698], [80.22832, 12.90674], [80.22842, 12.90675], [80.22841, 12.90667], [80.22839, 12.90631], [80.22825, 12.90391], [80.2282, 12.9031], [80.22812, 12.9031], [80.22797, 12.90092], [80.22762, 12.90093], [80.22566, 12.90099], [80.22322, 12.90105], [80.22269, 12.9011], [80.22222, 12.90116], [80.22181, 12.9012], [80.22053, 12.90135], [80.2194, 12.90149], [80.21826, 12.90163], [80.21823, 12.90163], [80.21731, 12.90179], [80.21686, 12.90189], [80.21476, 12.90267], [80.21384, 12.90305], [80.2121, 12.90371], [80.21048, 12.90436], [80.20986, 12.90463], [80.20842, 12.90522], [80.20804, 12.90538], [80.20714, 12.90577], [80.20554, 12.90642], [80.20521, 12.90657], [80.20498, 12.90671], [80.20442, 12.90711], [80.20418, 12.90721], [80.2039, 12.90731], [80.20357, 12.90737], [80.20324, 12.90741], [80.20266, 12.90745], [80.20192, 12.90748], [80.2013, 12.90754], [80.19889, 12.90771], [80.19872, 12.90774], [80.1986, 12.90779], [80.19845, 12.90791], [80.19811, 12.90835], [80.19736, 12.90944], [80.19721, 12.9096], [80.19647, 12.91066], [80.19626, 12.91093], [80.19587, 12.91144], [80.19517, 12.91252], [80.19507, 12.91272], [80.19474, 12.91413], [80.1943, 12.91625], [80.19418, 12.91698], [80.19401, 12.91694], [80.1937, 12.91692], [80.19294, 12.91698], [80.19286, 12.91699], [80.19236, 12.91704], [80.19231, 12.91606], [80.19223, 12.91477], [80.19212, 12.91397], [80.19204, 12.91324], [80.19198, 12.91325], [80.19093, 12.91341], [80.1897, 12.91361], [80.18857, 12.91378], [80.18881, 12.9147], [80.189, 12.91541], [80.18846, 12.91554], [80.18837, 12.9158], [80.18826, 12.91603], [80.1882, 12.91616], [80.18817, 12.91632], [80.18817, 12.91642], [80.18826, 12.91689], [80.18837, 12.91737], [80.18891, 12.91727], [80.18908, 12.91773], [80.18902, 12.91786], [80.18834, 12.91836], [80.18817, 12.91849], [80.18745, 12.9191], [80.18698, 12.91949], [80.18632, 12.92007], [80.1858, 12.92042], [80.1857, 12.92045], [80.18532, 12.92047], [80.18507, 12.92044], [80.18403, 12.9202], [80.18371, 12.92012], [80.18239, 12.91979], [80.18178, 12.91965], [80.18046, 12.91939], [80.17943, 12.91912], [80.17915, 12.91899], [80.17885, 12.9188], [80.17832, 12.91841], [80.17811, 12.91828], [80.17788, 12.91821], [80.1778, 12.91821], [80.17768, 12.91821], [80.17721, 12.91829], [80.17658, 12.91839], [80.17618, 12.91848], [80.17575, 12.9186], [80.17268, 12.91938], [80.17128, 12.91973], [80.17065, 12.91996], [80.17022, 12.92008], [80.16982, 12.9202], [80.16795, 12.92078], [80.16671, 12.92116], [80.16599, 12.9214], [80.16459, 12.92188], [80.16295, 12.92237], [80.16094, 12.92303], [80.16032, 12.9232], [80.16004, 12.92328], [80.15951, 12.92335], [80.15838, 12.92347], [80.15637, 12.92366], [80.15607, 12.92367], [80.15592, 12.92366], [80.15553, 12.92358], [80.15507, 12.92344], [80.15497, 12.92341], [80.15417, 12.92323], [80.15248, 12.9228], [80.15186, 12.92269], [80.15131, 12.92268], [80.15091, 12.92268], [80.15036, 12.92266], [80.14976, 12.92264], [80.14888, 12.92259], [80.1482, 12.9226], [80.14738, 12.92259], [80.14566, 12.92255], [80.14446, 12.92251], [80.14367, 12.92249], [80.14214, 12.92242], [80.14141, 12.92241], [80.13915, 12.92238], [80.13846, 12.92243], [80.13836, 12.92244], [80.13592, 12.92254], [80.13505, 12.92259], [80.13327, 12.92266], [80.13106, 12.92275], [80.13045, 12.92276], [80.12984, 12.9228], [80.12891, 12.92283], [80.128, 12.92288], [80.12744, 12.92288], [80.12477, 12.92298], [80.12309, 12.92306], [80.12141, 12.92316], [80.12062, 12.92323], [80.11933, 12.92335], [80.11886, 12.92337], [80.11843, 12.92341], [80.11754, 12.9236], [80.11706, 12.92372], [80.11579, 12.92403], [80.11566, 12.92406], [80.11557, 12.92407], [80.1155, 12.92412], [80.11512, 12.92374], [80.11478, 12.92339], [80.11405, 12.92266], [80.11303, 12.92165], [80.11294, 12.92155], [80.11228, 12.92099], [80.11219, 12.92095], [80.11214, 12.92094], [80.11193, 12.92073], [80.11113, 12.91996], [80.11077, 12.91965], [80.11006, 12.91909], [80.10945, 12.9186], [80.10911, 12.91834], [80.10855, 12.91789], [80.1077, 12.91723], [80.10717, 12.91692], [80.10665, 12.91667], [80.10585, 12.91622], [80.10479, 12.91568], [80.10358, 12.91503], [80.10294, 12.91465], [80.10269, 12.91448], [80.102, 12.91397], [80.10171, 12.91364], [80.10163, 12.91336], [80.10157, 12.91293], [80.10148, 12.9117], [80.10137, 12.91115], [80.10125, 12.91079], [80.10115, 12.91057], [80.10102, 12.91037], [80.1008, 12.91011], [80.10061, 12.90996], [80.10031, 12.90978], [80.09961, 12.90946], [80.09915, 12.90924], [80.09884, 12.90905], [80.09855, 12.90884], [80.09818, 12.90851], [80.09802, 12.90835], [80.09774, 12.90802], [80.09738, 12.90757], [80.09692, 12.90697], [80.09647, 12.90639], [80.09584, 12.90556], [80.09452, 12.90371], [80.09418, 12.90331], [80.0937, 12.90279], [80.09338, 12.9024], [80.09279, 12.90161], [80.09231, 12.90096], [80.08961, 12.89742], [80.08833, 12.89571], [80.08755, 12.89466], [80.08712, 12.89406], [80.08663, 12.89345], [80.08639, 12.89313], [80.08599, 12.89259], [80.08596, 12.89254], [80.08555, 12.89193], [80.08534, 12.89156], [80.08493, 12.89061], [80.08432, 12.88918], [80.08388, 12.88808], [80.08272, 12.88527], [80.08235, 12.88456], [80.08179, 12.88313], [80.08118, 12.88161], [80.08077, 12.88057], [80.08016, 12.87899], [80.07889, 12.87566], [80.07841, 12.87445], [80.07812, 12.87373], [80.07782, 12.87296], [80.07877, 12.87264], [80.07899, 12.87247], [80.07917, 12.87228], [80.07933, 12.87215], [80.07972, 12.872], [80.07992, 12.8719], [80.08017, 12.87206], [80.08007, 12.87261], [80.08008, 12.87302], [80.08017, 12.87329], [80.08021, 12.87353], [80.0802, 12.87363], [80.08014, 12.87372], [80.08004, 12.87381], [80.07852, 12.87438], [80.07847, 12.8744], [80.07835, 12.8741]]}}]}