{"type": "FeatureCollection", "features": [{"type": "Feature", "properties": {"route_name": "57A", "stop_id": "AIvMrZbX", "name": "Budur Hospital", "city": "CHENNAI"}, "geometry": {"type": "Point", "coordinates": [80.20666831225117, 13.234003778043753]}}, {"type": "Feature", "properties": {"route_name": "57A", "stop_id": "oTXyBJNn", "name": "Budur Ambedkar Statue", "city": "CHENNAI"}, "geometry": {"type": "Point", "coordinates": [80.20303481932024, 13.236703057662472]}}, {"type": "Feature", "properties": {"route_name": "57A", "stop_id": "rluMkzbt", "name": "Budur", "city": "CHENNAI"}, "geometry": {"type": "Point", "coordinates": [80.19887765306714, 13.238018368165557]}}, {"type": "Feature", "properties": {"route_name": "57A", "stop_id": "hSpdOQMh", "name": "Angadu", "city": "CHENNAI"}, "geometry": {"type": "Point", "coordinates": [80.18759548928483, 13.226768329201732]}}, {"type": "Feature", "properties": {"route_name": "57A", "stop_id": "CfDISmMN", "name": "Vijaya Nallur", "city": "CHENNAI"}, "geometry": {"type": "Point", "coordinates": [80.16795723752284, 13.221089683876007]}}, {"type": "Feature", "properties": {"route_name": "57A", "stop_id": "RqCzrtQl", "name": "Semilivaram Or Nallur Toll Plaza", "city": "CHENNAI"}, "geometry": {"type": "Point", "coordinates": [80.16942354725097, 13.217529803653441]}}, {"type": "Feature", "properties": {"route_name": "57A", "stop_id": "EKGAgXOm", "name": "Redhills RTO Office", "city": "CHENNAI"}, "geometry": {"type": "Point", "coordinates": [80.17027921288012, 13.214742880347412]}}, {"type": "Feature", "properties": {"route_name": "57A", "stop_id": "oaiHprKy", "name": "Padianallur Check Post Or Vijaya Nallur", "city": "CHENNAI"}, "geometry": {"type": "Point", "coordinates": [80.17245023443832, 13.20893027581583]}}, {"type": "Feature", "properties": {"route_name": "57A", "stop_id": "SgmzKmGa", "name": "Padianallur", "city": "CHENNAI"}, "geometry": {"type": "Point", "coordinates": [80.17528291918802, 13.204207501787726]}}, {"type": "Feature", "properties": {"route_name": "57A", "stop_id": "ygaPVVOX", "name": "Mondiyaman Nagar", "city": "CHENNAI"}, "geometry": {"type": "Point", "coordinates": [80.17915158915605, 13.199031609284527]}}, {"type": "Feature", "properties": {"route_name": "57A", "stop_id": "NjRgIRup", "name": "Redhills Bus Terminus", "city": "CHENNAI"}, "geometry": {"type": "Point", "coordinates": [80.18436916240239, 13.193055667425153]}}, {"type": "Feature", "properties": {"route_name": "57A", "stop_id": "twlwLPZj", "name": "Redhills Market", "city": "CHENNAI"}, "geometry": {"type": "Point", "coordinates": [80.18746140869393, 13.189656443166843]}}, {"type": "Feature", "properties": {"route_name": "57A", "stop_id": "oXDhDxhT", "name": "Ayurveda Ashramam", "city": "CHENNAI"}, "geometry": {"type": "Point", "coordinates": [80.19163019178984, 13.184532073335602]}}, {"type": "Feature", "properties": {"route_name": "57A", "stop_id": "AKEMZMhk", "name": "Sri Nallaghu Polytechnic College", "city": "CHENNAI"}, "geometry": {"type": "Point", "coordinates": [80.19489143132, 13.178770017600861]}}, {"type": "Feature", "properties": {"route_name": "57A", "stop_id": "IWuAfYeM", "name": "Thandal Kazhani", "city": "CHENNAI"}, "geometry": {"type": "Point", "coordinates": [80.1963990238952, 13.176024187726195]}}, {"type": "Feature", "properties": {"route_name": "57A", "stop_id": "aCcokpIU", "name": "Kavangarai", "city": "CHENNAI"}, "geometry": {"type": "Point", "coordinates": [80.19951553290468, 13.170491280980686]}}, {"type": "Feature", "properties": {"route_name": "57A", "stop_id": "hTBkjNzq", "name": "Puzhal Jail", "city": "CHENNAI"}, "geometry": {"type": "Point", "coordinates": [80.2026735613066, 13.163860200988898]}}, {"type": "Feature", "properties": {"route_name": "57A", "stop_id": "MyzUerZz", "name": "Puzhal Camp", "city": "CHENNAI"}, "geometry": {"type": "Point", "coordinates": [80.2039709006117, 13.158033138726143]}}, {"type": "Feature", "properties": {"route_name": "57A", "stop_id": "WlkKexEs", "name": "Kathirvedu Bypass or Cycgle Shop", "city": "CHENNAI"}, "geometry": {"type": "Point", "coordinates": [80.20837754, 13.15341405]}}, {"type": "Feature", "properties": {"route_name": "57A", "stop_id": "WKWTpoqQ", "name": "MMBT", "city": "CHENNAI"}, "geometry": {"type": "Point", "coordinates": [80.221506, 13.145276]}}, {"type": "Feature", "properties": {"route_name": "57A", "stop_id": "HEshVETB", "name": "Madhavaram Rountana", "city": "CHENNAI"}, "geometry": {"type": "Point", "coordinates": [80.2210846887445, 13.144021064037789]}}, {"type": "Feature", "properties": {"route_name": "57A", "stop_id": "XiRzIewe", "name": "Kalpana Lamps", "city": "CHENNAI"}, "geometry": {"type": "Point", "coordinates": [80.22790465024332, 13.138967850490712]}}, {"type": "Feature", "properties": {"route_name": "57A", "stop_id": "MjMnNBLG", "name": "Kanagachathiram", "city": "CHENNAI"}, "geometry": {"type": "Point", "coordinates": [80.23066447021176, 13.136911983395075]}}, {"type": "Feature", "properties": {"route_name": "57A", "stop_id": "DzkWADkh", "name": "Madhavaram Bus Depot", "city": "CHENNAI"}, "geometry": {"type": "Point", "coordinates": [80.2368966773438, 13.132365607900088]}}, {"type": "Feature", "properties": {"route_name": "57A", "stop_id": "gmiMCrrb", "name": "Moolakadai", "city": "CHENNAI"}, "geometry": {"type": "Point", "coordinates": [80.24219409350441, 13.12866686138104]}}, {"type": "Feature", "properties": {"route_name": "57A", "stop_id": "EdJUuxct", "name": "Erukancherry", "city": "CHENNAI"}, "geometry": {"type": "Point", "coordinates": [80.24720438512168, 13.124645096457845]}}, {"type": "Feature", "properties": {"route_name": "57A", "stop_id": "tWpVdCtj", "name": "Erukkancheri Toll Gate", "city": "CHENNAI"}, "geometry": {"type": "Point", "coordinates": [80.25120870835246, 13.122133843123352]}}, {"type": "Feature", "properties": {"route_name": "57A", "stop_id": "ArHpJhVJ", "name": "Sharma Nagar", "city": "CHENNAI"}, "geometry": {"type": "Point", "coordinates": [80.25477967688948, 13.120392800128268]}}, {"type": "Feature", "properties": {"route_name": "57A", "stop_id": "tBNXSyMW", "name": "Ambedkar College Vyasarpadi", "city": "CHENNAI"}, "geometry": {"type": "Point", "coordinates": [80.25941807837467, 13.118546041090246]}}, {"type": "Feature", "properties": {"route_name": "57A", "stop_id": "LRmPOeoe", "name": "MKB Nagar East", "city": "CHENNAI"}, "geometry": {"type": "Point", "coordinates": [80.26063278488402, 13.123022342817562]}}, {"type": "Feature", "properties": {"route_name": "57A", "stop_id": "cMinRgYB", "name": "Mullai Nagar Bus Stand", "city": "CHENNAI"}, "geometry": {"type": "Point", "coordinates": [80.26585474294815, 13.12235573493373]}}, {"type": "Feature", "properties": {"route_name": "57A", "stop_id": "ZBkAAevT", "name": "Vyasarpadi Sathiyamoorthy Nagar", "city": "CHENNAI"}, "geometry": {"type": "Point", "coordinates": [80.26580970574355, 13.119531819599631]}}, {"type": "Feature", "properties": {"route_name": "57A", "stop_id": "kZdBhxvo", "name": "Vyasarpadi Ashok Pillar", "city": "CHENNAI"}, "geometry": {"type": "Point", "coordinates": [80.26574993496206, 13.115407047727002]}}, {"type": "Feature", "properties": {"route_name": "57A", "stop_id": "gRuqifBH", "name": "Vyasarpadi", "city": "CHENNAI"}, "geometry": {"type": "Point", "coordinates": [80.26572369270468, 13.111378386552888]}}, {"type": "Feature", "properties": {"route_name": "57A", "stop_id": "awOEKaEj", "name": "Ramalingapuram Toll", "city": "CHENNAI"}, "geometry": {"type": "Point", "coordinates": [80.26735193234299, 13.10905860209348]}}, {"type": "Feature", "properties": {"route_name": "57A", "stop_id": "qdrjbHYS", "name": "Vallalar Nagar Bus Depot", "city": "CHENNAI"}, "geometry": {"type": "Point", "coordinates": [80.27580342110537, 13.1045538453887]}}, {"type": "Feature", "properties": {"route_name": "57A", "stop_id": "ozAxYCwR", "name": "Mint Bus Terminal Or Vallalar Nagar", "city": "CHENNAI"}, "geometry": {"type": "Point", "coordinates": [80.28041600750136, 13.105781404477456]}}, {"type": "Feature", "properties": {"name": "57A"}, "geometry": {"type": "LineString", "coordinates": [[80.20671, 13.23404], [80.20636, 13.23446], [80.20625, 13.23455], [80.20595, 13.23471], [80.20586, 13.23476], [80.20558, 13.23502], [80.20533, 13.23523], [80.20515, 13.23535], [80.2048, 13.23548], [80.20462, 13.23555], [80.2045, 13.23564], [80.20434, 13.23578], [80.20385, 13.23633], [80.20374, 13.2364], [80.20342, 13.23653], [80.20309, 13.23671], [80.20305, 13.23673], [80.20287, 13.23686], [80.20273, 13.23692], [80.20202, 13.23722], [80.20144, 13.23744], [80.20094, 13.23768], [80.20063, 13.23777], [80.19889, 13.23808], [80.1984, 13.23813], [80.19826, 13.23774], [80.19803, 13.23707], [80.19793, 13.23674], [80.19774, 13.2363], [80.19755, 13.23592], [80.19727, 13.23551], [80.19717, 13.23528], [80.19707, 13.23488], [80.19695, 13.23415], [80.1969, 13.23392], [80.19679, 13.23364], [80.19664, 13.23335], [80.19643, 13.23286], [80.19622, 13.23231], [80.19614, 13.23195], [80.19613, 13.23183], [80.19612, 13.23155], [80.19597, 13.23109], [80.19581, 13.23082], [80.19564, 13.23069], [80.19527, 13.23053], [80.1951, 13.23048], [80.19463, 13.23044], [80.19452, 13.23042], [80.19445, 13.23038], [80.19439, 13.23029], [80.19435, 13.23011], [80.19443, 13.22963], [80.1945, 13.22938], [80.19453, 13.22918], [80.19448, 13.22892], [80.19437, 13.22852], [80.19433, 13.22832], [80.19429, 13.22794], [80.19431, 13.22742], [80.1943, 13.22669], [80.19433, 13.22608], [80.19364, 13.22617], [80.19321, 13.22614], [80.19278, 13.22616], [80.19259, 13.22618], [80.19205, 13.22635], [80.19194, 13.22639], [80.19141, 13.22663], [80.19126, 13.22665], [80.19078, 13.22668], [80.19055, 13.22668], [80.19045, 13.22675], [80.19029, 13.22691], [80.19018, 13.22695], [80.18986, 13.22697], [80.18941, 13.22697], [80.18902, 13.227], [80.1875, 13.22694], [80.18751, 13.22676], [80.18752, 13.22652], [80.1875, 13.22646], [80.18746, 13.22641], [80.18738, 13.22638], [80.18709, 13.22636], [80.18703, 13.22632], [80.187, 13.22626], [80.18698, 13.22611], [80.18689, 13.22516], [80.18686, 13.22476], [80.18675, 13.22448], [80.18669, 13.22443], [80.18664, 13.22442], [80.18649, 13.22445], [80.18623, 13.22453], [80.18561, 13.22462], [80.18507, 13.22474], [80.18485, 13.22477], [80.18471, 13.22476], [80.18457, 13.22471], [80.18432, 13.22465], [80.1836, 13.22461], [80.18325, 13.22464], [80.18308, 13.22464], [80.18288, 13.22461], [80.18278, 13.22457], [80.18272, 13.22453], [80.18268, 13.22447], [80.18266, 13.22437], [80.18261, 13.2241], [80.18256, 13.22402], [80.18249, 13.22398], [80.18242, 13.22397], [80.18222, 13.22401], [80.18184, 13.22409], [80.18132, 13.22421], [80.1809, 13.22433], [80.18041, 13.22439], [80.18, 13.22439], [80.17981, 13.22435], [80.17972, 13.22431], [80.17965, 13.22425], [80.17937, 13.22404], [80.17925, 13.224], [80.17906, 13.22397], [80.17869, 13.22398], [80.17825, 13.22403], [80.17806, 13.22409], [80.17777, 13.22424], [80.17744, 13.22445], [80.17716, 13.22457], [80.17664, 13.22475], [80.17635, 13.2248], [80.17612, 13.22481], [80.17583, 13.22478], [80.17538, 13.22472], [80.17521, 13.22468], [80.17506, 13.22458], [80.17501, 13.22447], [80.17497, 13.22437], [80.1746, 13.22435], [80.17394, 13.22432], [80.17366, 13.22432], [80.17286, 13.2243], [80.17249, 13.22434], [80.1724, 13.22433], [80.17234, 13.22429], [80.17224, 13.22364], [80.1722, 13.22351], [80.17216, 13.22344], [80.17205, 13.22341], [80.17181, 13.22343], [80.17114, 13.22347], [80.17011, 13.2235], [80.16863, 13.22349], [80.16716, 13.22348], [80.16751, 13.22255], [80.16769, 13.22201], [80.16775, 13.2218], [80.16778, 13.22149], [80.16793, 13.22108], [80.16858, 13.21931], [80.16927, 13.21747], [80.16957, 13.21669], [80.16992, 13.21565], [80.17025, 13.21473], [80.17082, 13.21315], [80.17111, 13.21234], [80.17146, 13.21135], [80.17169, 13.21082], [80.17221, 13.20944], [80.17242, 13.20892], [80.17285, 13.20798], [80.17342, 13.20694], [80.17374, 13.20638], [80.17429, 13.20553], [80.17489, 13.20461], [80.17494, 13.20453], [80.17498, 13.20458], [80.17527, 13.2042], [80.1754, 13.20403], [80.17533, 13.204], [80.17631, 13.2027], [80.17767, 13.20089], [80.1791, 13.19899], [80.17988, 13.19797], [80.18023, 13.19757], [80.18053, 13.19732], [80.18096, 13.19705], [80.18124, 13.19691], [80.18133, 13.19687], [80.18127, 13.19674], [80.18119, 13.19649], [80.18146, 13.19615], [80.18262, 13.19488], [80.18293, 13.19455], [80.18315, 13.19434], [80.1837, 13.19375], [80.18434, 13.19303], [80.18436, 13.19301], [80.18546, 13.19185], [80.18631, 13.19087], [80.18743, 13.18963], [80.18794, 13.18905], [80.18796, 13.18899], [80.18818, 13.18874], [80.18848, 13.18843], [80.18889, 13.18806], [80.1891, 13.1879], [80.18922, 13.18786], [80.18926, 13.18783], [80.18938, 13.18773], [80.18953, 13.18756], [80.18962, 13.18741], [80.18992, 13.18668], [80.19006, 13.18636], [80.19016, 13.18622], [80.19026, 13.18611], [80.19055, 13.18586], [80.19072, 13.18571], [80.1909, 13.18552], [80.19115, 13.18518], [80.19135, 13.1849], [80.1915, 13.18466], [80.19159, 13.18451], [80.1917, 13.18431], [80.19177, 13.18425], [80.19181, 13.18423], [80.19203, 13.18421], [80.19224, 13.18411], [80.19228, 13.18403], [80.19239, 13.18354], [80.19264, 13.18283], [80.19286, 13.18236], [80.1931, 13.1819], [80.19355, 13.18114], [80.19441, 13.17959], [80.19487, 13.17876], [80.19639, 13.17602], [80.19787, 13.17338], [80.19949, 13.17048], [80.20021, 13.16918], [80.2005, 13.16869], [80.20042, 13.16866], [80.2005, 13.16852], [80.20112, 13.16742], [80.20173, 13.1663], [80.20198, 13.16576], [80.20219, 13.16513], [80.20242, 13.16431], [80.20248, 13.16409], [80.20258, 13.16412], [80.20264, 13.16385], [80.20275, 13.16343], [80.20295, 13.16259], [80.20304, 13.16211], [80.20312, 13.1616], [80.20334, 13.16044], [80.20341, 13.15996], [80.2035, 13.15957], [80.20376, 13.15871], [80.20375, 13.15866], [80.20371, 13.1586], [80.20374, 13.15855], [80.20381, 13.15834], [80.20394, 13.15802], [80.20395, 13.15802], [80.20423, 13.15744], [80.2044, 13.15715], [80.20449, 13.1571], [80.20455, 13.15705], [80.20498, 13.15643], [80.20521, 13.15613], [80.20568, 13.1556], [80.20593, 13.15534], [80.2066, 13.15473], [80.20807, 13.15362], [80.20836, 13.15339], [80.20888, 13.15301], [80.20928, 13.15269], [80.20925, 13.15263], [80.20955, 13.1524], [80.20983, 13.15219], [80.21106, 13.15127], [80.21232, 13.15031], [80.21453, 13.14864], [80.21638, 13.14732], [80.21773, 13.14637], [80.21821, 13.146], [80.21928, 13.14522], [80.21949, 13.14512], [80.21966, 13.14505], [80.21989, 13.14502], [80.21997, 13.14506], [80.22006, 13.14507], [80.22023, 13.14506], [80.22038, 13.14499], [80.2205, 13.14488], [80.22059, 13.14474], [80.22061, 13.14463], [80.22086, 13.14413], [80.22125, 13.14382], [80.22238, 13.14296], [80.22299, 13.1444], [80.22276, 13.14452], [80.22207, 13.14479], [80.22179, 13.1449], [80.22207, 13.14479], [80.22215, 13.14506], [80.22297, 13.14697], [80.22152, 13.14755], [80.22091, 13.14607], [80.2206, 13.14528], [80.22059, 13.14509], [80.2206, 13.14472], [80.22061, 13.14466], [80.2208, 13.14423], [80.22086, 13.14413], [80.22105, 13.14397], [80.22198, 13.14327], [80.22238, 13.14296], [80.2228, 13.14267], [80.2232, 13.14238], [80.22487, 13.14115], [80.22722, 13.13943], [80.22788, 13.13894], [80.22933, 13.13788], [80.23064, 13.13688], [80.23193, 13.13593], [80.2339, 13.1345], [80.23432, 13.13415], [80.23566, 13.13319], [80.23686, 13.13232], [80.23771, 13.13177], [80.23851, 13.1312], [80.23908, 13.13077], [80.23939, 13.13062], [80.23969, 13.1304], [80.24142, 13.12914], [80.24217, 13.12864], [80.24261, 13.12831], [80.24278, 13.12823], [80.24386, 13.12741], [80.244, 13.12727], [80.24404, 13.1272], [80.24469, 13.12671], [80.24636, 13.12542], [80.24696, 13.12482], [80.24718, 13.12462], [80.24763, 13.12419], [80.24836, 13.12357], [80.24885, 13.12318], [80.24909, 13.123], [80.24929, 13.1229], [80.24959, 13.12279], [80.25018, 13.12255], [80.2512, 13.12211], [80.25178, 13.12188], [80.25234, 13.12172], [80.25287, 13.1216], [80.25316, 13.12151], [80.25347, 13.1214], [80.25368, 13.12131], [80.25393, 13.12114], [80.25425, 13.12085], [80.25469, 13.12045], [80.25475, 13.12037], [80.25502, 13.12008], [80.25559, 13.11969], [80.25623, 13.11934], [80.25681, 13.11905], [80.25708, 13.11894], [80.25787, 13.11875], [80.25869, 13.11857], [80.25942, 13.11844], [80.25943, 13.11855], [80.25926, 13.12266], [80.25924, 13.12301], [80.2598, 13.123], [80.26063, 13.12298], [80.26472, 13.12289], [80.26575, 13.12288], [80.26578, 13.12266], [80.26577, 13.12248], [80.26576, 13.12232], [80.26585, 13.12232], [80.26576, 13.12232], [80.26576, 13.12214], [80.26575, 13.12179], [80.26575, 13.1211], [80.26573, 13.12024], [80.26574, 13.11953], [80.26573, 13.11819], [80.26569, 13.11654], [80.26573, 13.11541], [80.26567, 13.11417], [80.26564, 13.11141], [80.26563, 13.11125], [80.26598, 13.11064], [80.26598, 13.11064], [80.26669, 13.10976], [80.2674, 13.10903], [80.26736, 13.10906], [80.26779, 13.10862], [80.26872, 13.1077], [80.26909, 13.10736], [80.26975, 13.10668], [80.27076, 13.10568], [80.27086, 13.10554], [80.27099, 13.10528], [80.27132, 13.10457], [80.27136, 13.10452], [80.27144, 13.10449], [80.27186, 13.10437], [80.27197, 13.1043], [80.27225, 13.10407], [80.2724, 13.10394], [80.2725, 13.10389], [80.2726, 13.10387], [80.2727, 13.10388], [80.27288, 13.1039], [80.27343, 13.10402], [80.27429, 13.10412], [80.27505, 13.10428], [80.27527, 13.10433], [80.27549, 13.10441], [80.27582, 13.10452], [80.27676, 13.10484], [80.27723, 13.105], [80.27735, 13.10506], [80.27766, 13.10517], [80.27807, 13.1053], [80.27949, 13.1057], [80.27974, 13.10575], [80.27975, 13.10579], [80.27978, 13.10582], [80.27984, 13.10601], [80.2799, 13.10625], [80.27992, 13.10635], [80.28001, 13.10633], [80.27996, 13.10607], [80.27995, 13.10592], [80.28014, 13.10571], [80.28019, 13.10568], [80.28041, 13.10566]]}}]}