{"type": "FeatureCollection", "features": [{"type": "Feature", "properties": {"route_name": "51B", "stop_id": "ItndWSiW", "name": "Saidapet", "city": "CHENNAI"}, "geometry": {"type": "Point", "coordinates": [80.2272533, 13.02297368]}}, {"type": "Feature", "properties": {"route_name": "51B", "stop_id": "GbYxEXTt", "name": "Tamil Nadu Open University Or Panagal Maligai", "city": "CHENNAI"}, "geometry": {"type": "Point", "coordinates": [80.22567676852101, 13.021143761114198]}}, {"type": "Feature", "properties": {"route_name": "51B", "stop_id": "YmkUpvHU", "name": "Chinnamalai B S or Saidapet Court", "city": "CHENNAI"}, "geometry": {"type": "Point", "coordinates": [80.22645940770053, 13.0139397637957]}}, {"type": "Feature", "properties": {"route_name": "51B", "stop_id": "rRGVruPM", "name": "Raj Bhavan Quarters", "city": "CHENNAI"}, "geometry": {"type": "Point", "coordinates": [80.22517469844684, 13.010580746325664]}}, {"type": "Feature", "properties": {"route_name": "51B", "stop_id": "POsNTwnJ", "name": "Halda", "city": "CHENNAI"}, "geometry": {"type": "Point", "coordinates": [80.22286082, 13.0106453]}}, {"type": "Feature", "properties": {"route_name": "51B", "stop_id": "OXcUkifL", "name": "Kannaigapuram", "city": "CHENNAI"}, "geometry": {"type": "Point", "coordinates": [80.22041006, 13.00511158]}}, {"type": "Feature", "properties": {"route_name": "51B", "stop_id": "WCllcJIC", "name": "Vellacherry Check Post", "city": "CHENNAI"}, "geometry": {"type": "Point", "coordinates": [80.21657282, 12.99757362]}}, {"type": "Feature", "properties": {"route_name": "51B", "stop_id": "SEjojzMr", "name": "Guru Nanak College", "city": "CHENNAI"}, "geometry": {"type": "Point", "coordinates": [80.22023578275683, 12.990783918859547]}}, {"type": "Feature", "properties": {"route_name": "51B", "stop_id": "TgzZcdmy", "name": "Gandhi Road", "city": "CHENNAI"}, "geometry": {"type": "Point", "coordinates": [80.22308184171618, 12.987704690097594]}}, {"type": "Feature", "properties": {"route_name": "51B", "stop_id": "KIvXTDlT", "name": "Dhandeeswaran Nagar", "city": "CHENNAI"}, "geometry": {"type": "Point", "coordinates": [80.22330789312657, 12.985402644684891]}}, {"type": "Feature", "properties": {"route_name": "51B", "stop_id": "IvXmMOhB", "name": "Velachery", "city": "CHENNAI"}, "geometry": {"type": "Point", "coordinates": [80.22131848487322, 12.975765216490158]}}, {"type": "Feature", "properties": {"route_name": "51B", "stop_id": "HcKLTTXk", "name": "Velachery Railway Station", "city": "CHENNAI"}, "geometry": {"type": "Point", "coordinates": [80.21910222319366, 12.971072941036168]}}, {"type": "Feature", "properties": {"route_name": "51B", "stop_id": "UgdUAhSn", "name": "Kaiveli", "city": "CHENNAI"}, "geometry": {"type": "Point", "coordinates": [80.2159297901783, 12.963017954363247]}}, {"type": "Feature", "properties": {"route_name": "51B", "stop_id": "veAXvdUO", "name": "Balaji Nagar Medavakkam", "city": "CHENNAI"}, "geometry": {"type": "Point", "coordinates": [80.21226292919391, 12.953930801936878]}}, {"type": "Feature", "properties": {"route_name": "51B", "stop_id": "CCoJPQpR", "name": "Pallikaranai Kamachi Hospital", "city": "CHENNAI"}, "geometry": {"type": "Point", "coordinates": [80.21027843960997, 12.94862372018681]}}, {"type": "Feature", "properties": {"route_name": "51B", "stop_id": "HeidvHXY", "name": "Balaji Dental College", "city": "CHENNAI"}, "geometry": {"type": "Point", "coordinates": [80.20834064119936, 12.944050136828729]}}, {"type": "Feature", "properties": {"route_name": "51B", "stop_id": "MttNRhjN", "name": "Narayanapuram", "city": "CHENNAI"}, "geometry": {"type": "Point", "coordinates": [80.20558241790764, 12.939680883600676]}}, {"type": "Feature", "properties": {"route_name": "51B", "stop_id": "ljNlRbnZ", "name": "Oil Mill", "city": "CHENNAI"}, "geometry": {"type": "Point", "coordinates": [80.2027966497202, 12.929448223931814]}}, {"type": "Feature", "properties": {"route_name": "51B", "stop_id": "shEBYolm", "name": "Pallikaranai Government School", "city": "CHENNAI"}, "geometry": {"type": "Point", "coordinates": [80.19760757458414, 12.92632849327181]}}, {"type": "Feature", "properties": {"route_name": "51B", "stop_id": "dHuMOmqh", "name": "Medavakkam Junction", "city": "CHENNAI"}, "geometry": {"type": "Point", "coordinates": [80.19285620789992, 12.916974279647274]}}, {"type": "Feature", "properties": {"route_name": "51B", "stop_id": "lhYDMMsV", "name": "Soumya Nagar", "city": "CHENNAI"}, "geometry": {"type": "Point", "coordinates": [80.1913151260078, 12.909568211109718]}}, {"type": "Feature", "properties": {"route_name": "51B", "stop_id": "LNRgsQQF", "name": "Veerabadra Nagar", "city": "CHENNAI"}, "geometry": {"type": "Point", "coordinates": [80.18895098965663, 12.906393327883684]}}, {"type": "Feature", "properties": {"route_name": "51B", "stop_id": "KbemmdTp", "name": "Vengaivasal Road Chithalapakkam", "city": "CHENNAI"}, "geometry": {"type": "Point", "coordinates": [80.18298032385201, 12.899149150504083]}}, {"type": "Feature", "properties": {"route_name": "51B", "stop_id": "ZHWKFCEn", "name": "Chitlapakkam Koot Road", "city": "CHENNAI"}, "geometry": {"type": "Point", "coordinates": [80.18221827096158, 12.897671339022411]}}, {"type": "Feature", "properties": {"route_name": "51B", "stop_id": "VXAxIwYs", "name": "Valluvar Nagar Chithalapakkam", "city": "CHENNAI"}, "geometry": {"type": "Point", "coordinates": [80.1836120747123, 12.89329605849492]}}, {"type": "Feature", "properties": {"route_name": "51B", "stop_id": "GYMzAvFw", "name": "Jaya Nagar", "city": "CHENNAI"}, "geometry": {"type": "Point", "coordinates": [80.18456857997262, 12.890362618322953]}}, {"type": "Feature", "properties": {"route_name": "51B", "stop_id": "qduHdsCL", "name": "Sithalapakkam", "city": "CHENNAI"}, "geometry": {"type": "Point", "coordinates": [80.18430092290544, 12.887100906570595]}}, {"type": "Feature", "properties": {"route_name": "51B", "stop_id": "aBKtLgYB", "name": "Indira Nagar Chithalapakkam", "city": "CHENNAI"}, "geometry": {"type": "Point", "coordinates": [80.18847526392278, 12.886384402323834]}}, {"type": "Feature", "properties": {"route_name": "51B", "stop_id": "ubEwIGdf", "name": "Sithalapakkam Mani Kadai", "city": "CHENNAI"}, "geometry": {"type": "Point", "coordinates": [80.1899336438928, 12.884423307591884]}}, {"type": "Feature", "properties": {"route_name": "51B", "stop_id": "kWrGTFqC", "name": "Arasankazhani", "city": "CHENNAI"}, "geometry": {"type": "Point", "coordinates": [80.19283057603354, 12.878558568597528]}}, {"type": "Feature", "properties": {"route_name": "51B", "stop_id": "cgIzawVB", "name": "Tellus Avenue", "city": "CHENNAI"}, "geometry": {"type": "Point", "coordinates": [80.19139994127346, 12.869423265478886]}}, {"type": "Feature", "properties": {"route_name": "51B", "stop_id": "ZWGREbnj", "name": "Ottiyambakkam", "city": "CHENNAI"}, "geometry": {"type": "Point", "coordinates": [80.19135140411277, 12.862312932420185]}}, {"type": "Feature", "properties": {"route_name": "51B", "stop_id": "dEgXqWEW", "name": "Karanai", "city": "CHENNAI"}, "geometry": {"type": "Point", "coordinates": [80.19985459308282, 12.85872686944279]}}, {"type": "Feature", "properties": {"name": "51B"}, "geometry": {"type": "LineString", "coordinates": [[80.22722, 13.023], [80.22631, 13.02197], [80.22576, 13.02123], [80.22569, 13.02114], [80.22513, 13.02039], [80.22497, 13.02023], [80.22468, 13.01979], [80.22459, 13.01965], [80.22452, 13.01949], [80.22446, 13.01919], [80.22447, 13.01893], [80.22514, 13.01725], [80.22537, 13.01666], [80.22545, 13.01641], [80.22569, 13.01577], [80.22622, 13.01442], [80.22641, 13.01392], [80.22677, 13.01294], [80.22751, 13.01108], [80.22792, 13.01013], [80.22796, 13.00986], [80.22794, 13.00965], [80.22789, 13.00958], [80.22779, 13.00953], [80.22769, 13.00952], [80.22747, 13.00959], [80.22629, 13.01014], [80.22615, 13.01018], [80.22607, 13.01018], [80.22541, 13.0105], [80.22519, 13.01061], [80.22492, 13.01074], [80.22486, 13.01075], [80.22467, 13.01083], [80.22409, 13.01106], [80.22357, 13.01125], [80.22323, 13.01137], [80.22303, 13.01097], [80.22285, 13.01065], [80.22199, 13.00909], [80.22107, 13.00733], [80.22082, 13.00685], [80.22071, 13.00664], [80.22059, 13.00628], [80.22043, 13.00545], [80.22036, 13.00512], [80.22027, 13.00466], [80.2202, 13.00448], [80.22012, 13.00416], [80.21999, 13.00354], [80.21989, 13.00316], [80.21974, 13.00283], [80.21963, 13.00262], [80.21949, 13.00246], [80.21882, 13.00183], [80.21866, 13.00167], [80.21834, 13.00127], [80.21813, 13.00095], [80.21777, 13.00034], [80.21722, 12.99944], [80.21699, 12.99901], [80.21684, 12.99871], [80.21669, 12.99837], [80.21662, 12.99814], [80.21657, 12.99788], [80.21654, 12.99758], [80.21653, 12.99694], [80.21657, 12.99655], [80.21661, 12.99624], [80.21676, 12.99568], [80.21692, 12.99529], [80.21711, 12.99499], [80.21729, 12.99473], [80.21885, 12.99258], [80.21955, 12.99161], [80.21978, 12.99132], [80.22022, 12.99077], [80.22068, 12.99015], [80.22088, 12.98994], [80.22097, 12.98984], [80.22148, 12.98941], [80.22171, 12.98925], [80.22229, 12.98875], [80.22263, 12.98838], [80.22295, 12.98797], [80.22303, 12.98784], [80.22306, 12.98775], [80.22306, 12.9877], [80.22307, 12.98736], [80.22304, 12.98708], [80.22297, 12.98674], [80.22296, 12.9864], [80.22297, 12.98616], [80.22297, 12.98597], [80.223, 12.98582], [80.22303, 12.98575], [80.22313, 12.98561], [80.22324, 12.9855], [80.22329, 12.98541], [80.22329, 12.98539], [80.22329, 12.98529], [80.22323, 12.98508], [80.22302, 12.9847], [80.22284, 12.98441], [80.22261, 12.98403], [80.22208, 12.98316], [80.22187, 12.98276], [80.2217, 12.98224], [80.22159, 12.98205], [80.22125, 12.98155], [80.22107, 12.98115], [80.22098, 12.98081], [80.22098, 12.98058], [80.22102, 12.98021], [80.22104, 12.98001], [80.2211, 12.97961], [80.22115, 12.97908], [80.22118, 12.97856], [80.22121, 12.97823], [80.22119, 12.97794], [80.22121, 12.97756], [80.22123, 12.97704], [80.22121, 12.97679], [80.22122, 12.97627], [80.22142, 12.97597], [80.22128, 12.97586], [80.22125, 12.97583], [80.22083, 12.97538], [80.22075, 12.97524], [80.22062, 12.97485], [80.2204, 12.97437], [80.22013, 12.97381], [80.21993, 12.97339], [80.21955, 12.97235], [80.2194, 12.97188], [80.2191, 12.9712], [80.21905, 12.9711], [80.2191, 12.97118], [80.21906, 12.97109], [80.21905, 12.9711], [80.21878, 12.97049], [80.21854, 12.9699], [80.2177, 12.96788], [80.2175, 12.96737], [80.21705, 12.96614], [80.21634, 12.96431], [80.21582, 12.96306], [80.21435, 12.9594], [80.21384, 12.95809], [80.21333, 12.95695], [80.21305, 12.95615], [80.2122, 12.95395], [80.21143, 12.95194], [80.21112, 12.95121], [80.21116, 12.95115], [80.21117, 12.95111], [80.21107, 12.95082], [80.21025, 12.94869], [80.21023, 12.94864], [80.21014, 12.9484], [80.20975, 12.94749], [80.20909, 12.94584], [80.20904, 12.94574], [80.20898, 12.94567], [80.20892, 12.94563], [80.20864, 12.94492], [80.2084, 12.94432], [80.20829, 12.94407], [80.20807, 12.94356], [80.20789, 12.94323], [80.2078, 12.94312], [80.20763, 12.94298], [80.20726, 12.9427], [80.20712, 12.94257], [80.20659, 12.942], [80.20625, 12.94156], [80.20613, 12.94134], [80.20597, 12.94094], [80.20584, 12.94067], [80.20553, 12.9397], [80.20519, 12.93865], [80.20486, 12.93743], [80.20438, 12.93579], [80.20419, 12.93535], [80.2041, 12.93513], [80.20404, 12.93494], [80.20401, 12.93474], [80.20394, 12.93412], [80.20389, 12.93362], [80.20379, 12.93325], [80.20367, 12.93295], [80.20319, 12.93153], [80.203, 12.93092], [80.20293, 12.93067], [80.20285, 12.93013], [80.20275, 12.92945], [80.20265, 12.92879], [80.20261, 12.92871], [80.20252, 12.92863], [80.2023, 12.92856], [80.20031, 12.92842], [80.19999, 12.92838], [80.19968, 12.9283], [80.19932, 12.92816], [80.19843, 12.92775], [80.19832, 12.92768], [80.19815, 12.92751], [80.19789, 12.92711], [80.19764, 12.9266], [80.19754, 12.92634], [80.19751, 12.92615], [80.19751, 12.92555], [80.19751, 12.9247], [80.19749, 12.92375], [80.19741, 12.92297], [80.1973, 12.92229], [80.19724, 12.922], [80.1968, 12.92077], [80.1966, 12.9202], [80.19635, 12.91957], [80.1962, 12.91931], [80.19572, 12.91871], [80.19491, 12.91784], [80.19474, 12.91755], [80.1946, 12.91732], [80.19435, 12.91706], [80.19423, 12.917], [80.19403, 12.91697], [80.19371, 12.91696], [80.19329, 12.91698], [80.19286, 12.91702], [80.19195, 12.91712], [80.19082, 12.91725], [80.18942, 12.91754], [80.18846, 12.91819], [80.18807, 12.91846], [80.18811, 12.91856], [80.18869, 12.91826], [80.18903, 12.91799], [80.18959, 12.91766], [80.18987, 12.91755], [80.19085, 12.91741], [80.19142, 12.91739], [80.19234, 12.91719], [80.1923, 12.91642], [80.1922, 12.91509], [80.19208, 12.91378], [80.19188, 12.91192], [80.19179, 12.91106], [80.19172, 12.91064], [80.19163, 12.9101], [80.19143, 12.90979], [80.1914, 12.90971], [80.19128, 12.90959], [80.19027, 12.90825], [80.18977, 12.90761], [80.18967, 12.90743], [80.18921, 12.90685], [80.1889, 12.90642], [80.18802, 12.90504], [80.18761, 12.90445], [80.18748, 12.90424], [80.18735, 12.90409], [80.18723, 12.90403], [80.18707, 12.904], [80.18616, 12.90402], [80.1855, 12.90405], [80.18502, 12.90406], [80.18477, 12.90403], [80.18471, 12.904], [80.18465, 12.90392], [80.18446, 12.90334], [80.1839, 12.90133], [80.18376, 12.90087], [80.18358, 12.90048], [80.18291, 12.89918], [80.18214, 12.89771], [80.1821, 12.89763], [80.18219, 12.89744], [80.18225, 12.89727], [80.18271, 12.89588], [80.18301, 12.89497], [80.18341, 12.89379], [80.18357, 12.89328], [80.18386, 12.89245], [80.18411, 12.89158], [80.18454, 12.89034], [80.18458, 12.89007], [80.18449, 12.88931], [80.18428, 12.88786], [80.18421, 12.88718], [80.18426, 12.88707], [80.18428, 12.88705], [80.18502, 12.88687], [80.18548, 12.88676], [80.18632, 12.88659], [80.1876, 12.88643], [80.18843, 12.88635], [80.18847, 12.88635], [80.1888, 12.88629], [80.18887, 12.88626], [80.18944, 12.88578], [80.18961, 12.88565], [80.18979, 12.88548], [80.18991, 12.88532], [80.18993, 12.8852], [80.18991, 12.88497], [80.1899, 12.88472], [80.18989, 12.88442], [80.18989, 12.88372], [80.1899, 12.88353], [80.18994, 12.88338], [80.19001, 12.88324], [80.19008, 12.88316], [80.19021, 12.88305], [80.19033, 12.88297], [80.19145, 12.88249], [80.19244, 12.88207], [80.19242, 12.88155], [80.19243, 12.88104], [80.19246, 12.88068], [80.19249, 12.87996], [80.19266, 12.8791], [80.19276, 12.87855], [80.19284, 12.87813], [80.19282, 12.87798], [80.19281, 12.87791], [80.19279, 12.87781], [80.19267, 12.87755], [80.19255, 12.87724], [80.19246, 12.87692], [80.19228, 12.87629], [80.19219, 12.8759], [80.19206, 12.8752], [80.19196, 12.8743], [80.19196, 12.87382], [80.19197, 12.87328], [80.19193, 12.87271], [80.19178, 12.87188], [80.19137, 12.86943], [80.19117, 12.8685], [80.19103, 12.86754], [80.19103, 12.86741], [80.19107, 12.86719], [80.1912, 12.86633], [80.19125, 12.86585], [80.19123, 12.86533], [80.19118, 12.8646], [80.1912, 12.8634], [80.19125, 12.86246], [80.1913, 12.86229], [80.19136, 12.8622], [80.19199, 12.8621], [80.1922, 12.86207], [80.19266, 12.86197], [80.19276, 12.86192], [80.19283, 12.86182], [80.19296, 12.86151], [80.19323, 12.86081], [80.19329, 12.8607], [80.19396, 12.86022], [80.19423, 12.86006], [80.19442, 12.85998], [80.19524, 12.85976], [80.19619, 12.85947], [80.19714, 12.8593], [80.19857, 12.85896], [80.19985, 12.8587]]}}]}