{"type": "FeatureCollection", "features": [{"type": "Feature", "properties": {"route_name": "A45B", "stop_id": "rBCwdRqs", "name": "Trade Centre Nandambakkam", "city": "CHENNAI"}, "geometry": {"type": "Point", "coordinates": [80.18994637, 13.01661131]}}, {"type": "Feature", "properties": {"route_name": "A45B", "stop_id": "yrlDljAC", "name": "Military Quarters", "city": "CHENNAI"}, "geometry": {"type": "Point", "coordinates": [80.1958400582838, 13.010958239931021]}}, {"type": "Feature", "properties": {"route_name": "A45B", "stop_id": "IoxYvxeH", "name": "Butt Road", "city": "CHENNAI"}, "geometry": {"type": "Point", "coordinates": [80.19798216625304, 13.008673080685035]}}, {"type": "Feature", "properties": {"route_name": "A45B", "stop_id": "kVhbTVuU", "name": "Kathipara", "city": "CHENNAI"}, "geometry": {"type": "Point", "coordinates": [80.20231561780963, 13.008643215585867]}}, {"type": "Feature", "properties": {"route_name": "A45B", "stop_id": "mnkgCFDT", "name": "Guindy Bus Terminus", "city": "CHENNAI"}, "geometry": {"type": "Point", "coordinates": [80.21114278309233, 13.009411553087547]}}, {"type": "Feature", "properties": {"route_name": "A45B", "stop_id": "WOOyqinT", "name": "Chellammal College", "city": "CHENNAI"}, "geometry": {"type": "Point", "coordinates": [80.22076239073908, 13.012293483983404]}}, {"type": "Feature", "properties": {"route_name": "A45B", "stop_id": "FyoAuDvn", "name": "Little Mount ", "city": "CHENNAI"}, "geometry": {"type": "Point", "coordinates": [80.2250649963828, 13.015597546918361]}}, {"type": "Feature", "properties": {"route_name": "A45B", "stop_id": "NXLrCKMp", "name": "Panagal Maligai Or Saiadapet Bridge", "city": "CHENNAI"}, "geometry": {"type": "Point", "coordinates": [80.2243533022414, 13.019119618356324]}}, {"type": "Feature", "properties": {"route_name": "A45B", "stop_id": "xiTGCYEl", "name": "Saidapet", "city": "CHENNAI"}, "geometry": {"type": "Point", "coordinates": [80.22645189784225, 13.02237471448576]}}, {"type": "Feature", "properties": {"route_name": "A45B", "stop_id": "yNIUaSyZ", "name": "Thadandar Nagar", "city": "CHENNAI"}, "geometry": {"type": "Point", "coordinates": [80.22842398188516, 13.024420523467967]}}, {"type": "Feature", "properties": {"route_name": "A45B", "stop_id": "cNuIRYrx", "name": "Saidapet Veterinary Hospital Or Raja Hostel", "city": "CHENNAI"}, "geometry": {"type": "Point", "coordinates": [80.22971101723124, 13.025441595631346]}}, {"type": "Feature", "properties": {"route_name": "A45B", "stop_id": "OrbXRiVv", "name": "Nandanam YMCA", "city": "CHENNAI"}, "geometry": {"type": "Point", "coordinates": [80.2363018744228, 13.028867874662678]}}, {"type": "Feature", "properties": {"route_name": "A45B", "stop_id": "anWZyaGW", "name": "Nandanam Metro", "city": "CHENNAI"}, "geometry": {"type": "Point", "coordinates": [80.24096021670603, 13.031732721594496]}}, {"type": "Feature", "properties": {"route_name": "A45B", "stop_id": "NppIhzQC", "name": "SIET College", "city": "CHENNAI"}, "geometry": {"type": "Point", "coordinates": [80.24792770509089, 13.035547635758942]}}, {"type": "Feature", "properties": {"route_name": "A45B", "stop_id": "oxTBBssU", "name": "Alwarpet", "city": "CHENNAI"}, "geometry": {"type": "Point", "coordinates": [80.2547080221616, 13.035562986390449]}}, {"type": "Feature", "properties": {"route_name": "A45B", "stop_id": "utwkusWF", "name": "Anandha Puram", "city": "CHENNAI"}, "geometry": {"type": "Point", "coordinates": [80.25606501487096, 13.037373802563266]}}, {"type": "Feature", "properties": {"route_name": "A45B", "stop_id": "lDeAZniB", "name": "Anjaneyar Temple", "city": "CHENNAI"}, "geometry": {"type": "Point", "coordinates": [80.25898465949876, 13.038779668430115]}}, {"type": "Feature", "properties": {"route_name": "A45B", "stop_id": "PYpgWopD", "name": "Isabella Hospital", "city": "CHENNAI"}, "geometry": {"type": "Point", "coordinates": [80.26169113289757, 13.039411027629404]}}, {"type": "Feature", "properties": {"route_name": "A45B", "stop_id": "HUkyeYlq", "name": "Vivekananda College", "city": "CHENNAI"}, "geometry": {"type": "Point", "coordinates": [80.26415780390403, 13.039844089305062]}}, {"type": "Feature", "properties": {"route_name": "A45B", "stop_id": "QIQMIQBO", "name": "Yellow Pages", "city": "CHENNAI"}, "geometry": {"type": "Point", "coordinates": [80.26864010134545, 13.044651577404242]}}, {"type": "Feature", "properties": {"route_name": "A45B", "stop_id": "RyfxjoUl", "name": "City Centre Or Kalyani Hospital", "city": "CHENNAI"}, "geometry": {"type": "Point", "coordinates": [80.27180888324324, 13.043996920268716]}}, {"type": "Feature", "properties": {"route_name": "A45B", "stop_id": "ZyxFjabk", "name": "D G P Office", "city": "CHENNAI"}, "geometry": {"type": "Point", "coordinates": [80.27767576196356, 13.04340270398608]}}, {"type": "Feature", "properties": {"route_name": "A45B", "stop_id": "yQIotbyH", "name": "Queen Marys College", "city": "CHENNAI"}, "geometry": {"type": "Point", "coordinates": [80.27996920454484, 13.045574718368103]}}, {"type": "Feature", "properties": {"route_name": "A45B", "stop_id": "byZXHxZy", "name": "Lady Willingdon College of Education", "city": "CHENNAI"}, "geometry": {"type": "Point", "coordinates": [80.280446717887, 13.048541525502515]}}, {"type": "Feature", "properties": {"route_name": "A45B", "stop_id": "IIzQthVA", "name": "Swami Vivekananda House Terminus", "city": "CHENNAI"}, "geometry": {"type": "Point", "coordinates": [80.27976175298306, 13.050462649680185]}}, {"type": "Feature", "properties": {"route_name": "A45B", "stop_id": "bpXNEOYE", "name": "N K T Girls High School", "city": "CHENNAI"}, "geometry": {"type": "Point", "coordinates": [80.27503219042626, 13.05230189227237]}}, {"type": "Feature", "properties": {"route_name": "A45B", "stop_id": "FXEtzSuC", "name": "Ice House Police Station", "city": "CHENNAI"}, "geometry": {"type": "Point", "coordinates": [80.27373849221999, 13.052750240413026]}}, {"type": "Feature", "properties": {"route_name": "A45B", "stop_id": "LvbzkrjO", "name": "Kelet High School", "city": "CHENNAI"}, "geometry": {"type": "Point", "coordinates": [80.27396988234636, 13.057367843726857]}}, {"type": "Feature", "properties": {"route_name": "A45B", "stop_id": "WWGVlxtV", "name": "Big Street", "city": "CHENNAI"}, "geometry": {"type": "Point", "coordinates": [80.27562610156394, 13.05878688074321]}}, {"type": "Feature", "properties": {"route_name": "A45B", "stop_id": "mYoRZvtc", "name": "Triplicane", "city": "CHENNAI"}, "geometry": {"type": "Point", "coordinates": [80.27777454405555, 13.058207414404125]}}, {"type": "Feature", "properties": {"route_name": "A45B", "stop_id": "RFaTWaew", "name": "Kannagi Statue Or Presidency College", "city": "CHENNAI"}, "geometry": {"type": "Point", "coordinates": [80.28155974114793, 13.057704419772119]}}, {"type": "Feature", "properties": {"route_name": "A45B", "stop_id": "FTwVCxQy", "name": "Marina Beach", "city": "CHENNAI"}, "geometry": {"type": "Point", "coordinates": [80.28275206242665, 13.061415983604778]}}, {"type": "Feature", "properties": {"route_name": "A45B", "stop_id": "pSVDMeCH", "name": "Madras University", "city": "CHENNAI"}, "geometry": {"type": "Point", "coordinates": [80.2836325989881, 13.06540783148406]}}, {"type": "Feature", "properties": {"route_name": "A45B", "stop_id": "KplKuAnp", "name": "War Memorial", "city": "CHENNAI"}, "geometry": {"type": "Point", "coordinates": [80.28520575363859, 13.073113747429415]}}, {"type": "Feature", "properties": {"route_name": "A45B", "stop_id": "gaLZwYvS", "name": "Anna Square", "city": "CHENNAI"}, "geometry": {"type": "Point", "coordinates": [80.2844001598744, 13.066389593658073]}}, {"type": "Feature", "properties": {"name": "A45B"}, "geometry": {"type": "LineString", "coordinates": [[80.1899, 13.01654], [80.19024, 13.01633], [80.19054, 13.01617], [80.19173, 13.01552], [80.19224, 13.01522], [80.19293, 13.01484], [80.19342, 13.01449], [80.1936, 13.01432], [80.19391, 13.01389], [80.19409, 13.01361], [80.19455, 13.01287], [80.19529, 13.0117], [80.19577, 13.01092], [80.19588, 13.01074], [80.19592, 13.01062], [80.19594, 13.01038], [80.19593, 13.00975], [80.19593, 13.00961], [80.19596, 13.00944], [80.19627, 13.00876], [80.19634, 13.00868], [80.1964, 13.00864], [80.19654, 13.00862], [80.19662, 13.00862], [80.19674, 13.00858], [80.19754, 13.0086], [80.19799, 13.00864], [80.19801, 13.00865], [80.19912, 13.00865], [80.20052, 13.00869], [80.20115, 13.00867], [80.20168, 13.00861], [80.20231, 13.00858], [80.20259, 13.00857], [80.20272, 13.00852], [80.20293, 13.00844], [80.20313, 13.00834], [80.20342, 13.00804], [80.20362, 13.00788], [80.20377, 13.00782], [80.20383, 13.0078], [80.20396, 13.00777], [80.2041, 13.00778], [80.20431, 13.00779], [80.20464, 13.00778], [80.20539, 13.00777], [80.20549, 13.00774], [80.20571, 13.00773], [80.20609, 13.00777], [80.207, 13.00793], [80.20863, 13.00811], [80.20935, 13.00826], [80.20956, 13.00831], [80.21, 13.00843], [80.21034, 13.00854], [80.21103, 13.00944], [80.21111, 13.00937], [80.21142, 13.00912], [80.2115, 13.00908], [80.21171, 13.00905], [80.21202, 13.00917], [80.21236, 13.00926], [80.21301, 13.0095], [80.21447, 13.0101], [80.2146, 13.01015], [80.21487, 13.01018], [80.21549, 13.01027], [80.21567, 13.01031], [80.21585, 13.01038], [80.21671, 13.01077], [80.21745, 13.01116], [80.21795, 13.01135], [80.21865, 13.01159], [80.21987, 13.012], [80.22075, 13.01228], [80.22119, 13.01241], [80.22128, 13.01246], [80.22155, 13.01261], [80.22304, 13.01385], [80.22317, 13.01387], [80.22367, 13.01429], [80.22462, 13.01504], [80.2247, 13.0151], [80.22476, 13.01521], [80.22485, 13.01534], [80.22508, 13.01558], [80.22505, 13.01561], [80.22523, 13.01581], [80.2253, 13.01593], [80.22534, 13.01605], [80.22536, 13.01614], [80.22535, 13.01627], [80.22527, 13.01662], [80.22509, 13.01709], [80.22441, 13.01877], [80.22436, 13.0191], [80.22436, 13.01912], [80.2244, 13.01942], [80.22451, 13.0197], [80.22462, 13.01991], [80.22491, 13.02035], [80.22625, 13.02209], [80.22648, 13.02235], [80.22647, 13.02236], [80.22749, 13.02352], [80.22771, 13.02374], [80.228, 13.02395], [80.22835, 13.02432], [80.22844, 13.0244], [80.22846, 13.02437], [80.22978, 13.02536], [80.22998, 13.02552], [80.23026, 13.02571], [80.23051, 13.02583], [80.23083, 13.02593], [80.23138, 13.0261], [80.23215, 13.0263], [80.23274, 13.02654], [80.2333, 13.02684], [80.23439, 13.0275], [80.23534, 13.02804], [80.23613, 13.0287], [80.23632, 13.02885], [80.237, 13.02947], [80.23749, 13.02984], [80.23891, 13.03066], [80.23975, 13.03115], [80.24075, 13.03163], [80.24096, 13.03173], [80.24185, 13.03216], [80.24288, 13.03279], [80.24308, 13.03292], [80.24354, 13.03329], [80.24443, 13.03397], [80.24486, 13.0343], [80.24554, 13.0348], [80.24577, 13.03502], [80.24586, 13.03514], [80.24592, 13.03527], [80.24599, 13.03556], [80.24673, 13.0355], [80.24793, 13.03541], [80.24974, 13.03532], [80.25138, 13.03528], [80.25264, 13.03518], [80.25376, 13.03516], [80.25405, 13.03513], [80.25441, 13.03508], [80.25474, 13.03554], [80.25512, 13.03607], [80.25565, 13.03672], [80.25608, 13.03736], [80.25657, 13.03808], [80.25683, 13.03845], [80.2572, 13.03893], [80.25756, 13.03885], [80.25806, 13.03883], [80.25898, 13.03876], [80.25945, 13.0387], [80.25971, 13.03873], [80.26027, 13.03892], [80.2606, 13.03906], [80.26113, 13.03921], [80.26129, 13.03924], [80.26171, 13.03936], [80.2622, 13.03949], [80.2629, 13.03964], [80.26338, 13.03973], [80.26366, 13.03976], [80.26416, 13.03977], [80.26442, 13.0398], [80.26458, 13.03983], [80.26455, 13.03996], [80.26455, 13.04039], [80.26457, 13.04066], [80.26466, 13.04137], [80.2647, 13.04152], [80.26469, 13.04152], [80.26468, 13.04153], [80.26467, 13.04154], [80.26466, 13.04157], [80.26467, 13.0416], [80.26472, 13.04164], [80.26478, 13.04162], [80.2648, 13.04157], [80.26491, 13.04155], [80.26544, 13.0414], [80.2665, 13.0412], [80.2681, 13.04092], [80.26815, 13.04113], [80.26818, 13.04139], [80.26816, 13.0417], [80.26805, 13.04237], [80.26793, 13.04266], [80.26782, 13.04285], [80.26764, 13.04308], [80.26735, 13.04353], [80.26684, 13.04444], [80.26672, 13.04468], [80.26833, 13.04464], [80.26863, 13.04459], [80.26953, 13.04443], [80.27005, 13.04433], [80.27118, 13.04408], [80.2718, 13.04395], [80.2734, 13.04364], [80.27408, 13.04353], [80.27429, 13.04348], [80.27477, 13.04343], [80.27533, 13.0434], [80.27612, 13.0434], [80.27768, 13.04338], [80.27888, 13.04341], [80.27958, 13.04341], [80.2796, 13.04343], [80.27964, 13.04345], [80.27965, 13.04345], [80.27989, 13.0447], [80.27992, 13.04479], [80.27995, 13.04482], [80.28005, 13.04556], [80.28047, 13.04854], [80.28068, 13.04998], [80.28048, 13.05017], [80.28023, 13.05032], [80.27983, 13.05056], [80.27965, 13.05063], [80.27911, 13.05084], [80.27872, 13.051], [80.27836, 13.05112], [80.27702, 13.05162], [80.27678, 13.05175], [80.27627, 13.05196], [80.2755, 13.05223], [80.27536, 13.05228], [80.27507, 13.05234], [80.27505, 13.05235], [80.27375, 13.05278], [80.27368, 13.0528], [80.2737, 13.05319], [80.27374, 13.05365], [80.27384, 13.05528], [80.27389, 13.05597], [80.27393, 13.05642], [80.27392, 13.05683], [80.274, 13.05736], [80.2742, 13.05892], [80.27497, 13.05882], [80.27562, 13.05874], [80.27584, 13.0587], [80.27616, 13.0586], [80.27672, 13.05836], [80.27726, 13.05818], [80.27776, 13.05809], [80.27886, 13.05797], [80.27984, 13.05781], [80.28111, 13.05766], [80.28154, 13.0576], [80.28204, 13.05753], [80.28207, 13.05771], [80.28214, 13.05806], [80.28246, 13.05963], [80.28267, 13.06062], [80.28285, 13.06139], [80.28335, 13.06379], [80.2834, 13.06401], [80.28338, 13.06414], [80.2834, 13.06423], [80.28367, 13.0654], [80.28415, 13.06764], [80.28417, 13.06779], [80.2842, 13.06808], [80.28476, 13.07033], [80.2853, 13.07242], [80.28531, 13.07312], [80.28531, 13.07314], [80.28527, 13.07331], [80.28527, 13.07346], [80.28531, 13.07369], [80.28534, 13.07378], [80.28547, 13.0739], [80.28562, 13.07399], [80.28572, 13.07403], [80.28582, 13.07401], [80.28591, 13.07395], [80.28596, 13.07388], [80.28601, 13.0737], [80.28602, 13.07348], [80.28592, 13.07329], [80.28577, 13.07306], [80.2855, 13.07255], [80.28542, 13.07232], [80.28513, 13.07124], [80.28437, 13.06815], [80.28436, 13.06809], [80.28433, 13.06763], [80.28428, 13.06741], [80.28438, 13.06707], [80.2844, 13.06681], [80.28431, 13.06642]]}}]}