{"type": "FeatureCollection", "features": [{"type": "Feature", "properties": {"route_name": "65CCT", "stop_id": "wrsPDGBQ", "name": "Ambattur Industrial Estate", "city": "CHENNAI"}, "geometry": {"type": "Point", "coordinates": [80.17032184859568, 13.099698603449541]}}, {"type": "Feature", "properties": {"route_name": "65CCT", "stop_id": "zjjLSYAp", "name": "Telephone Exchange", "city": "CHENNAI"}, "geometry": {"type": "Point", "coordinates": [80.16247967319168, 13.101233537500907]}}, {"type": "Feature", "properties": {"route_name": "65CCT", "stop_id": "XyHfgUxW", "name": "TI Miller", "city": "CHENNAI"}, "geometry": {"type": "Point", "coordinates": [80.156478140888, 13.103561830260858]}}, {"type": "Feature", "properties": {"route_name": "65CCT", "stop_id": "fGmFhgnx", "name": "Dunlop", "city": "CHENNAI"}, "geometry": {"type": "Point", "coordinates": [80.15223695407883, 13.106193579904843]}}, {"type": "Feature", "properties": {"route_name": "65CCT", "stop_id": "rckblBTM", "name": "Canara Bank", "city": "CHENNAI"}, "geometry": {"type": "Point", "coordinates": [80.15212191275464, 13.110312595368894]}}, {"type": "Feature", "properties": {"route_name": "65CCT", "stop_id": "yQQuLFAg", "name": "Ambattur OT Bus Stand", "city": "CHENNAI"}, "geometry": {"type": "Point", "coordinates": [80.14973219597255, 13.119674819969369]}}, {"type": "Feature", "properties": {"route_name": "65CCT", "stop_id": "FlYjxOxQ", "name": "Stedford Hospital", "city": "CHENNAI"}, "geometry": {"type": "Point", "coordinates": [80.14358188300969, 13.124411446947889]}}, {"type": "Feature", "properties": {"route_name": "65CCT", "stop_id": "GkYZbgqg", "name": "Saraswathi Nagar CTH Salai", "city": "CHENNAI"}, "geometry": {"type": "Point", "coordinates": [80.13964594131141, 13.128044553010751]}}, {"type": "Feature", "properties": {"route_name": "65CCT", "stop_id": "FStgRiBS", "name": "Manikandapuram", "city": "CHENNAI"}, "geometry": {"type": "Point", "coordinates": [80.13632670464676, 13.13041694949477]}}, {"type": "Feature", "properties": {"route_name": "65CCT", "stop_id": "XiLvnZTk", "name": "Thirumullaivoyal", "city": "CHENNAI"}, "geometry": {"type": "Point", "coordinates": [80.13103425086297, 13.130727007064682]}}, {"type": "Feature", "properties": {"route_name": "65CCT", "stop_id": "Vlipnutt", "name": "Vaishnavi Nagar", "city": "CHENNAI"}, "geometry": {"type": "Point", "coordinates": [80.12504772543741, 13.129621709283668]}}, {"type": "Feature", "properties": {"route_name": "65CCT", "stop_id": "bHagonKv", "name": "Murugappa Polytechnic", "city": "CHENNAI"}, "geometry": {"type": "Point", "coordinates": [80.1191290174753, 13.125786743953624]}}, {"type": "Feature", "properties": {"route_name": "65CCT", "stop_id": "PhjcDdmq", "name": "Tube Products of India", "city": "CHENNAI"}, "geometry": {"type": "Point", "coordinates": [80.112518168713, 13.12331203321694]}}, {"type": "Feature", "properties": {"route_name": "65CCT", "stop_id": "vacPrbQA", "name": "Avadi Terminal", "city": "CHENNAI"}, "geometry": {"type": "Point", "coordinates": [80.1016854896684, 13.119663764119714]}}, {"type": "Feature", "properties": {"route_name": "65CCT", "stop_id": "SGnJOquj", "name": "Avadi Check Post", "city": "CHENNAI"}, "geometry": {"type": "Point", "coordinates": [80.09600735955496, 13.119400208957218]}}, {"type": "Feature", "properties": {"route_name": "65CCT", "stop_id": "ZOuLYtJj", "name": "Kavarapalayam", "city": "CHENNAI"}, "geometry": {"type": "Point", "coordinates": [80.0862265496803, 13.118734304116337]}}, {"type": "Feature", "properties": {"route_name": "65CCT", "stop_id": "dZoxKDmD", "name": "Sekkadu", "city": "CHENNAI"}, "geometry": {"type": "Point", "coordinates": [80.07960858809611, 13.119261962312038]}}, {"type": "Feature", "properties": {"route_name": "65CCT", "stop_id": "FoxIDeQY", "name": "Hindu College", "city": "CHENNAI"}, "geometry": {"type": "Point", "coordinates": [80.07380072796752, 13.119134716103817]}}, {"type": "Feature", "properties": {"route_name": "65CCT", "stop_id": "PHuvYJrP", "name": "Vao Office", "city": "CHENNAI"}, "geometry": {"type": "Point", "coordinates": [80.06758647829963, 13.120150243171528]}}, {"type": "Feature", "properties": {"route_name": "65CCT", "stop_id": "ngNzeSzC", "name": "Pattabiram", "city": "CHENNAI"}, "geometry": {"type": "Point", "coordinates": [80.06492902234822, 13.120903523352926]}}, {"type": "Feature", "properties": {"route_name": "65CCT", "stop_id": "alaJPSTW", "name": "Thandurai", "city": "CHENNAI"}, "geometry": {"type": "Point", "coordinates": [80.06329329447749, 13.115859142835808]}}, {"type": "Feature", "properties": {"route_name": "65CCT", "stop_id": "pGpZhRvq", "name": "Thandurai Palla Street", "city": "CHENNAI"}, "geometry": {"type": "Point", "coordinates": [80.06240435858967, 13.112791959203504]}}, {"type": "Feature", "properties": {"route_name": "65CCT", "stop_id": "XeinAhyy", "name": "Thandurai Pond", "city": "CHENNAI"}, "geometry": {"type": "Point", "coordinates": [80.06100447515723, 13.109560611563278]}}, {"type": "Feature", "properties": {"route_name": "65CCT", "stop_id": "MlYFoaez", "name": "Annaikattucherry", "city": "CHENNAI"}, "geometry": {"type": "Point", "coordinates": [80.05845381605809, 13.104757902200447]}}, {"type": "Feature", "properties": {"route_name": "65CCT", "stop_id": "UXEWVZzP", "name": "Amudurmedu", "city": "CHENNAI"}, "geometry": {"type": "Point", "coordinates": [80.05798091027339, 13.10033161222955]}}, {"type": "Feature", "properties": {"route_name": "65CCT", "stop_id": "clVXMHJf", "name": "JJ Nagar Thandurai", "city": "CHENNAI"}, "geometry": {"type": "Point", "coordinates": [80.05776869161127, 13.096293499413978]}}, {"type": "Feature", "properties": {"route_name": "65CCT", "stop_id": "suvDbtPR", "name": "Sitharkadu Bypass", "city": "CHENNAI"}, "geometry": {"type": "Point", "coordinates": [80.0575862586636, 13.089361401111729]}}, {"type": "Feature", "properties": {"route_name": "65CCT", "stop_id": "ZFKsyBay", "name": "Nemilicheri", "city": "CHENNAI"}, "geometry": {"type": "Point", "coordinates": [80.05059689197697, 13.124389240530567]}}, {"type": "Feature", "properties": {"route_name": "65CCT", "stop_id": "UvdLYolu", "name": "Jaya College", "city": "CHENNAI"}, "geometry": {"type": "Point", "coordinates": [80.0435902668437, 13.124951589893337]}}, {"type": "Feature", "properties": {"route_name": "65CCT", "stop_id": "BmQLYaPd", "name": "Pandi Rice Mill", "city": "CHENNAI"}, "geometry": {"type": "Point", "coordinates": [80.0371640703213, 13.125485395265349]}}, {"type": "Feature", "properties": {"route_name": "65CCT", "stop_id": "TIlepZYr", "name": "Thiruninravur", "city": "CHENNAI"}, "geometry": {"type": "Point", "coordinates": [80.03240937452915, 13.124589695205566]}}, {"type": "Feature", "properties": {"route_name": "65CCT", "stop_id": "acVCzwtl", "name": "Sri Lakshmi Theatre", "city": "CHENNAI"}, "geometry": {"type": "Point", "coordinates": [80.03099624038737, 13.126344320866348]}}, {"type": "Feature", "properties": {"route_name": "65CCT", "stop_id": "WlZgmutc", "name": "Nadukuthagai", "city": "CHENNAI"}, "geometry": {"type": "Point", "coordinates": [80.03517837312938, 13.129975080910626]}}, {"type": "Feature", "properties": {"route_name": "65CCT", "stop_id": "QYkjMXrW", "name": "Natthamedu", "city": "CHENNAI"}, "geometry": {"type": "Point", "coordinates": [80.03650733412678, 13.133402467510956]}}, {"type": "Feature", "properties": {"route_name": "65CCT", "stop_id": "sKtQEUzZ", "name": "Balaji Nagar Thirunindravoor", "city": "CHENNAI"}, "geometry": {"type": "Point", "coordinates": [80.03868257396073, 13.138382587189971]}}, {"type": "Feature", "properties": {"route_name": "65CCT", "stop_id": "QHulIYnO", "name": "Nashik Nagar", "city": "CHENNAI"}, "geometry": {"type": "Point", "coordinates": [80.03792972277404, 13.142168688637625]}}, {"type": "Feature", "properties": {"route_name": "65CCT", "stop_id": "wpHpdxFs", "name": "Sri Pathi Nagar", "city": "CHENNAI"}, "geometry": {"type": "Point", "coordinates": [80.03803079473221, 13.145009602606663]}}, {"type": "Feature", "properties": {"route_name": "65CCT", "stop_id": "IkeqCtDY", "name": "Melappedu", "city": "CHENNAI"}, "geometry": {"type": "Point", "coordinates": [80.03946045105988, 13.151426260781438]}}, {"type": "Feature", "properties": {"route_name": "65CCT", "stop_id": "HaEOaLMB", "name": "Pakkam Junction", "city": "CHENNAI"}, "geometry": {"type": "Point", "coordinates": [80.03703605244857, 13.15515199877163]}}, {"type": "Feature", "properties": {"route_name": "65CCT", "stop_id": "dpFXbFTh", "name": "Pakkam Village", "city": "CHENNAI"}, "geometry": {"type": "Point", "coordinates": [80.02547768796535, 13.15392656273802]}}, {"type": "Feature", "properties": {"name": "65CCT"}, "geometry": {"type": "LineString", "coordinates": [[80.17032, 13.09972], [80.16964, 13.0998], [80.16877, 13.09989], [80.16751, 13.09999], [80.16703, 13.10005], [80.16669, 13.10014], [80.16405, 13.101], [80.16326, 13.10122], [80.16308, 13.10125], [80.16251, 13.10132], [80.16249, 13.10133], [80.16145, 13.10142], [80.16009, 13.1014], [80.15984, 13.10144], [80.15972, 13.10148], [80.1595, 13.10161], [80.15927, 13.10182], [80.15912, 13.10199], [80.1588, 13.10234], [80.15837, 13.10279], [80.15803, 13.10312], [80.15791, 13.1032], [80.15768, 13.10331], [80.15721, 13.10347], [80.15668, 13.10359], [80.15649, 13.10363], [80.15442, 13.10411], [80.15401, 13.10422], [80.15369, 13.10434], [80.15313, 13.10464], [80.15281, 13.10487], [80.15263, 13.10503], [80.15251, 13.10517], [80.15239, 13.1054], [80.15233, 13.10557], [80.15226, 13.10615], [80.15225, 13.10619], [80.15224, 13.10707], [80.15222, 13.10758], [80.15219, 13.10856], [80.15217, 13.10912], [80.15225, 13.10993], [80.15227, 13.11011], [80.15221, 13.11024], [80.15214, 13.11033], [80.15194, 13.11054], [80.15181, 13.11073], [80.15169, 13.11111], [80.15161, 13.11126], [80.1515, 13.11139], [80.1511, 13.11169], [80.15076, 13.11196], [80.15058, 13.11213], [80.15049, 13.11225], [80.15032, 13.11258], [80.1502, 13.11276], [80.15003, 13.11298], [80.14987, 13.11308], [80.14955, 13.11317], [80.14907, 13.11328], [80.14898, 13.11335], [80.14878, 13.11341], [80.14867, 13.11348], [80.14851, 13.11363], [80.14837, 13.11386], [80.14825, 13.11418], [80.14803, 13.11479], [80.1479, 13.11509], [80.14785, 13.11524], [80.14779, 13.11534], [80.14778, 13.11542], [80.14779, 13.1156], [80.14783, 13.1159], [80.1479, 13.11611], [80.14799, 13.11631], [80.14818, 13.11656], [80.14835, 13.11672], [80.14926, 13.11747], [80.14937, 13.11759], [80.14942, 13.11769], [80.14947, 13.11781], [80.14955, 13.11821], [80.14975, 13.11923], [80.14977, 13.11945], [80.14976, 13.11968], [80.14972, 13.11982], [80.14957, 13.12005], [80.14917, 13.12041], [80.14901, 13.12057], [80.14891, 13.1207], [80.14861, 13.1212], [80.14849, 13.12142], [80.14815, 13.12171], [80.148, 13.12181], [80.14764, 13.12204], [80.14716, 13.12224], [80.14517, 13.12345], [80.1437, 13.12435], [80.14359, 13.12443], [80.14328, 13.12466], [80.14304, 13.1248], [80.14166, 13.12565], [80.14133, 13.12594], [80.14098, 13.12636], [80.14017, 13.12741], [80.13968, 13.12807], [80.13898, 13.12902], [80.13838, 13.12973], [80.13806, 13.13003], [80.13789, 13.13016], [80.13778, 13.13021], [80.13743, 13.13031], [80.13634, 13.13051], [80.13518, 13.13068], [80.13484, 13.13072], [80.13453, 13.13073], [80.13208, 13.13075], [80.13104, 13.13076], [80.13059, 13.13079], [80.12932, 13.13107], [80.12831, 13.13133], [80.12782, 13.13139], [80.12745, 13.13136], [80.12728, 13.13132], [80.12715, 13.13128], [80.127, 13.1312], [80.12674, 13.13102], [80.12637, 13.13078], [80.12583, 13.13039], [80.12526, 13.12992], [80.12499, 13.12967], [80.12475, 13.12944], [80.1237, 13.12855], [80.12293, 13.12793], [80.12185, 13.12705], [80.1212, 13.12649], [80.12092, 13.12636], [80.12035, 13.12617], [80.12024, 13.12614], [80.11981, 13.12604], [80.11943, 13.12589], [80.11912, 13.12583], [80.11873, 13.12572], [80.11769, 13.12533], [80.11549, 13.12448], [80.11249, 13.12339], [80.11249, 13.12342], [80.11194, 13.12332], [80.11164, 13.12328], [80.11105, 13.12325], [80.11069, 13.1232], [80.11053, 13.12314], [80.11039, 13.12305], [80.10939, 13.12238], [80.10888, 13.12202], [80.10834, 13.12152], [80.10766, 13.12074], [80.10749, 13.12058], [80.10732, 13.12048], [80.10702, 13.12036], [80.10611, 13.12008], [80.10525, 13.11985], [80.10499, 13.1198], [80.10365, 13.11966], [80.1029, 13.11963], [80.10232, 13.11965], [80.10174, 13.11973], [80.10169, 13.11973], [80.10127, 13.11975], [80.10035, 13.11964], [80.09964, 13.11958], [80.09843, 13.11953], [80.09723, 13.11948], [80.09601, 13.11944], [80.09607, 13.11943], [80.09601, 13.11944], [80.09444, 13.11936], [80.09367, 13.11928], [80.09256, 13.11914], [80.09149, 13.11892], [80.09083, 13.11879], [80.09017, 13.11865], [80.08979, 13.11861], [80.08853, 13.11866], [80.08709, 13.11872], [80.08623, 13.11878], [80.0858, 13.11881], [80.08378, 13.11886], [80.08203, 13.11886], [80.08118, 13.11898], [80.07961, 13.11928], [80.07958, 13.11929], [80.079, 13.11935], [80.07874, 13.11935], [80.07624, 13.11923], [80.0743, 13.11914], [80.0738, 13.11916], [80.07203, 13.11921], [80.0717, 13.11925], [80.07103, 13.11935], [80.06977, 13.11962], [80.06926, 13.11974], [80.06866, 13.11991], [80.0676, 13.12018], [80.06681, 13.12041], [80.06627, 13.12058], [80.0658, 13.12069], [80.06529, 13.12082], [80.06494, 13.12093], [80.06451, 13.12109], [80.0624, 13.12208], [80.06242, 13.12192], [80.06246, 13.12183], [80.06252, 13.12178], [80.06261, 13.12175], [80.06296, 13.12173], [80.06306, 13.1217], [80.06338, 13.12156], [80.06404, 13.12125], [80.0645, 13.12102], [80.06462, 13.12093], [80.0647, 13.1208], [80.06472, 13.12072], [80.06471, 13.12058], [80.06451, 13.12012], [80.06386, 13.11885], [80.0637, 13.11841], [80.06354, 13.11762], [80.06324, 13.11599], [80.06321, 13.11588], [80.06294, 13.1146], [80.06282, 13.1138], [80.06254, 13.11315], [80.06245, 13.11297], [80.06235, 13.11284], [80.06231, 13.11277], [80.06225, 13.11261], [80.06218, 13.1123], [80.06208, 13.11195], [80.06194, 13.11148], [80.06183, 13.11129], [80.0617, 13.11111], [80.06143, 13.11041], [80.06136, 13.1102], [80.06127, 13.11005], [80.06097, 13.10968], [80.06093, 13.1096], [80.06091, 13.10957], [80.06061, 13.109], [80.06037, 13.10854], [80.05976, 13.10774], [80.05925, 13.10701], [80.05886, 13.10644], [80.05861, 13.10607], [80.05841, 13.10573], [80.05838, 13.10565], [80.05837, 13.10554], [80.05838, 13.10497], [80.0584, 13.10475], [80.05849, 13.10383], [80.0585, 13.1037], [80.05844, 13.1035], [80.05837, 13.10332], [80.05831, 13.10317], [80.05828, 13.10303], [80.05825, 13.10278], [80.05822, 13.10218], [80.05818, 13.10162], [80.05813, 13.10109], [80.05808, 13.10086], [80.05799, 13.10057], [80.05795, 13.10034], [80.05795, 13.10031], [80.05792, 13.09981], [80.05794, 13.09941], [80.05796, 13.09899], [80.05796, 13.09835], [80.05789, 13.09745], [80.05786, 13.09723], [80.05773, 13.09631], [80.05773, 13.0963], [80.05764, 13.09571], [80.05752, 13.09417], [80.05743, 13.09285], [80.05738, 13.09227], [80.05728, 13.0914], [80.05715, 13.09042], [80.05713, 13.09023], [80.05714, 13.09008], [80.05724, 13.08978], [80.05732, 13.08962], [80.05747, 13.08944], [80.05755, 13.08934], [80.05736, 13.08924], [80.05718, 13.08949], [80.05691, 13.08927], [80.0551, 13.09142], [80.05418, 13.09257], [80.05326, 13.0938], [80.05276, 13.09477], [80.05217, 13.09664], [80.05198, 13.09823], [80.05214, 13.1012], [80.05235, 13.10443], [80.05228, 13.10602], [80.05217, 13.10769], [80.05219, 13.1103], [80.05206, 13.11231], [80.0518, 13.11722], [80.05164, 13.12013], [80.05172, 13.12173], [80.05204, 13.12376], [80.05181, 13.12417], [80.05156, 13.12437], [80.05109, 13.12444], [80.05075, 13.12445], [80.05059, 13.12451], [80.05061, 13.12447], [80.04959, 13.1246], [80.04909, 13.12465], [80.04865, 13.12468], [80.04701, 13.12477], [80.04539, 13.12488], [80.04452, 13.12495], [80.0436, 13.12499], [80.04359, 13.12499], [80.04175, 13.12514], [80.04126, 13.12516], [80.03977, 13.12529], [80.03921, 13.12534], [80.03903, 13.12534], [80.03884, 13.12535], [80.03813, 13.12547], [80.03768, 13.12551], [80.0374, 13.12553], [80.03716, 13.12553], [80.03586, 13.12549], [80.03546, 13.12544], [80.03531, 13.1254], [80.03518, 13.12536], [80.03464, 13.1251], [80.0339, 13.12487], [80.03321, 13.12473], [80.03252, 13.12462], [80.03243, 13.12463], [80.0324, 13.12462], [80.03213, 13.12454], [80.03184, 13.12451], [80.03171, 13.12449], [80.03153, 13.12446], [80.03144, 13.12455], [80.03131, 13.12467], [80.03116, 13.12478], [80.03091, 13.12498], [80.03075, 13.12514], [80.03069, 13.12525], [80.03068, 13.12534], [80.03068, 13.12546], [80.03077, 13.12564], [80.03087, 13.12603], [80.0309, 13.12611], [80.03106, 13.12631], [80.0312, 13.12653], [80.03149, 13.12713], [80.03177, 13.12767], [80.03186, 13.12779], [80.03192, 13.12785], [80.03202, 13.12791], [80.03212, 13.12795], [80.0323, 13.12796], [80.03307, 13.12787], [80.03333, 13.12787], [80.03348, 13.12791], [80.03374, 13.12804], [80.03387, 13.12814], [80.03399, 13.12827], [80.03459, 13.12907], [80.03498, 13.12958], [80.03524, 13.12993], [80.03595, 13.13094], [80.03606, 13.13119], [80.03611, 13.13155], [80.03623, 13.13192], [80.03638, 13.13262], [80.03655, 13.13339], [80.03656, 13.13343], [80.03668, 13.13415], [80.03679, 13.13448], [80.03703, 13.13495], [80.03751, 13.13583], [80.03802, 13.13683], [80.03855, 13.1379], [80.03866, 13.13816], [80.03869, 13.13823], [80.03871, 13.13838], [80.03872, 13.13859], [80.03869, 13.13884], [80.03864, 13.13904], [80.03844, 13.13976], [80.03821, 13.1407], [80.03804, 13.14122], [80.03792, 13.14167], [80.03791, 13.14181], [80.03794, 13.14205], [80.03797, 13.14216], [80.03807, 13.14284], [80.03812, 13.14316], [80.03813, 13.14347], [80.03805, 13.14439], [80.03805, 13.1448], [80.03807, 13.14501], [80.03811, 13.1454], [80.03835, 13.14694], [80.03852, 13.14742], [80.03869, 13.148], [80.039, 13.14915], [80.03927, 13.15011], [80.03948, 13.15084], [80.03951, 13.15114], [80.03952, 13.15127], [80.0395, 13.15143], [80.03949, 13.15144], [80.03947, 13.15151], [80.03932, 13.15182], [80.03876, 13.15268], [80.0381, 13.15372], [80.03779, 13.1542], [80.03732, 13.15486], [80.03707, 13.15518], [80.03687, 13.15543], [80.03668, 13.15531], [80.03642, 13.15513], [80.03609, 13.15493], [80.03598, 13.15489], [80.03567, 13.1548], [80.03544, 13.15471], [80.03486, 13.15442], [80.03458, 13.15428], [80.03442, 13.15422], [80.03428, 13.1542], [80.03403, 13.15414], [80.03373, 13.15409], [80.03351, 13.15406], [80.03324, 13.15408], [80.03302, 13.15414], [80.03275, 13.15426], [80.03237, 13.15443], [80.03202, 13.15456], [80.03151, 13.15468], [80.0311, 13.15469], [80.03072, 13.15462], [80.0303, 13.15449], [80.02986, 13.15435], [80.02955, 13.15428], [80.02919, 13.15422], [80.0288, 13.15421], [80.02824, 13.15418], [80.02792, 13.15412], [80.02734, 13.15399], [80.02667, 13.15399], [80.02548, 13.15394]]}}]}