{"type": "FeatureCollection", "features": [{"type": "Feature", "properties": {"route_name": "50", "stop_id": "jnDfAorM", "name": "Thiruverkadu Terminus", "city": "CHENNAI"}, "geometry": {"type": "Point", "coordinates": [80.1239847902782, 13.069351214248936]}}, {"type": "Feature", "properties": {"route_name": "50", "stop_id": "rcsEeYnc", "name": "Gurimedai", "city": "CHENNAI"}, "geometry": {"type": "Point", "coordinates": [80.12654825215122, 13.068292000155036]}}, {"type": "Feature", "properties": {"route_name": "50", "stop_id": "RSRIdzBF", "name": "Thiruverkadu MGR Nagar", "city": "CHENNAI"}, "geometry": {"type": "Point", "coordinates": [80.12951164308072, 13.067701832891391]}}, {"type": "Feature", "properties": {"route_name": "50", "stop_id": "nChZnrmr", "name": "Perumalagaram", "city": "CHENNAI"}, "geometry": {"type": "Point", "coordinates": [80.13582685709673, 13.066756958292295]}}, {"type": "Feature", "properties": {"route_name": "50", "stop_id": "buRRNGGe", "name": "Perumal Nagar Junction", "city": "CHENNAI"}, "geometry": {"type": "Point", "coordinates": [80.13770560593196, 13.065731815462355]}}, {"type": "Feature", "properties": {"route_name": "50", "stop_id": "CheNYOmP", "name": "Velappanchavadi", "city": "CHENNAI"}, "geometry": {"type": "Point", "coordinates": [80.13888028186238, 13.061401979827533]}}, {"type": "Feature", "properties": {"route_name": "50", "stop_id": "ocwJSpah", "name": "Kumar Theatre", "city": "CHENNAI"}, "geometry": {"type": "Point", "coordinates": [80.14978370694485, 13.062205700490738]}}, {"type": "Feature", "properties": {"route_name": "50", "stop_id": "VbpBVdde", "name": "Vaanagaram", "city": "CHENNAI"}, "geometry": {"type": "Point", "coordinates": [80.15520012113666, 13.060673625391631]}}, {"type": "Feature", "properties": {"route_name": "50", "stop_id": "VTHwomVj", "name": "Maduravoyal Yerikarai", "city": "CHENNAI"}, "geometry": {"type": "Point", "coordinates": [80.16446669395509, 13.061455729139213]}}, {"type": "Feature", "properties": {"route_name": "50", "stop_id": "bsQVAuyn", "name": "Maduravoyal", "city": "CHENNAI"}, "geometry": {"type": "Point", "coordinates": [80.16703854344019, 13.06335166693687]}}, {"type": "Feature", "properties": {"route_name": "50", "stop_id": "pygvGZaF", "name": "Maduravoyal Post Office", "city": "CHENNAI"}, "geometry": {"type": "Point", "coordinates": [80.17183820173886, 13.064818116291125]}}, {"type": "Feature", "properties": {"route_name": "50", "stop_id": "gnmwaIOJ", "name": "Maduravoyal Ration Shop", "city": "CHENNAI"}, "geometry": {"type": "Point", "coordinates": [80.17508584673715, 13.067056752749613]}}, {"type": "Feature", "properties": {"route_name": "50", "stop_id": "nCsqpnJo", "name": "Vengaya Mandi", "city": "CHENNAI"}, "geometry": {"type": "Point", "coordinates": [80.18155052810914, 13.07003714330579]}}, {"type": "Feature", "properties": {"route_name": "50", "stop_id": "owFNQNZv", "name": "Nerkundram", "city": "CHENNAI"}, "geometry": {"type": "Point", "coordinates": [80.18548770963264, 13.071513437160451]}}, {"type": "Feature", "properties": {"route_name": "50", "stop_id": "RjtzWJgw", "name": "Mettukulam", "city": "CHENNAI"}, "geometry": {"type": "Point", "coordinates": [80.1924946938658, 13.074318754396097]}}, {"type": "Feature", "properties": {"route_name": "50", "stop_id": "xiCfcAgb", "name": "Rohini Theatre", "city": "CHENNAI"}, "geometry": {"type": "Point", "coordinates": [80.19582407794906, 13.075332191278791]}}, {"type": "Feature", "properties": {"route_name": "50", "stop_id": "SOBUilCD", "name": "Arumbakkam PH Road", "city": "CHENNAI"}, "geometry": {"type": "Point", "coordinates": [80.20359827, 13.07660345]}}, {"type": "Feature", "properties": {"route_name": "50", "stop_id": "mdGitRQe", "name": "Arumbakkam Post Office", "city": "CHENNAI"}, "geometry": {"type": "Point", "coordinates": [80.21051820484536, 13.077240659521182]}}, {"type": "Feature", "properties": {"route_name": "50", "stop_id": "wHfmVQMh", "name": "DG Vaishnava College", "city": "CHENNAI"}, "geometry": {"type": "Point", "coordinates": [80.21332764, 13.07614229]}}, {"type": "Feature", "properties": {"route_name": "50", "stop_id": "cttUtMNm", "name": "NSK Nagar Arumbakkam", "city": "CHENNAI"}, "geometry": {"type": "Point", "coordinates": [80.21675219, 13.07518382]}}, {"type": "Feature", "properties": {"route_name": "50", "stop_id": "fkZFUNSd", "name": "Amaindhakarai", "city": "CHENNAI"}, "geometry": {"type": "Point", "coordinates": [80.22576752682767, 13.074007015982867]}}, {"type": "Feature", "properties": {"route_name": "50", "stop_id": "jFmPCmzM", "name": "Pachaiyappas College", "city": "CHENNAI"}, "geometry": {"type": "Point", "coordinates": [80.23465094093217, 13.076071157008514]}}, {"type": "Feature", "properties": {"route_name": "50", "stop_id": "AjJCgCBk", "name": "Taylors Road", "city": "CHENNAI"}, "geometry": {"type": "Point", "coordinates": [80.23737175, 13.07657683]}}, {"type": "Feature", "properties": {"route_name": "50", "stop_id": "nrKKniYe", "name": "KMC Hospital", "city": "CHENNAI"}, "geometry": {"type": "Point", "coordinates": [80.24411828837378, 13.077972939220746]}}, {"type": "Feature", "properties": {"route_name": "50", "stop_id": "SlfNpref", "name": "Sangam Theatre", "city": "CHENNAI"}, "geometry": {"type": "Point", "coordinates": [80.24997819, 13.07886782]}}, {"type": "Feature", "properties": {"route_name": "50", "stop_id": "aUPouXsN", "name": "Dasaprakash", "city": "CHENNAI"}, "geometry": {"type": "Point", "coordinates": [80.25370759, 13.07893057]}}, {"type": "Feature", "properties": {"route_name": "50", "stop_id": "VjdckTjW", "name": "Thinathanthi", "city": "CHENNAI"}, "geometry": {"type": "Point", "coordinates": [80.26340568, 13.0805046]}}, {"type": "Feature", "properties": {"route_name": "50", "stop_id": "GnsXgGJX", "name": "Hotel Everest", "city": "CHENNAI"}, "geometry": {"type": "Point", "coordinates": [80.26810708394851, 13.080814800082436]}}, {"type": "Feature", "properties": {"route_name": "50", "stop_id": "PSjGjQXK", "name": "Park Station", "city": "CHENNAI"}, "geometry": {"type": "Point", "coordinates": [80.27331973115014, 13.081535577598643]}}, {"type": "Feature", "properties": {"route_name": "50", "stop_id": "KwaxxmSs", "name": "Nurse Quarters", "city": "CHENNAI"}, "geometry": {"type": "Point", "coordinates": [80.27896059391605, 13.082298318772699]}}, {"type": "Feature", "properties": {"route_name": "50", "stop_id": "neNWquOh", "name": "Central Dental College", "city": "CHENNAI"}, "geometry": {"type": "Point", "coordinates": [80.28199470667641, 13.08298870082699]}}, {"type": "Feature", "properties": {"route_name": "50", "stop_id": "EkWBPXmr", "name": "Broadway", "city": "CHENNAI"}, "geometry": {"type": "Point", "coordinates": [80.28388983, 13.08820568]}}, {"type": "Feature", "properties": {"name": "50"}, "geometry": {"type": "LineString", "coordinates": [[80.12389, 13.06919], [80.12412, 13.06905], [80.12414, 13.06888], [80.12426, 13.06881], [80.12459, 13.0687], [80.12513, 13.06856], [80.12569, 13.06842], [80.12654, 13.06826], [80.12743, 13.06808], [80.12753, 13.06806], [80.12837, 13.06791], [80.12949, 13.06766], [80.1295, 13.06765], [80.12979, 13.06765], [80.13016, 13.06766], [80.1305, 13.06767], [80.13073, 13.06765], [80.13123, 13.06756], [80.13162, 13.06747], [80.13191, 13.06738], [80.13269, 13.06711], [80.13342, 13.06698], [80.13417, 13.06686], [80.13463, 13.06679], [80.13555, 13.06675], [80.13578, 13.06672], [80.13582, 13.06672], [80.13638, 13.0666], [80.13646, 13.06657], [80.1365, 13.06653], [80.13651, 13.06644], [80.13644, 13.06601], [80.13647, 13.06592], [80.13651, 13.0659], [80.13662, 13.06588], [80.13746, 13.06591], [80.13759, 13.06588], [80.13765, 13.06586], [80.13767, 13.06573], [80.13768, 13.06565], [80.13753, 13.06463], [80.13753, 13.06439], [80.13754, 13.06436], [80.1376, 13.06431], [80.13771, 13.06426], [80.13789, 13.06424], [80.13815, 13.06424], [80.13824, 13.06422], [80.13828, 13.06421], [80.13829, 13.06416], [80.13828, 13.06407], [80.13818, 13.06355], [80.13818, 13.06336], [80.13821, 13.06325], [80.13845, 13.06294], [80.13851, 13.06279], [80.1385, 13.06265], [80.1384, 13.0619], [80.13837, 13.06156], [80.13838, 13.06136], [80.1384, 13.06128], [80.13888, 13.0613], [80.14054, 13.0614], [80.14394, 13.06167], [80.14616, 13.06194], [80.14653, 13.06199], [80.14692, 13.06204], [80.1475, 13.06207], [80.14959, 13.06211], [80.14964, 13.06211], [80.14965, 13.06214], [80.14967, 13.06216], [80.1497, 13.06217], [80.14978, 13.06217], [80.15002, 13.06216], [80.15042, 13.06211], [80.15091, 13.06189], [80.15153, 13.06161], [80.15149, 13.06153], [80.15195, 13.06129], [80.15248, 13.06105], [80.15295, 13.06092], [80.15365, 13.06078], [80.15432, 13.06066], [80.15479, 13.0606], [80.1552, 13.06062], [80.15518, 13.06061], [80.1552, 13.06062], [80.15571, 13.06073], [80.156, 13.06084], [80.15646, 13.06108], [80.15729, 13.06153], [80.15742, 13.06158], [80.1577, 13.06164], [80.15816, 13.06168], [80.15906, 13.06157], [80.15937, 13.06152], [80.1603, 13.0614], [80.16071, 13.06139], [80.1611, 13.06138], [80.16229, 13.06134], [80.16304, 13.06132], [80.16389, 13.06135], [80.16427, 13.06136], [80.16448, 13.06138], [80.16501, 13.0615], [80.1652, 13.06158], [80.16534, 13.06166], [80.16554, 13.06183], [80.16587, 13.06218], [80.16611, 13.06243], [80.16664, 13.06294], [80.16708, 13.0633], [80.16777, 13.06382], [80.16837, 13.06414], [80.16875, 13.06425], [80.169, 13.06428], [80.16994, 13.0643], [80.17057, 13.0643], [80.17106, 13.06434], [80.17119, 13.06437], [80.17156, 13.06451], [80.1719, 13.06474], [80.17295, 13.06546], [80.17347, 13.06584], [80.17428, 13.06638], [80.17513, 13.067], [80.17557, 13.06732], [80.17576, 13.06742], [80.17605, 13.06752], [80.17634, 13.06757], [80.17654, 13.06758], [80.17707, 13.0676], [80.17757, 13.0676], [80.17782, 13.06762], [80.17821, 13.06771], [80.17849, 13.06785], [80.17896, 13.06814], [80.17972, 13.06863], [80.18074, 13.06939], [80.18111, 13.06963], [80.18158, 13.06996], [80.1823, 13.07036], [80.18271, 13.07057], [80.18318, 13.07078], [80.18369, 13.07097], [80.18551, 13.07144], [80.18633, 13.07167], [80.18657, 13.07175], [80.18743, 13.0721], [80.18904, 13.07282], [80.18947, 13.07304], [80.18963, 13.07315], [80.19, 13.07343], [80.19051, 13.07391], [80.19081, 13.07414], [80.19108, 13.07425], [80.19141, 13.07431], [80.1917, 13.07428], [80.19196, 13.07425], [80.19242, 13.07421], [80.19249, 13.07421], [80.1936, 13.07419], [80.19378, 13.07422], [80.19412, 13.07433], [80.19433, 13.07446], [80.19456, 13.07462], [80.19473, 13.07477], [80.19504, 13.07502], [80.19523, 13.07511], [80.19553, 13.07522], [80.19583, 13.07532], [80.19583, 13.07533], [80.19621, 13.07543], [80.19643, 13.07548], [80.19653, 13.07548], [80.19703, 13.07562], [80.19796, 13.07587], [80.19827, 13.07596], [80.19893, 13.07617], [80.19926, 13.07624], [80.20016, 13.07643], [80.20045, 13.07647], [80.20075, 13.07647], [80.20123, 13.07639], [80.20158, 13.07635], [80.20218, 13.07631], [80.20258, 13.07634], [80.20289, 13.07639], [80.20361, 13.07656], [80.20454, 13.07675], [80.20627, 13.07704], [80.207, 13.07714], [80.20737, 13.07715], [80.20796, 13.07718], [80.20885, 13.07725], [80.2095, 13.07729], [80.2099, 13.07727], [80.21051, 13.0772], [80.21138, 13.0771], [80.21167, 13.07706], [80.21196, 13.07696], [80.21221, 13.07683], [80.213, 13.07628], [80.21329, 13.07609], [80.21361, 13.07589], [80.214, 13.0757], [80.21433, 13.07557], [80.21481, 13.07541], [80.21524, 13.07534], [80.21594, 13.07524], [80.2167, 13.07517], [80.21675, 13.07517], [80.21709, 13.07512], [80.21783, 13.07503], [80.21818, 13.07497], [80.21948, 13.07473], [80.22059, 13.07454], [80.22153, 13.07441], [80.22271, 13.07427], [80.22457, 13.07409], [80.22562, 13.07398], [80.22576, 13.07397], [80.22576, 13.07398], [80.2258, 13.07397], [80.22618, 13.07397], [80.22663, 13.07399], [80.22836, 13.07414], [80.22912, 13.07426], [80.23004, 13.07459], [80.23071, 13.07489], [80.23101, 13.07502], [80.23208, 13.0754], [80.23304, 13.07571], [80.23388, 13.07591], [80.2346, 13.07604], [80.23466, 13.07605], [80.23578, 13.07629], [80.23669, 13.07641], [80.23738, 13.07656], [80.2387, 13.0769], [80.23965, 13.07712], [80.24028, 13.07728], [80.24171, 13.07758], [80.24247, 13.07773], [80.24301, 13.07781], [80.24412, 13.07795], [80.24416, 13.07795], [80.24446, 13.07794], [80.24568, 13.07804], [80.24619, 13.0781], [80.24678, 13.07821], [80.24796, 13.07847], [80.24875, 13.07862], [80.24973, 13.0788], [80.24998, 13.07884], [80.25183, 13.0789], [80.25277, 13.07887], [80.25337, 13.07886], [80.25362, 13.07888], [80.25371, 13.07889], [80.25571, 13.07913], [80.2571, 13.07927], [80.2574, 13.07925], [80.25763, 13.07928], [80.25874, 13.0794], [80.25996, 13.07954], [80.26044, 13.07963], [80.26095, 13.07975], [80.26139, 13.07992], [80.2617, 13.08006], [80.26211, 13.0802], [80.26341, 13.08047], [80.26481, 13.08074], [80.26519, 13.0808], [80.26545, 13.08082], [80.26692, 13.08079], [80.26811, 13.08079], [80.27012, 13.08085], [80.27072, 13.08091], [80.27097, 13.08101], [80.27124, 13.08109], [80.27179, 13.08123], [80.27331, 13.08151], [80.27395, 13.08162], [80.27516, 13.08172], [80.27537, 13.08172], [80.27589, 13.08179], [80.27623, 13.08187], [80.27793, 13.08212], [80.27897, 13.08221], [80.27894, 13.08219], [80.27901, 13.0822], [80.27977, 13.08225], [80.28092, 13.08235], [80.28173, 13.08239], [80.28202, 13.08296], [80.28205, 13.08296], [80.28253, 13.08375], [80.28303, 13.08448], [80.28334, 13.08483], [80.28366, 13.08506], [80.28407, 13.08533], [80.2843, 13.08545], [80.28452, 13.08553], [80.28487, 13.08702], [80.28499, 13.08744], [80.28522, 13.08839], [80.28479, 13.08839], [80.28416, 13.08837], [80.28388, 13.08836]]}}]}