{"type": "FeatureCollection", "features": [{"type": "Feature", "properties": {"route_name": "55X", "stop_id": "ojqTFFWy", "name": "Tambaram West Bus Stand", "city": "CHENNAI"}, "geometry": {"type": "Point", "coordinates": [80.11862628452741, 12.927652178598898]}}, {"type": "Feature", "properties": {"route_name": "55X", "stop_id": "XFPAZveS", "name": "Tambaram Railway Station", "city": "CHENNAI"}, "geometry": {"type": "Point", "coordinates": [80.11732575024665, 12.925641090542161]}}, {"type": "Feature", "properties": {"route_name": "55X", "stop_id": "yAsGVYQM", "name": "Tambaram West", "city": "CHENNAI"}, "geometry": {"type": "Point", "coordinates": [80.10612013252262, 12.925704908321071]}}, {"type": "Feature", "properties": {"route_name": "55X", "stop_id": "RabBrvbh", "name": "Kulakkarai Bus Stop", "city": "CHENNAI"}, "geometry": {"type": "Point", "coordinates": [80.10431226527771, 12.925482517145324]}}, {"type": "Feature", "properties": {"route_name": "55X", "stop_id": "TikfrWrm", "name": "Lakshmipuram", "city": "CHENNAI"}, "geometry": {"type": "Point", "coordinates": [80.1009608563445, 12.925300042387418]}}, {"type": "Feature", "properties": {"route_name": "55X", "stop_id": "jgCiOeaN", "name": "Vettri Nagar", "city": "CHENNAI"}, "geometry": {"type": "Point", "coordinates": [80.09708949675098, 12.92320423946514]}}, {"type": "Feature", "properties": {"route_name": "55X", "stop_id": "ZUUFaTkv", "name": "Barathi Nagar", "city": "CHENNAI"}, "geometry": {"type": "Point", "coordinates": [80.09272159871375, 12.92156470536876]}}, {"type": "Feature", "properties": {"route_name": "55X", "stop_id": "hlYcHDiv", "name": "Gandhi Nagar", "city": "CHENNAI"}, "geometry": {"type": "Point", "coordinates": [80.08995637018495, 12.92089519626227]}}, {"type": "Feature", "properties": {"route_name": "55X", "stop_id": "pHbSfQWg", "name": "Sri Padmavathi Mahal", "city": "CHENNAI"}, "geometry": {"type": "Point", "coordinates": [80.08708959838164, 12.919724779860736]}}, {"type": "Feature", "properties": {"route_name": "55X", "stop_id": "wBZvskGC", "name": "Old Perungalathur or Ambedkar Statue", "city": "CHENNAI"}, "geometry": {"type": "Point", "coordinates": [80.08384150190909, 12.919041515460115]}}, {"type": "Feature", "properties": {"route_name": "55X", "stop_id": "WzJZybAt", "name": "Parwati Nagar", "city": "CHENNAI"}, "geometry": {"type": "Point", "coordinates": [80.081728942528, 12.918254766631692]}}, {"type": "Feature", "properties": {"route_name": "55X", "stop_id": "KbKyxild", "name": "Madanapuram", "city": "CHENNAI"}, "geometry": {"type": "Point", "coordinates": [80.07735023153316, 12.915439019618084]}}, {"type": "Feature", "properties": {"route_name": "55X", "stop_id": "iRgZVaoH", "name": "Attai Company", "city": "CHENNAI"}, "geometry": {"type": "Point", "coordinates": [80.07160384511519, 12.914394314453777]}}, {"type": "Feature", "properties": {"route_name": "55X", "stop_id": "Phtvjmoj", "name": "Mudichur Bus Stand", "city": "CHENNAI"}, "geometry": {"type": "Point", "coordinates": [80.06983966634516, 12.911223528171382]}}, {"type": "Feature", "properties": {"route_name": "55X", "stop_id": "NkYJOxxA", "name": "Varadarajapuram", "city": "CHENNAI"}, "geometry": {"type": "Point", "coordinates": [80.06875980453083, 12.908807810502264]}}, {"type": "Feature", "properties": {"route_name": "55X", "stop_id": "KhQckqci", "name": "Lakshmi Nagar", "city": "CHENNAI"}, "geometry": {"type": "Point", "coordinates": [80.06634418383715, 12.905695927430992]}}, {"type": "Feature", "properties": {"route_name": "55X", "stop_id": "zrVEttwl", "name": "Natesan School", "city": "CHENNAI"}, "geometry": {"type": "Point", "coordinates": [80.06513153081733, 12.899931112874482]}}, {"type": "Feature", "properties": {"route_name": "55X", "stop_id": "qmRscxuH", "name": "Mannivakkam Road Junction", "city": "CHENNAI"}, "geometry": {"type": "Point", "coordinates": [80.06445758896416, 12.894377969692147]}}, {"type": "Feature", "properties": {"route_name": "55X", "stop_id": "NSvMYbfW", "name": "Mannivakkam School", "city": "CHENNAI"}, "geometry": {"type": "Point", "coordinates": [80.06948444482123, 12.891514142775804]}}, {"type": "Feature", "properties": {"route_name": "55X", "stop_id": "NWTLRLsl", "name": "Mannivakkam Kulam Bus Stop", "city": "CHENNAI"}, "geometry": {"type": "Point", "coordinates": [80.06466865664595, 12.88877896679836]}}, {"type": "Feature", "properties": {"route_name": "55X", "stop_id": "ZXLFgZnr", "name": "Mannivakkam Tank", "city": "CHENNAI"}, "geometry": {"type": "Point", "coordinates": [80.06456039785908, 12.892216867297297]}}, {"type": "Feature", "properties": {"name": "55X"}, "geometry": {"type": "LineString", "coordinates": [[80.11932, 12.92829], [80.12089, 12.92987], [80.12108, 12.93006], [80.12123, 12.92998], [80.12072, 12.92949], [80.12027, 12.92905], [80.11965, 12.9284], [80.11899, 12.92776], [80.11841, 12.92716], [80.11766, 12.92646], [80.11717, 12.92584], [80.11717, 12.92583], [80.11634, 12.92499], [80.11542, 12.92409], [80.11521, 12.92393], [80.11504, 12.92402], [80.11496, 12.92419], [80.11486, 12.92429], [80.11461, 12.92435], [80.11421, 12.92443], [80.11179, 12.92481], [80.10931, 12.92524], [80.10766, 12.92553], [80.1062, 12.92576], [80.10612, 12.92577], [80.10612, 12.92575], [80.10608, 12.92576], [80.10573, 12.92576], [80.1053, 12.92571], [80.10449, 12.92555], [80.10431, 12.92552], [80.10405, 12.92551], [80.10374, 12.92551], [80.1031, 12.92561], [80.10262, 12.92566], [80.10222, 12.92566], [80.10204, 12.92564], [80.1016, 12.92553], [80.10099, 12.92534], [80.10095, 12.92532], [80.1005, 12.92509], [80.1, 12.9249], [80.09962, 12.92475], [80.09867, 12.92429], [80.09846, 12.92417], [80.09702, 12.92323], [80.09707, 12.92318], [80.09702, 12.92323], [80.09671, 12.92303], [80.09624, 12.92273], [80.09584, 12.92249], [80.09561, 12.92239], [80.09523, 12.92225], [80.09487, 12.92214], [80.09444, 12.92202], [80.09391, 12.92188], [80.09338, 12.92178], [80.09271, 12.9216], [80.08995, 12.92093], [80.08923, 12.92075], [80.08841, 12.92033], [80.08766, 12.91993], [80.08739, 12.91981], [80.08709, 12.91975], [80.08613, 12.91966], [80.08496, 12.91947], [80.08461, 12.91938], [80.08382, 12.91909], [80.08357, 12.919], [80.08299, 12.91876], [80.08239, 12.91856], [80.08202, 12.91841], [80.08174, 12.9183], [80.08171, 12.91829], [80.08108, 12.91804], [80.08095, 12.91796], [80.08027, 12.91728], [80.07947, 12.91644], [80.07891, 12.91589], [80.07867, 12.9157], [80.07845, 12.91557], [80.0783, 12.91551], [80.07806, 12.91546], [80.07735, 12.91547], [80.07652, 12.91549], [80.0756, 12.91547], [80.07529, 12.91545], [80.07489, 12.91546], [80.07459, 12.91551], [80.07416, 12.91554], [80.07376, 12.91555], [80.07332, 12.91552], [80.07286, 12.91537], [80.0724, 12.91519], [80.07209, 12.915], [80.07186, 12.91479], [80.07162, 12.91449], [80.07157, 12.91442], [80.07123, 12.91387], [80.07105, 12.91354], [80.07038, 12.91251], [80.07018, 12.91216], [80.07005, 12.91188], [80.0698, 12.91124], [80.06955, 12.91052], [80.06943, 12.9101], [80.06932, 12.90976], [80.06917, 12.90947], [80.06893, 12.90908], [80.06872, 12.90884], [80.06814, 12.90813], [80.06767, 12.90751], [80.06707, 12.90676], [80.0667, 12.90636], [80.06652, 12.90613], [80.06634, 12.90582], [80.0663, 12.90571], [80.06626, 12.90557], [80.06605, 12.90455], [80.06577, 12.90336], [80.06537, 12.90173], [80.06527, 12.90123], [80.06515, 12.90038], [80.0651, 12.89993], [80.06465, 12.89637], [80.0644, 12.89439], [80.06437, 12.89425], [80.06432, 12.89411], [80.06437, 12.89408], [80.06492, 12.89378], [80.06533, 12.89357], [80.06672, 12.89282], [80.06727, 12.89258], [80.06772, 12.89233], [80.06801, 12.89216], [80.0681, 12.89214], [80.06848, 12.89192], [80.06943, 12.89141], [80.06969, 12.89132], [80.06953, 12.89117], [80.06877, 12.8907], [80.06735, 12.88984], [80.06626, 12.88917], [80.06575, 12.88892], [80.06562, 12.8889], [80.06469, 12.88868], [80.06468, 12.88878], [80.06465, 12.88914], [80.06468, 12.88989], [80.06469, 12.89043], [80.06465, 12.89052], [80.06434, 12.89057], [80.06437, 12.89082], [80.06435, 12.89116], [80.0643, 12.89131], [80.0643, 12.89141], [80.06437, 12.89169], [80.06452, 12.89221], [80.06456, 12.8922]]}}]}