{"type": "FeatureCollection", "features": [{"type": "Feature", "properties": {"route_name": "S169", "stop_id": "CLjYTiBy", "name": "Thangal Toll Gate", "city": "CHENNAI"}, "geometry": {"type": "Point", "coordinates": [80.29689126927576, 13.144352706302309]}}, {"type": "Feature", "properties": {"route_name": "S169", "stop_id": "fumBmOZX", "name": "Cross Road Toll Gate", "city": "CHENNAI"}, "geometry": {"type": "Point", "coordinates": [80.29482550646571, 13.139217181363312]}}, {"type": "Feature", "properties": {"route_name": "S169", "stop_id": "oDTgSiOA", "name": "Thanthi Periyar Park", "city": "CHENNAI"}, "geometry": {"type": "Point", "coordinates": [80.2935, 13.1388]}}, {"type": "Feature", "properties": {"route_name": "S169", "stop_id": "eXAGroSn", "name": "Karumariamman Kovil", "city": "CHENNAI"}, "geometry": {"type": "Point", "coordinates": [80.2912, 13.139]}}, {"type": "Feature", "properties": {"route_name": "S169", "stop_id": "BPsLaajx", "name": "Todiya Pet 2 Depot", "city": "CHENNAI"}, "geometry": {"type": "Point", "coordinates": [80.2874, 13.1373]}}, {"type": "Feature", "properties": {"route_name": "S169", "stop_id": "QHfLxjAk", "name": "Thiruvalluvar Nagar", "city": "CHENNAI"}, "geometry": {"type": "Point", "coordinates": [80.2861152082751, 13.134445296402282]}}, {"type": "Feature", "properties": {"route_name": "S169", "stop_id": "EuHeVKxn", "name": "VOC Nagar Market", "city": "CHENNAI"}, "geometry": {"type": "Point", "coordinates": [80.2855, 13.1317]}}, {"type": "Feature", "properties": {"route_name": "S169", "stop_id": "XpSUQfZh", "name": "Elaya Street", "city": "CHENNAI"}, "geometry": {"type": "Point", "coordinates": [80.28530057022904, 13.130264224761108]}}, {"type": "Feature", "properties": {"route_name": "S169", "stop_id": "XGgrBziF", "name": "Tondiarpet Power House", "city": "CHENNAI"}, "geometry": {"type": "Point", "coordinates": [80.27901573878523, 13.128527509979756]}}, {"type": "Feature", "properties": {"route_name": "S169", "stop_id": "RtBolNHG", "name": "Korukkupet Police Station", "city": "CHENNAI"}, "geometry": {"type": "Point", "coordinates": [80.27767084579159, 13.12432712924261]}}, {"type": "Feature", "properties": {"route_name": "S169", "stop_id": "ABRKsLIZ", "name": "Sunnambu Kalvai", "city": "CHENNAI"}, "geometry": {"type": "Point", "coordinates": [80.27371268578179, 13.125073632754681]}}, {"type": "Feature", "properties": {"route_name": "S169", "stop_id": "sOHmZtiS", "name": "Ezhil Nagar", "city": "CHENNAI"}, "geometry": {"type": "Point", "coordinates": [80.27156573141372, 13.126530630515532]}}, {"type": "Feature", "properties": {"route_name": "S169", "stop_id": "uUBnPWGG", "name": "Kodungaiyur Dumping Station", "city": "CHENNAI"}, "geometry": {"type": "Point", "coordinates": [80.26712580276057, 13.130021370856664]}}, {"type": "Feature", "properties": {"route_name": "S169", "stop_id": "uqWvvTiu", "name": "Tondiyarpet High Road", "city": "CHENNAI"}, "geometry": {"type": "Point", "coordinates": [80.2635, 13.1328]}}, {"type": "Feature", "properties": {"route_name": "S169", "stop_id": "HTcmpFUD", "name": "Kaviarasu Kannadasan Nagar Bus Stand", "city": "CHENNAI"}, "geometry": {"type": "Point", "coordinates": [80.25700447879262, 13.136187606976225]}}, {"type": "Feature", "properties": {"route_name": "S169", "stop_id": "CorDNIJt", "name": "Muthamizh Nagar Or Ambedkar Statue", "city": "CHENNAI"}, "geometry": {"type": "Point", "coordinates": [80.25359820070912, 13.134062530676227]}}, {"type": "Feature", "properties": {"route_name": "S169", "stop_id": "zdEUiAFY", "name": "Vyasarpadi Sidco", "city": "CHENNAI"}, "geometry": {"type": "Point", "coordinates": [80.25298093952279, 13.131601688441599]}}, {"type": "Feature", "properties": {"route_name": "S169", "stop_id": "vMBlttbG", "name": "T N E B Office", "city": "CHENNAI"}, "geometry": {"type": "Point", "coordinates": [80.2588739012125, 13.131177093151761]}}, {"type": "Feature", "properties": {"route_name": "S169", "stop_id": "CPPLrzGV", "name": "M K B Nagar", "city": "CHENNAI"}, "geometry": {"type": "Point", "coordinates": [80.25926020542954, 13.124772828324614]}}, {"type": "Feature", "properties": {"route_name": "S169", "stop_id": "twMezfOU", "name": "Ambedkar College Vyasarpadi", "city": "CHENNAI"}, "geometry": {"type": "Point", "coordinates": [80.259366110575, 13.118303758474488]}}, {"type": "Feature", "properties": {"route_name": "S169", "stop_id": "lkujKSJT", "name": "Sharma Nagar", "city": "CHENNAI"}, "geometry": {"type": "Point", "coordinates": [80.25442998388917, 13.120477696307466]}}, {"type": "Feature", "properties": {"route_name": "S169", "stop_id": "yaKWBgLg", "name": "Erukkancheri Toll Gate", "city": "CHENNAI"}, "geometry": {"type": "Point", "coordinates": [80.25099983132543, 13.122041110997099]}}, {"type": "Feature", "properties": {"route_name": "S169", "stop_id": "IvQQZbJW", "name": "Erukancherry", "city": "CHENNAI"}, "geometry": {"type": "Point", "coordinates": [80.24706658663354, 13.124542243211769]}}, {"type": "Feature", "properties": {"route_name": "S169", "stop_id": "lxBswvKX", "name": "Moolakadai", "city": "CHENNAI"}, "geometry": {"type": "Point", "coordinates": [80.24176292840527, 13.12858131500502]}}, {"type": "Feature", "properties": {"name": "S169"}, "geometry": {"type": "LineString", "coordinates": [[80.29687, 13.14436], [80.2967, 13.14391], [80.29643, 13.14334], [80.29622, 13.14281], [80.29598, 13.14221], [80.29557, 13.14121], [80.29544, 13.14087], [80.29484, 13.1393], [80.29481, 13.13922], [80.29446, 13.13834], [80.29354, 13.13866], [80.29358, 13.13876], [80.2935, 13.13877], [80.2912, 13.13903], [80.29029, 13.13906], [80.29003, 13.13915], [80.28965, 13.13937], [80.28952, 13.13945], [80.2894, 13.13949], [80.28887, 13.13958], [80.28832, 13.13974], [80.28814, 13.13929], [80.28781, 13.13841], [80.28763, 13.13796], [80.28742, 13.13729], [80.28722, 13.13634], [80.28717, 13.13585], [80.28711, 13.13543], [80.28705, 13.13523], [80.28698, 13.13514], [80.28693, 13.13512], [80.28673, 13.13509], [80.28635, 13.13501], [80.28628, 13.13497], [80.28621, 13.13488], [80.28613, 13.13455], [80.2861, 13.13445], [80.28572, 13.13292], [80.28559, 13.13219], [80.28553, 13.1317], [80.28529, 13.13027], [80.28515, 13.12954], [80.28498, 13.12857], [80.28494, 13.12835], [80.28386, 13.12842], [80.28339, 13.12842], [80.28319, 13.12837], [80.28278, 13.12819], [80.28247, 13.1281], [80.28224, 13.1281], [80.2817, 13.12817], [80.28134, 13.12824], [80.28079, 13.12831], [80.27902, 13.12856], [80.27899, 13.12856], [80.27863, 13.12836], [80.27835, 13.12725], [80.27802, 13.12581], [80.27788, 13.12516], [80.27763, 13.12434], [80.27761, 13.12428], [80.27762, 13.12415], [80.2773, 13.12422], [80.27696, 13.12431], [80.27667, 13.12441], [80.27596, 13.12458], [80.27418, 13.12502], [80.27372, 13.12512], [80.27333, 13.12521], [80.27315, 13.1253], [80.27285, 13.1255], [80.27213, 13.12613], [80.27159, 13.12656], [80.26991, 13.1279], [80.26716, 13.13006], [80.26638, 13.13065], [80.26636, 13.13064], [80.26621, 13.13073], [80.2635, 13.1328], [80.26165, 13.13423], [80.26131, 13.1345], [80.26024, 13.13526], [80.25984, 13.13552], [80.25953, 13.13569], [80.25867, 13.13603], [80.25802, 13.13626], [80.25745, 13.1364], [80.25704, 13.13647], [80.25644, 13.13655], [80.25612, 13.13656], [80.25567, 13.13656], [80.25551, 13.13656], [80.25533, 13.13647], [80.25521, 13.13637], [80.25498, 13.13615], [80.25473, 13.13585], [80.25449, 13.13556], [80.25406, 13.13495], [80.25389, 13.13473], [80.2538, 13.13457], [80.25364, 13.13423], [80.2536, 13.13406], [80.25355, 13.13341], [80.25354, 13.13304], [80.25347, 13.13262], [80.25343, 13.13246], [80.25339, 13.13239], [80.25334, 13.13234], [80.25331, 13.13229], [80.25306, 13.13207], [80.25302, 13.13198], [80.25252, 13.13162], [80.25267, 13.13157], [80.25298, 13.13155], [80.25502, 13.13148], [80.25686, 13.13141], [80.2575, 13.13142], [80.25819, 13.13142], [80.25878, 13.13141], [80.25879, 13.13117], [80.2589, 13.12966], [80.25896, 13.12841], [80.25905, 13.12677], [80.25917, 13.125], [80.25917, 13.12479], [80.25914, 13.12482], [80.2592, 13.12405], [80.25925, 13.12292], [80.25928, 13.12202], [80.2593, 13.12094], [80.25938, 13.11939], [80.25943, 13.11831], [80.25939, 13.11832], [80.25937, 13.11833], [80.25811, 13.11861], [80.25714, 13.11884], [80.25687, 13.11894], [80.2563, 13.1192], [80.25577, 13.11946], [80.2556, 13.11957], [80.25528, 13.11978], [80.25483, 13.12015], [80.25446, 13.12051], [80.25396, 13.121], [80.2537, 13.1212], [80.25335, 13.12136], [80.25311, 13.12144], [80.25257, 13.12158], [80.25146, 13.12188], [80.25101, 13.12207], [80.25004, 13.12249], [80.24922, 13.12283], [80.24892, 13.12302], [80.24822, 13.1236], [80.24709, 13.12457], [80.24676, 13.12487], [80.2463, 13.12534], [80.24583, 13.12574], [80.24512, 13.12628], [80.24448, 13.12676], [80.24391, 13.12716], [80.24385, 13.12715], [80.24359, 13.12734], [80.24328, 13.12756], [80.24286, 13.12784], [80.24252, 13.12809], [80.24181, 13.1286]]}}]}