{"type": "FeatureCollection", "features": [{"type": "Feature", "properties": {"route_name": "60", "stop_id": "Bkreqxpx", "name": "Anagaputhur", "city": "CHENNAI"}, "geometry": {"type": "Point", "coordinates": [80.12314690482846, 12.985088584860506]}}, {"type": "Feature", "properties": {"route_name": "60", "stop_id": "FYgdoWMK", "name": "Anakaputhur Amman Kovil", "city": "CHENNAI"}, "geometry": {"type": "Point", "coordinates": [80.12771993366164, 12.983275515215881]}}, {"type": "Feature", "properties": {"route_name": "60", "stop_id": "bjEpkupt", "name": "Anakaputhur Higher Secondary School", "city": "CHENNAI"}, "geometry": {"type": "Point", "coordinates": [80.12922908041128, 12.98080405837172]}}, {"type": "Feature", "properties": {"route_name": "60", "stop_id": "gxlaiARP", "name": "Pammal Theatre", "city": "CHENNAI"}, "geometry": {"type": "Point", "coordinates": [80.13058986288888, 12.977704719869736]}}, {"type": "Feature", "properties": {"route_name": "60", "stop_id": "rEicsBoS", "name": "Pammal Sankar Nagar", "city": "CHENNAI"}, "geometry": {"type": "Point", "coordinates": [80.13298904397789, 12.974905350380185]}}, {"type": "Feature", "properties": {"route_name": "60", "stop_id": "DNyXiZzj", "name": "Pammal", "city": "CHENNAI"}, "geometry": {"type": "Point", "coordinates": [80.13528008832327, 12.974458672581367]}}, {"type": "Feature", "properties": {"route_name": "60", "stop_id": "pXlenLUq", "name": "Krishna Nagar", "city": "CHENNAI"}, "geometry": {"type": "Point", "coordinates": [80.13835511886168, 12.97289655219043]}}, {"type": "Feature", "properties": {"route_name": "60", "stop_id": "XbgiSLmy", "name": "Muthamil Nagar Pallavaram", "city": "CHENNAI"}, "geometry": {"type": "Point", "coordinates": [80.14244304020781, 12.971600972735805]}}, {"type": "Feature", "properties": {"route_name": "60", "stop_id": "EDdQplwd", "name": "Pallavaram Aadu Thotti", "city": "CHENNAI"}, "geometry": {"type": "Point", "coordinates": [80.14499791683875, 12.970758223028511]}}, {"type": "Feature", "properties": {"route_name": "60", "stop_id": "UMtqPoXD", "name": "Stephen Church", "city": "CHENNAI"}, "geometry": {"type": "Point", "coordinates": [80.14801240762108, 12.9725172732465]}}, {"type": "Feature", "properties": {"route_name": "60", "stop_id": "YoJVeulh", "name": "Cantonment High School Pallavaram", "city": "CHENNAI"}, "geometry": {"type": "Point", "coordinates": [80.14948782096485, 12.970995671893865]}}, {"type": "Feature", "properties": {"route_name": "60", "stop_id": "oynLwMrX", "name": "Pallavaram Or English Electrical", "city": "CHENNAI"}, "geometry": {"type": "Point", "coordinates": [80.15295513672345, 12.973428089525743]}}, {"type": "Feature", "properties": {"route_name": "60", "stop_id": "jaCrAUFK", "name": "Thirusoolam National Airport", "city": "CHENNAI"}, "geometry": {"type": "Point", "coordinates": [80.16624253999316, 12.98140932892296]}}, {"type": "Feature", "properties": {"route_name": "60", "stop_id": "MlqbsUKu", "name": "Meeanambakkam Metro", "city": "CHENNAI"}, "geometry": {"type": "Point", "coordinates": [80.17596275118285, 12.987451127169622]}}, {"type": "Feature", "properties": {"route_name": "60", "stop_id": "ntDOQspU", "name": "St Thomas Mount Head Post Office", "city": "CHENNAI"}, "geometry": {"type": "Point", "coordinates": [80.19613333882285, 13.001852214423991]}}, {"type": "Feature", "properties": {"route_name": "60", "stop_id": "OpgRCgWV", "name": "Alandur Metro", "city": "CHENNAI"}, "geometry": {"type": "Point", "coordinates": [80.20073526, 13.0039722]}}, {"type": "Feature", "properties": {"route_name": "60", "stop_id": "mnkgCFDT", "name": "Guindy Bus Terminus", "city": "CHENNAI"}, "geometry": {"type": "Point", "coordinates": [80.21114278309233, 13.009411553087547]}}, {"type": "Feature", "properties": {"route_name": "60", "stop_id": "WOOyqinT", "name": "Chellammal College", "city": "CHENNAI"}, "geometry": {"type": "Point", "coordinates": [80.22076239073908, 13.012293483983404]}}, {"type": "Feature", "properties": {"route_name": "60", "stop_id": "FyoAuDvn", "name": "Little Mount ", "city": "CHENNAI"}, "geometry": {"type": "Point", "coordinates": [80.2250649963828, 13.015597546918361]}}, {"type": "Feature", "properties": {"route_name": "60", "stop_id": "NXLrCKMp", "name": "Panagal Maligai Or Saiadapet Bridge", "city": "CHENNAI"}, "geometry": {"type": "Point", "coordinates": [80.2243533022414, 13.019119618356324]}}, {"type": "Feature", "properties": {"route_name": "60", "stop_id": "xiTGCYEl", "name": "Saidapet", "city": "CHENNAI"}, "geometry": {"type": "Point", "coordinates": [80.22645189784225, 13.02237471448576]}}, {"type": "Feature", "properties": {"route_name": "60", "stop_id": "yNIUaSyZ", "name": "Thadandar Nagar", "city": "CHENNAI"}, "geometry": {"type": "Point", "coordinates": [80.22842398188516, 13.024420523467967]}}, {"type": "Feature", "properties": {"route_name": "60", "stop_id": "cNuIRYrx", "name": "Saidapet Veterinary Hospital Or Raja Hostel", "city": "CHENNAI"}, "geometry": {"type": "Point", "coordinates": [80.22971101723124, 13.025441595631346]}}, {"type": "Feature", "properties": {"route_name": "60", "stop_id": "OrbXRiVv", "name": "Nandanam YMCA", "city": "CHENNAI"}, "geometry": {"type": "Point", "coordinates": [80.2363018744228, 13.028867874662678]}}, {"type": "Feature", "properties": {"route_name": "60", "stop_id": "anWZyaGW", "name": "Nandanam Metro", "city": "CHENNAI"}, "geometry": {"type": "Point", "coordinates": [80.24096021670603, 13.031732721594496]}}, {"type": "Feature", "properties": {"route_name": "60", "stop_id": "DeiIsjyA", "name": "Teynampet Metro or SIET College", "city": "CHENNAI"}, "geometry": {"type": "Point", "coordinates": [80.24630274553174, 13.037169042763376]}}, {"type": "Feature", "properties": {"route_name": "60", "stop_id": "HQVZivsH", "name": "Vanavil", "city": "CHENNAI"}, "geometry": {"type": "Point", "coordinates": [80.24704813596077, 13.040751202786833]}}, {"type": "Feature", "properties": {"route_name": "60", "stop_id": "UTBcifAN", "name": "DMS", "city": "CHENNAI"}, "geometry": {"type": "Point", "coordinates": [80.24829534022649, 13.046974109023331]}}, {"type": "Feature", "properties": {"route_name": "60", "stop_id": "suszCmcx", "name": "Anand Theatre or Thousand Light", "city": "CHENNAI"}, "geometry": {"type": "Point", "coordinates": [80.25671112714463, 13.056879507984267]}}, {"type": "Feature", "properties": {"route_name": "60", "stop_id": "lwcIkPvE", "name": "Spensor Plaza TVS", "city": "CHENNAI"}, "geometry": {"type": "Point", "coordinates": [80.2612747814826, 13.06090035070302]}}, {"type": "Feature", "properties": {"route_name": "60", "stop_id": "EocVuyzS", "name": "Lic", "city": "CHENNAI"}, "geometry": {"type": "Point", "coordinates": [80.26386382104317, 13.063008515983547]}}, {"type": "Feature", "properties": {"route_name": "60", "stop_id": "lctVuVOk", "name": "Shanthi Theatre", "city": "CHENNAI"}, "geometry": {"type": "Point", "coordinates": [80.2689268934987, 13.067733478670458]}}, {"type": "Feature", "properties": {"route_name": "60", "stop_id": "iPNesxKP", "name": "Simson Or Periyar Bridge", "city": "CHENNAI"}, "geometry": {"type": "Point", "coordinates": [80.27400513, 13.07108876]}}, {"type": "Feature", "properties": {"route_name": "60", "stop_id": "NQaaFyOm", "name": "Pallavan Salai", "city": "CHENNAI"}, "geometry": {"type": "Point", "coordinates": [80.27618439, 13.0754805]}}, {"type": "Feature", "properties": {"route_name": "60", "stop_id": "gzZgDndk", "name": "MGR Central Station", "city": "CHENNAI"}, "geometry": {"type": "Point", "coordinates": [80.27560345417622, 13.082012529953504]}}, {"type": "Feature", "properties": {"route_name": "60", "stop_id": "KwaxxmSs", "name": "Nurse Quarters", "city": "CHENNAI"}, "geometry": {"type": "Point", "coordinates": [80.27896059391605, 13.082298318772699]}}, {"type": "Feature", "properties": {"route_name": "60", "stop_id": "neNWquOh", "name": "Central Dental College", "city": "CHENNAI"}, "geometry": {"type": "Point", "coordinates": [80.28199470667641, 13.08298870082699]}}, {"type": "Feature", "properties": {"route_name": "60", "stop_id": "QHFmFyLR", "name": "High Court ", "city": "CHENNAI"}, "geometry": {"type": "Point", "coordinates": [80.28344657999999, 13.085009446858479]}}, {"type": "Feature", "properties": {"route_name": "60", "stop_id": "EkWBPXmr", "name": "Broadway", "city": "CHENNAI"}, "geometry": {"type": "Point", "coordinates": [80.28388983, 13.08820568]}}, {"type": "Feature", "properties": {"name": "60"}, "geometry": {"type": "LineString", "coordinates": [[80.12315, 12.98507], [80.12349, 12.98504], [80.1236, 12.98501], [80.12377, 12.98491], [80.12391, 12.98479], [80.1246, 12.98431], [80.12506, 12.98393], [80.12537, 12.98373], [80.12556, 12.98363], [80.12587, 12.98354], [80.12621, 12.98348], [80.12694, 12.98336], [80.1277, 12.98324], [80.12771, 12.98328], [80.12771, 12.98323], [80.12851, 12.98313], [80.12862, 12.9831], [80.12865, 12.98309], [80.12867, 12.98302], [80.1287, 12.98279], [80.12873, 12.98267], [80.1288, 12.98259], [80.12891, 12.98255], [80.12909, 12.98253], [80.12929, 12.98249], [80.12933, 12.98242], [80.12928, 12.98203], [80.1292, 12.98079], [80.12909, 12.98028], [80.12897, 12.97976], [80.12898, 12.97962], [80.12917, 12.97946], [80.12952, 12.97922], [80.12965, 12.97907], [80.12991, 12.97876], [80.13007, 12.97854], [80.13048, 12.97809], [80.13054, 12.978], [80.13054, 12.9777], [80.13054, 12.97763], [80.13058, 12.97758], [80.13065, 12.97753], [80.13082, 12.97745], [80.1313, 12.97731], [80.13151, 12.97723], [80.13172, 12.97711], [80.132, 12.97696], [80.13253, 12.97676], [80.13265, 12.9767], [80.1327, 12.97664], [80.13273, 12.9766], [80.13273, 12.97624], [80.13265, 12.97574], [80.13262, 12.97547], [80.13265, 12.97528], [80.13267, 12.97509], [80.13274, 12.97498], [80.13283, 12.97489], [80.13298, 12.97486], [80.13339, 12.9748], [80.13371, 12.97476], [80.13438, 12.97468], [80.13496, 12.97456], [80.1351, 12.97451], [80.13525, 12.97444], [80.13658, 12.97359], [80.13697, 12.97339], [80.13721, 12.97325], [80.13743, 12.97317], [80.13791, 12.97302], [80.13814, 12.97294], [80.13834, 12.97286], [80.13945, 12.97232], [80.13988, 12.97213], [80.14052, 12.97191], [80.14101, 12.97179], [80.14191, 12.97163], [80.14243, 12.97154], [80.14279, 12.97147], [80.14314, 12.97136], [80.14384, 12.97113], [80.14436, 12.97094], [80.14498, 12.97066], [80.14504, 12.9707], [80.14569, 12.97108], [80.14624, 12.9714], [80.14738, 12.97217], [80.14761, 12.97236], [80.14769, 12.97248], [80.14769, 12.97256], [80.14768, 12.97264], [80.14779, 12.97262], [80.14787, 12.9726], [80.14792, 12.97256], [80.14799, 12.97249], [80.14845, 12.97205], [80.14875, 12.97175], [80.14936, 12.97086], [80.14952, 12.97095], [80.14979, 12.97111], [80.1506, 12.97166], [80.15119, 12.97208], [80.1512, 12.97209], [80.15121, 12.97209], [80.15126, 12.97216], [80.15139, 12.97232], [80.15201, 12.97277], [80.15297, 12.9734], [80.15298, 12.97339], [80.15383, 12.97397], [80.15493, 12.9747], [80.15673, 12.9759], [80.15859, 12.97715], [80.1586, 12.97723], [80.15935, 12.97773], [80.15995, 12.97815], [80.16124, 12.9791], [80.16226, 12.9798], [80.16261, 12.97998], [80.16279, 12.98005], [80.164, 12.98034], [80.16457, 12.98052], [80.16528, 12.98083], [80.16626, 12.98138], [80.16729, 12.98195], [80.16804, 12.98241], [80.16861, 12.98281], [80.17062, 12.98401], [80.17128, 12.98434], [80.17141, 12.98438], [80.17152, 12.98438], [80.17255, 12.98514], [80.17308, 12.98542], [80.17433, 12.98631], [80.17555, 12.9871], [80.176, 12.9874], [80.17601, 12.98745], [80.17722, 12.98833], [80.17783, 12.98875], [80.17885, 12.98958], [80.18036, 12.99073], [80.18095, 12.99121], [80.18205, 12.99205], [80.18233, 12.99228], [80.18296, 12.9927], [80.1854, 12.99404], [80.18692, 12.99485], [80.18854, 12.99567], [80.1891, 12.99602], [80.18941, 12.99626], [80.18957, 12.99638], [80.18982, 12.99662], [80.19034, 12.99712], [80.19097, 12.99759], [80.19139, 12.99794], [80.19198, 12.99844], [80.19244, 12.99879], [80.19422, 13.00017], [80.19505, 13.00082], [80.19579, 13.00144], [80.19619, 13.00178], [80.19649, 13.00199], [80.19671, 13.00212], [80.19706, 13.00219], [80.19743, 13.00217], [80.19825, 13.00203], [80.19894, 13.00188], [80.19929, 13.00183], [80.19963, 13.00187], [80.19992, 13.00197], [80.20014, 13.0021], [80.20033, 13.00229], [80.20046, 13.00248], [80.20052, 13.00261], [80.20071, 13.00325], [80.20087, 13.00394], [80.20097, 13.00432], [80.20112, 13.00476], [80.20124, 13.00502], [80.20147, 13.00527], [80.20169, 13.00552], [80.20192, 13.0057], [80.20216, 13.00585], [80.20245, 13.00599], [80.20269, 13.00613], [80.2029, 13.00633], [80.20313, 13.0066], [80.20334, 13.00692], [80.20347, 13.00718], [80.20357, 13.00749], [80.20365, 13.00786], [80.20366, 13.00816], [80.20354, 13.00834], [80.20341, 13.00843], [80.20323, 13.00847], [80.20312, 13.00846], [80.20296, 13.00841], [80.20291, 13.00837], [80.20282, 13.00828], [80.20278, 13.00823], [80.20272, 13.00807], [80.20274, 13.0079], [80.20283, 13.00775], [80.203, 13.00763], [80.20317, 13.0076], [80.2034, 13.00762], [80.20402, 13.00767], [80.20437, 13.00769], [80.20536, 13.00768], [80.20547, 13.0077], [80.20553, 13.00773], [80.20571, 13.00773], [80.20589, 13.00774], [80.20609, 13.00777], [80.207, 13.00793], [80.20863, 13.00811], [80.20935, 13.00826], [80.20956, 13.00831], [80.21, 13.00843], [80.21034, 13.00854], [80.21103, 13.00944], [80.21111, 13.00937], [80.21142, 13.00912], [80.2115, 13.00908], [80.21171, 13.00905], [80.21202, 13.00917], [80.21236, 13.00926], [80.21301, 13.0095], [80.21447, 13.0101], [80.2146, 13.01015], [80.21487, 13.01018], [80.21549, 13.01027], [80.21567, 13.01031], [80.21585, 13.01038], [80.21671, 13.01077], [80.21745, 13.01116], [80.21795, 13.01135], [80.21865, 13.01159], [80.21987, 13.012], [80.22075, 13.01228], [80.22119, 13.01241], [80.22128, 13.01246], [80.22155, 13.01261], [80.22304, 13.01385], [80.22317, 13.01387], [80.22424, 13.01475], [80.22462, 13.01504], [80.2247, 13.0151], [80.22476, 13.01521], [80.22485, 13.01534], [80.22504, 13.01554], [80.22508, 13.01558], [80.22505, 13.01561], [80.22523, 13.01581], [80.2253, 13.01593], [80.22534, 13.01605], [80.22536, 13.01614], [80.22535, 13.01627], [80.22527, 13.01662], [80.22509, 13.01709], [80.22441, 13.01877], [80.22436, 13.0191], [80.22436, 13.01912], [80.2244, 13.01942], [80.22451, 13.0197], [80.22462, 13.01991], [80.22491, 13.02035], [80.22625, 13.02209], [80.22648, 13.02235], [80.22751, 13.02351], [80.22762, 13.02362], [80.22776, 13.0237], [80.22805, 13.02391], [80.22818, 13.02404], [80.22835, 13.02428], [80.22845, 13.02439], [80.22846, 13.02437], [80.22978, 13.02536], [80.22998, 13.02552], [80.23026, 13.02571], [80.23051, 13.02583], [80.23083, 13.02593], [80.23138, 13.0261], [80.23215, 13.0263], [80.23274, 13.02654], [80.2333, 13.02684], [80.23439, 13.0275], [80.23534, 13.02804], [80.23613, 13.0287], [80.23632, 13.02885], [80.237, 13.02947], [80.23749, 13.02984], [80.23891, 13.03066], [80.23975, 13.03115], [80.24075, 13.03163], [80.24096, 13.03173], [80.24185, 13.03216], [80.24288, 13.03279], [80.24308, 13.03292], [80.24354, 13.03329], [80.24443, 13.03397], [80.24486, 13.0343], [80.24554, 13.0348], [80.24577, 13.03502], [80.24586, 13.03514], [80.24592, 13.03527], [80.24617, 13.03626], [80.2464, 13.03715], [80.24661, 13.03823], [80.24686, 13.03923], [80.24715, 13.04073], [80.2473, 13.04156], [80.24739, 13.04195], [80.24752, 13.04254], [80.24802, 13.04492], [80.24812, 13.04543], [80.24817, 13.04576], [80.24821, 13.04592], [80.24832, 13.04652], [80.24836, 13.04689], [80.24837, 13.04696], [80.24837, 13.04695], [80.24844, 13.04719], [80.24852, 13.04735], [80.24885, 13.04772], [80.24929, 13.04819], [80.24955, 13.04855], [80.24962, 13.04879], [80.24973, 13.0494], [80.24977, 13.04982], [80.24989, 13.05024], [80.25005, 13.05109], [80.25011, 13.05128], [80.25025, 13.05159], [80.25052, 13.05202], [80.25083, 13.05229], [80.25138, 13.05269], [80.25168, 13.0529], [80.25262, 13.05359], [80.25324, 13.05406], [80.25426, 13.05483], [80.25483, 13.05527], [80.25555, 13.05577], [80.25606, 13.05614], [80.25635, 13.05638], [80.25656, 13.0566], [80.25677, 13.05684], [80.25677, 13.05683], [80.25712, 13.05723], [80.25737, 13.05751], [80.25766, 13.05778], [80.25871, 13.05866], [80.25946, 13.05925], [80.2595, 13.05928], [80.25951, 13.05936], [80.2596, 13.05948], [80.26044, 13.06019], [80.2609, 13.06058], [80.26105, 13.06069], [80.26129, 13.06088], [80.26188, 13.06137], [80.26234, 13.06174], [80.26249, 13.06183], [80.26261, 13.06185], [80.26297, 13.06215], [80.26393, 13.06293], [80.26429, 13.06322], [80.26448, 13.0634], [80.26488, 13.06374], [80.26535, 13.06411], [80.26591, 13.06458], [80.2672, 13.06563], [80.26746, 13.06582], [80.26781, 13.06609], [80.26814, 13.06631], [80.26817, 13.06636], [80.26823, 13.06648], [80.26832, 13.06663], [80.26837, 13.0667], [80.26841, 13.06682], [80.2686, 13.06711], [80.2689, 13.06756], [80.26898, 13.06771], [80.2693, 13.06829], [80.26945, 13.0683], [80.26988, 13.06823], [80.27032, 13.06821], [80.27085, 13.06819], [80.27125, 13.06816], [80.27169, 13.06846], [80.27179, 13.06857], [80.27187, 13.06874], [80.2721, 13.0692], [80.27224, 13.06939], [80.27235, 13.06952], [80.27278, 13.06986], [80.27391, 13.07078], [80.27403, 13.07108], [80.27435, 13.07177], [80.27459, 13.07208], [80.27497, 13.07243], [80.27636, 13.07371], [80.27632, 13.07398], [80.27623, 13.07516], [80.27622, 13.07548], [80.27612, 13.07789], [80.27608, 13.07801], [80.27601, 13.07809], [80.27588, 13.07815], [80.27556, 13.07825], [80.27533, 13.07835], [80.27518, 13.07851], [80.27514, 13.07859], [80.2751, 13.07872], [80.2751, 13.07889], [80.27516, 13.0792], [80.27524, 13.07962], [80.27527, 13.07988], [80.27527, 13.08001], [80.27519, 13.0813], [80.27516, 13.08164], [80.27516, 13.08172], [80.27525, 13.08186], [80.27527, 13.0819], [80.27533, 13.08193], [80.27553, 13.08198], [80.27561, 13.08199], [80.27585, 13.08202], [80.27592, 13.08202], [80.276, 13.08188], [80.27602, 13.08183], [80.27623, 13.08187], [80.27656, 13.08192], [80.27793, 13.08212], [80.27844, 13.08216], [80.27897, 13.08221], [80.27895, 13.0822], [80.27902, 13.08221], [80.28089, 13.08238], [80.28164, 13.08234], [80.28204, 13.08299], [80.28205, 13.08296], [80.28253, 13.08375], [80.28303, 13.08448], [80.28334, 13.08483], [80.2835, 13.08495], [80.28407, 13.08533], [80.2843, 13.08545], [80.28452, 13.08553], [80.28499, 13.08744], [80.28522, 13.08839], [80.28479, 13.08839], [80.28416, 13.08837], [80.28388, 13.08836]]}}]}