{"type": "FeatureCollection", "features": [{"type": "Feature", "properties": {"route_name": "579A", "stop_id": "puwcRgFs", "name": "Tambaram Sanatorium Bus Stand", "city": "CHENNAI"}, "geometry": {"type": "Point", "coordinates": [80.12748203125693, 12.937217648869067]}}, {"type": "Feature", "properties": {"route_name": "579A", "stop_id": "EAwJtHSB", "name": "Sanatorium", "city": "CHENNAI"}, "geometry": {"type": "Point", "coordinates": [80.13299161873495, 12.942574480017388]}}, {"type": "Feature", "properties": {"route_name": "579A", "stop_id": "vyojaKRU", "name": "TB Hospital", "city": "CHENNAI"}, "geometry": {"type": "Point", "coordinates": [80.13450000658327, 12.944099170682174]}}, {"type": "Feature", "properties": {"route_name": "579A", "stop_id": "eaNsVWDR", "name": "Tambaram Sanatorium Bus Stand", "city": "CHENNAI"}, "geometry": {"type": "Point", "coordinates": [80.12809022215106, 12.937055899909849]}}, {"type": "Feature", "properties": {"route_name": "579A", "stop_id": "CKorGRkE", "name": "Kadaperi", "city": "CHENNAI"}, "geometry": {"type": "Point", "coordinates": [80.12469723891547, 12.93337144029531]}}, {"type": "Feature", "properties": {"route_name": "579A", "stop_id": "ejMjPdTH", "name": "Tambaram West Bus Stand", "city": "CHENNAI"}, "geometry": {"type": "Point", "coordinates": [80.118864, 12.92758911]}}, {"type": "Feature", "properties": {"route_name": "579A", "stop_id": "XFPAZveS", "name": "Tambaram Railway Station", "city": "CHENNAI"}, "geometry": {"type": "Point", "coordinates": [80.11732575024665, 12.925641090542161]}}, {"type": "Feature", "properties": {"route_name": "579A", "stop_id": "yAsGVYQM", "name": "Tambaram West", "city": "CHENNAI"}, "geometry": {"type": "Point", "coordinates": [80.10612013252262, 12.925704908321071]}}, {"type": "Feature", "properties": {"route_name": "579A", "stop_id": "RabBrvbh", "name": "Kulakkarai Bus Stop", "city": "CHENNAI"}, "geometry": {"type": "Point", "coordinates": [80.10431226527771, 12.925482517145324]}}, {"type": "Feature", "properties": {"route_name": "579A", "stop_id": "TikfrWrm", "name": "Lakshmipuram", "city": "CHENNAI"}, "geometry": {"type": "Point", "coordinates": [80.1009608563445, 12.925300042387418]}}, {"type": "Feature", "properties": {"route_name": "579A", "stop_id": "jgCiOeaN", "name": "Vettri Nagar", "city": "CHENNAI"}, "geometry": {"type": "Point", "coordinates": [80.09708949675098, 12.92320423946514]}}, {"type": "Feature", "properties": {"route_name": "579A", "stop_id": "ZUUFaTkv", "name": "Barathi Nagar", "city": "CHENNAI"}, "geometry": {"type": "Point", "coordinates": [80.09272159871375, 12.92156470536876]}}, {"type": "Feature", "properties": {"route_name": "579A", "stop_id": "hlYcHDiv", "name": "Gandhi Nagar", "city": "CHENNAI"}, "geometry": {"type": "Point", "coordinates": [80.08995637018495, 12.92089519626227]}}, {"type": "Feature", "properties": {"route_name": "579A", "stop_id": "pHbSfQWg", "name": "Sri Padmavathi Mahal", "city": "CHENNAI"}, "geometry": {"type": "Point", "coordinates": [80.08708959838164, 12.919724779860736]}}, {"type": "Feature", "properties": {"route_name": "579A", "stop_id": "wBZvskGC", "name": "Old Perungalathur or Ambedkar Statue", "city": "CHENNAI"}, "geometry": {"type": "Point", "coordinates": [80.08384150190909, 12.919041515460115]}}, {"type": "Feature", "properties": {"route_name": "579A", "stop_id": "WzJZybAt", "name": "Parwati Nagar", "city": "CHENNAI"}, "geometry": {"type": "Point", "coordinates": [80.081728942528, 12.918254766631692]}}, {"type": "Feature", "properties": {"route_name": "579A", "stop_id": "KbKyxild", "name": "Madanapuram", "city": "CHENNAI"}, "geometry": {"type": "Point", "coordinates": [80.07735023153316, 12.915439019618084]}}, {"type": "Feature", "properties": {"route_name": "579A", "stop_id": "iRgZVaoH", "name": "Attai Company", "city": "CHENNAI"}, "geometry": {"type": "Point", "coordinates": [80.07160384511519, 12.914394314453777]}}, {"type": "Feature", "properties": {"route_name": "579A", "stop_id": "Phtvjmoj", "name": "Mudichur Bus Stand", "city": "CHENNAI"}, "geometry": {"type": "Point", "coordinates": [80.06983966634516, 12.911223528171382]}}, {"type": "Feature", "properties": {"route_name": "579A", "stop_id": "NkYJOxxA", "name": "Varadarajapuram", "city": "CHENNAI"}, "geometry": {"type": "Point", "coordinates": [80.06875980453083, 12.908807810502264]}}, {"type": "Feature", "properties": {"route_name": "579A", "stop_id": "KhQckqci", "name": "Lakshmi Nagar", "city": "CHENNAI"}, "geometry": {"type": "Point", "coordinates": [80.06634418383715, 12.905695927430992]}}, {"type": "Feature", "properties": {"route_name": "579A", "stop_id": "zrVEttwl", "name": "Natesan School", "city": "CHENNAI"}, "geometry": {"type": "Point", "coordinates": [80.06513153081733, 12.899931112874482]}}, {"type": "Feature", "properties": {"route_name": "579A", "stop_id": "qmRscxuH", "name": "Mannivakkam Road Junction", "city": "CHENNAI"}, "geometry": {"type": "Point", "coordinates": [80.06445758896416, 12.894377969692147]}}, {"type": "Feature", "properties": {"route_name": "579A", "stop_id": "FdzHSswJ", "name": "Karasangal", "city": "CHENNAI"}, "geometry": {"type": "Point", "coordinates": [80.0469444704413, 12.894366726757076]}}, {"type": "Feature", "properties": {"route_name": "579A", "stop_id": "nvtqczOj", "name": "MGR Nagar", "city": "CHENNAI"}, "geometry": {"type": "Point", "coordinates": [80.0402860450215, 12.89198255088987]}}, {"type": "Feature", "properties": {"route_name": "579A", "stop_id": "POeaLshN", "name": "Kizh Padappai", "city": "CHENNAI"}, "geometry": {"type": "Point", "coordinates": [80.02927908276763, 12.888563262312866]}}, {"type": "Feature", "properties": {"route_name": "579A", "stop_id": "cKlxsEIa", "name": "Padappai", "city": "CHENNAI"}, "geometry": {"type": "Point", "coordinates": [80.02104348125431, 12.88624954804881]}}, {"type": "Feature", "properties": {"route_name": "579A", "stop_id": "jobllKUJ", "name": "Salamangalam", "city": "CHENNAI"}, "geometry": {"type": "Point", "coordinates": [80.01233399706439, 12.884492822084013]}}, {"type": "Feature", "properties": {"route_name": "579A", "stop_id": "pqZYMbGr", "name": "Salamangalam Colony", "city": "CHENNAI"}, "geometry": {"type": "Point", "coordinates": [80.00870024658707, 12.882512562411794]}}, {"type": "Feature", "properties": {"route_name": "579A", "stop_id": "honleovC", "name": "Vanchuvancheri", "city": "CHENNAI"}, "geometry": {"type": "Point", "coordinates": [79.99697308300222, 12.875351226325524]}}, {"type": "Feature", "properties": {"route_name": "579A", "stop_id": "JGCJnIWw", "name": "sarapanchery", "city": "CHENNAI"}, "geometry": {"type": "Point", "coordinates": [79.9850790466271, 12.872963116710125]}}, {"type": "Feature", "properties": {"route_name": "579A", "stop_id": "IbLBdCXD", "name": "Crescent Lake Junction", "city": "CHENNAI"}, "geometry": {"type": "Point", "coordinates": [79.97962833164524, 12.870900804693614]}}, {"type": "Feature", "properties": {"route_name": "579A", "stop_id": "tSXpsDyV", "name": "Nariyambakkam", "city": "CHENNAI"}, "geometry": {"type": "Point", "coordinates": [79.9723048901667, 12.868578854459999]}}, {"type": "Feature", "properties": {"route_name": "579A", "stop_id": "krjqWYyL", "name": "Vattambakkam", "city": "CHENNAI"}, "geometry": {"type": "Point", "coordinates": [79.96035816507833, 12.860290977326125]}}, {"type": "Feature", "properties": {"route_name": "579A", "stop_id": "SRJkWTfK", "name": "Oragadam Road Junction", "city": "CHENNAI"}, "geometry": {"type": "Point", "coordinates": [79.94262799122953, 12.851280094031406]}}, {"type": "Feature", "properties": {"route_name": "579A", "stop_id": "zAhquueS", "name": "Ezhichur Koot Road Junction", "city": "CHENNAI"}, "geometry": {"type": "Point", "coordinates": [79.92798397285719, 12.842291275094638]}}, {"type": "Feature", "properties": {"route_name": "579A", "stop_id": "oVvGCedi", "name": "Kandigai", "city": "CHENNAI"}, "geometry": {"type": "Point", "coordinates": [79.92040896787853, 12.839872057408572]}}, {"type": "Feature", "properties": {"route_name": "579A", "stop_id": "EBDfudXo", "name": "Panruthi", "city": "CHENNAI"}, "geometry": {"type": "Point", "coordinates": [79.90848504030669, 12.841532478269466]}}, {"type": "Feature", "properties": {"route_name": "579A", "stop_id": "LHNTbQin", "name": "Kunnarakkan", "city": "CHENNAI"}, "geometry": {"type": "Point", "coordinates": [79.89614381185424, 12.840308336330134]}}, {"type": "Feature", "properties": {"route_name": "579A", "stop_id": "TUZfegir", "name": "Varanavasi", "city": "CHENNAI"}, "geometry": {"type": "Point", "coordinates": [79.8836220700772, 12.83211566447541]}}, {"type": "Feature", "properties": {"route_name": "579A", "stop_id": "VgroZBKv", "name": "Thalayampattu", "city": "CHENNAI"}, "geometry": {"type": "Point", "coordinates": [79.87800529081801, 12.82860810755535]}}, {"type": "Feature", "properties": {"route_name": "579A", "stop_id": "WsxoHomq", "name": "Deveriambakkam", "city": "CHENNAI"}, "geometry": {"type": "Point", "coordinates": [79.87061134564897, 12.820409355844955]}}, {"type": "Feature", "properties": {"route_name": "579A", "stop_id": "JGmgdpWx", "name": "Maduranallur", "city": "CHENNAI"}, "geometry": {"type": "Point", "coordinates": [79.86057717834649, 12.816873207373343]}}, {"type": "Feature", "properties": {"route_name": "579A", "stop_id": "KjUtPMMe", "name": "Nathanallur", "city": "CHENNAI"}, "geometry": {"type": "Point", "coordinates": [79.847804760484, 12.813290177567161]}}, {"type": "Feature", "properties": {"route_name": "579A", "stop_id": "ZsxHmovG", "name": "Oothukadu Cross Road", "city": "CHENNAI"}, "geometry": {"type": "Point", "coordinates": [79.82949098841459, 12.808806492217531]}}, {"type": "Feature", "properties": {"route_name": "579A", "stop_id": "PzIXuqgO", "name": "Sekkadu", "city": "CHENNAI"}, "geometry": {"type": "Point", "coordinates": [79.82081556490925, 12.800840747765205]}}, {"type": "Feature", "properties": {"route_name": "579A", "stop_id": "XeNLTPEj", "name": "Walajabad Railway Station", "city": "CHENNAI"}, "geometry": {"type": "Point", "coordinates": [79.81940626528979, 12.797608164778024]}}, {"type": "Feature", "properties": {"route_name": "579A", "stop_id": "MvGjEBBL", "name": "Walajabad Bus Stand", "city": "CHENNAI"}, "geometry": {"type": "Point", "coordinates": [79.81734757864909, 12.792632955908692]}}, {"type": "Feature", "properties": {"name": "579A"}, "geometry": {"type": "LineString", "coordinates": [[80.12752, 12.93719], [80.12722, 12.93679], [80.12745, 12.93661], [80.12767, 12.9369], [80.12819, 12.93752], [80.12873, 12.9381], [80.12931, 12.93876], [80.1303, 12.93996], [80.13064, 12.94032], [80.133, 12.94256], [80.13426, 12.94379], [80.13451, 12.94409], [80.13475, 12.94441], [80.13492, 12.94465], [80.13492, 12.94475], [80.13493, 12.94481], [80.13523, 12.94521], [80.13601, 12.94621], [80.13667, 12.94707], [80.13671, 12.94717], [80.13681, 12.94723], [80.13693, 12.94722], [80.13701, 12.94715], [80.13704, 12.94706], [80.13702, 12.94698], [80.13693, 12.9469], [80.13691, 12.94689], [80.13658, 12.94644], [80.13526, 12.94474], [80.13506, 12.94455], [80.135, 12.94452], [80.13494, 12.94447], [80.13463, 12.94406], [80.13441, 12.9438], [80.13361, 12.94296], [80.13319, 12.94253], [80.13309, 12.94244], [80.13224, 12.94162], [80.13146, 12.94087], [80.13096, 12.94032], [80.13073, 12.94013], [80.13047, 12.93986], [80.12986, 12.93919], [80.12834, 12.93743], [80.12804, 12.9371], [80.12706, 12.93597], [80.12528, 12.93403], [80.12465, 12.93341], [80.12294, 12.93174], [80.1212, 12.92995], [80.12043, 12.92921], [80.11972, 12.92848], [80.11884, 12.92761], [80.11771, 12.92648], [80.11721, 12.92586], [80.11719, 12.92584], [80.11613, 12.92478], [80.11527, 12.92394], [80.11515, 12.92395], [80.11503, 12.924], [80.11496, 12.92418], [80.11488, 12.92427], [80.11481, 12.92432], [80.1146, 12.92436], [80.10628, 12.92583], [80.10612, 12.92577], [80.10608, 12.92576], [80.10564, 12.92575], [80.10536, 12.92572], [80.1045, 12.92555], [80.10431, 12.92552], [80.10405, 12.92551], [80.10374, 12.92551], [80.1031, 12.92561], [80.10262, 12.92566], [80.10222, 12.92566], [80.10204, 12.92564], [80.1016, 12.92553], [80.10099, 12.92534], [80.10095, 12.92532], [80.10051, 12.92508], [80.10017, 12.92491], [80.10001, 12.92486], [80.09966, 12.92472], [80.09867, 12.92429], [80.09846, 12.92417], [80.09731, 12.92337], [80.09708, 12.92322], [80.09626, 12.92271], [80.09565, 12.92238], [80.09526, 12.92224], [80.09444, 12.92202], [80.09391, 12.92188], [80.09338, 12.92178], [80.09271, 12.9216], [80.08995, 12.92093], [80.08923, 12.92075], [80.08841, 12.92033], [80.08766, 12.91993], [80.08739, 12.91981], [80.08709, 12.91975], [80.08613, 12.91966], [80.08496, 12.91947], [80.08461, 12.91938], [80.08382, 12.91909], [80.08382, 12.91908], [80.08357, 12.919], [80.08236, 12.91853], [80.08174, 12.9183], [80.08171, 12.91829], [80.08108, 12.91804], [80.08095, 12.91796], [80.08027, 12.91728], [80.07947, 12.91644], [80.07891, 12.91589], [80.07867, 12.9157], [80.07845, 12.91557], [80.0783, 12.91551], [80.07806, 12.91546], [80.07735, 12.91547], [80.07652, 12.91549], [80.0756, 12.91547], [80.07526, 12.91544], [80.07489, 12.91546], [80.07459, 12.91551], [80.07416, 12.91554], [80.07376, 12.91555], [80.07332, 12.91552], [80.07286, 12.91537], [80.0724, 12.91519], [80.07209, 12.915], [80.07186, 12.91479], [80.07162, 12.91449], [80.07157, 12.91442], [80.07123, 12.91387], [80.07105, 12.91354], [80.07038, 12.91251], [80.07018, 12.91216], [80.07005, 12.91188], [80.0698, 12.91123], [80.06944, 12.91008], [80.06932, 12.90974], [80.06919, 12.90947], [80.06893, 12.90908], [80.06872, 12.90884], [80.06744, 12.90721], [80.06708, 12.90674], [80.06649, 12.90604], [80.0664, 12.9059], [80.06632, 12.90571], [80.06627, 12.90556], [80.06605, 12.90455], [80.06577, 12.90336], [80.06537, 12.90173], [80.06527, 12.90123], [80.06515, 12.90038], [80.0651, 12.89993], [80.06465, 12.89637], [80.0644, 12.89439], [80.06432, 12.89411], [80.06429, 12.89404], [80.06424, 12.89407], [80.06379, 12.89432], [80.06301, 12.89475], [80.06198, 12.89528], [80.06153, 12.89546], [80.0613, 12.89551], [80.06102, 12.89552], [80.06074, 12.8955], [80.06046, 12.89546], [80.06006, 12.89533], [80.05966, 12.89518], [80.0595, 12.89515], [80.05878, 12.89515], [80.05768, 12.8952], [80.05662, 12.89524], [80.05585, 12.89525], [80.05344, 12.89513], [80.05037, 12.89491], [80.04873, 12.89478], [80.04809, 12.89469], [80.04694, 12.8944], [80.04692, 12.8944], [80.04646, 12.89426], [80.04475, 12.89364], [80.04102, 12.89227], [80.04027, 12.89201], [80.03988, 12.89188], [80.0377, 12.89098], [80.03701, 12.89069], [80.0365, 12.89052], [80.03496, 12.89009], [80.0341, 12.88988], [80.02927, 12.8886], [80.02837, 12.88837], [80.02596, 12.8877], [80.0241, 12.88717], [80.02325, 12.88694], [80.02315, 12.88694], [80.02277, 12.88684], [80.02234, 12.88671], [80.02182, 12.88656], [80.02104, 12.88627], [80.02087, 12.88619], [80.02083, 12.88617], [80.02014, 12.88602], [80.01827, 12.88587], [80.01741, 12.88578], [80.01575, 12.88555], [80.01387, 12.8852], [80.01333, 12.88502], [80.01232, 12.88452], [80.00939, 12.88292], [80.00869, 12.88253], [80.00684, 12.88157], [80.00547, 12.8809], [80.00329, 12.87978], [80.00285, 12.87946], [80.0025, 12.87917], [80.00224, 12.87891], [80.00141, 12.87798], [80.00086, 12.87749], [80.0006, 12.8773], [79.99996, 12.87691], [79.99949, 12.87663], [79.99856, 12.87616], [79.99799, 12.87587], [79.99751, 12.87565], [79.99693, 12.87544], [79.99694, 12.87535], [79.99696, 12.87543], [79.99624, 12.87526], [79.99463, 12.87482], [79.98927, 12.87358], [79.9874, 12.87322], [79.98663, 12.8731], [79.98561, 12.873], [79.98508, 12.87303], [79.98509, 12.87308], [79.98474, 12.87309], [79.98458, 12.87307], [79.98442, 12.87299], [79.98395, 12.87286], [79.98353, 12.87269], [79.98234, 12.8722], [79.98049, 12.87141], [79.97958, 12.87102], [79.97904, 12.87078], [79.97835, 12.87052], [79.97466, 12.8694], [79.97405, 12.86921], [79.97234, 12.86861], [79.9723, 12.8686], [79.9678, 12.86723], [79.96707, 12.867], [79.96682, 12.86689], [79.96668, 12.86678], [79.96564, 12.86572], [79.96405, 12.86409], [79.96223, 12.86225], [79.96171, 12.86171], [79.9609, 12.86088], [79.96035, 12.8603], [79.95989, 12.85982], [79.95955, 12.85952], [79.95906, 12.85917], [79.95847, 12.85885], [79.95746, 12.85838], [79.95578, 12.85759], [79.9534, 12.85646], [79.9514, 12.85557], [79.9471, 12.85355], [79.94604, 12.85303], [79.94608, 12.85292], [79.94596, 12.85284], [79.94495, 12.85239], [79.94404, 12.85202], [79.94296, 12.8515], [79.94289, 12.85147], [79.94306, 12.85029], [79.94312, 12.84987], [79.94369, 12.84641], [79.94379, 12.84584], [79.94368, 12.84583], [79.94348, 12.84713], [79.94301, 12.84997], [79.94279, 12.85138], [79.94261, 12.85131], [79.94238, 12.85112], [79.94166, 12.85049], [79.94105, 12.84994], [79.94095, 12.8499], [79.94087, 12.84989], [79.94084, 12.8499], [79.94071, 12.84979], [79.94024, 12.84937], [79.93908, 12.84836], [79.93811, 12.84756], [79.9369, 12.84649], [79.93547, 12.84533], [79.9351, 12.84504], [79.93466, 12.84477], [79.93345, 12.84421], [79.93267, 12.84391], [79.9315, 12.84351], [79.92831, 12.84245], [79.92797, 12.84233], [79.92253, 12.84058], [79.92039, 12.83994], [79.91803, 12.8392], [79.91766, 12.8391], [79.9174, 12.83911], [79.91723, 12.83914], [79.91698, 12.83922], [79.9132, 12.84042], [79.91097, 12.84112], [79.91014, 12.84137], [79.90967, 12.84148], [79.90916, 12.84157], [79.90857, 12.8416], [79.90849, 12.8416], [79.90776, 12.84165], [79.90652, 12.84169], [79.9048, 12.84174], [79.90193, 12.84177], [79.90132, 12.84175], [79.89873, 12.8416], [79.89819, 12.84156], [79.89773, 12.84149], [79.89736, 12.84137], [79.89707, 12.84122], [79.89674, 12.84099], [79.89605, 12.84041], [79.89575, 12.84016], [79.89475, 12.83947], [79.89385, 12.83888], [79.89368, 12.83874], [79.89342, 12.83847], [79.89326, 12.83825], [79.89251, 12.8369], [79.89222, 12.83644], [79.89206, 12.83625], [79.89181, 12.83598], [79.89155, 12.83575], [79.8913, 12.83556], [79.89084, 12.83529], [79.89041, 12.83512], [79.88976, 12.83497], [79.88812, 12.83475], [79.8876, 12.83466], [79.88717, 12.83454], [79.88677, 12.83439], [79.88634, 12.8342], [79.88616, 12.8341], [79.88596, 12.83398], [79.88578, 12.83383], [79.88553, 12.83362], [79.8848, 12.8329], [79.88432, 12.83249], [79.88415, 12.83238], [79.88368, 12.83215], [79.88362, 12.83213], [79.8836, 12.83212], [79.88348, 12.83213], [79.88343, 12.83211], [79.88289, 12.83191], [79.88172, 12.83154], [79.88058, 12.83115], [79.88, 12.83093], [79.87985, 12.83086], [79.87973, 12.83077], [79.87957, 12.8306], [79.87901, 12.82991], [79.87795, 12.82866], [79.87727, 12.82789], [79.87646, 12.82694], [79.87634, 12.82678], [79.87623, 12.82659], [79.87603, 12.82613], [79.87566, 12.82491], [79.87563, 12.82485], [79.87557, 12.8248], [79.87548, 12.82478], [79.87507, 12.82483], [79.87451, 12.82489], [79.87435, 12.82491], [79.87414, 12.82488], [79.87387, 12.82484], [79.87341, 12.82472], [79.87305, 12.82461], [79.87271, 12.82439], [79.87233, 12.82406], [79.87225, 12.82394], [79.87204, 12.82343], [79.87164, 12.82274], [79.87118, 12.82202], [79.87071, 12.82118], [79.87062, 12.82099], [79.87042, 12.82049], [79.87033, 12.82028], [79.87017, 12.82002], [79.87004, 12.81988], [79.86983, 12.81968], [79.86803, 12.81836], [79.86776, 12.81817], [79.86745, 12.81802], [79.86711, 12.81796], [79.86636, 12.81786], [79.86609, 12.81784], [79.86598, 12.81779], [79.86573, 12.81775], [79.86223, 12.81736], [79.86145, 12.81724], [79.86064, 12.81701], [79.86054, 12.81698], [79.8555, 12.81522], [79.85255, 12.8142], [79.85213, 12.81408], [79.85166, 12.81396], [79.84961, 12.81365], [79.84779, 12.8134], [79.84599, 12.81314], [79.84255, 12.81261], [79.83999, 12.81219], [79.8385, 12.81198], [79.83702, 12.81176], [79.83519, 12.81144], [79.83468, 12.81139], [79.83396, 12.81131], [79.83347, 12.8112], [79.83288, 12.81094], [79.83149, 12.81031], [79.83076, 12.80996], [79.83046, 12.80979], [79.83019, 12.8096], [79.82994, 12.80939], [79.8296, 12.80904], [79.82944, 12.80884], [79.82879, 12.80804], [79.82717, 12.80618], [79.8254, 12.80399], [79.82505, 12.80357], [79.82443, 12.8031], [79.82386, 12.80269], [79.82348, 12.80243], [79.82304, 12.8022], [79.82272, 12.80213], [79.82218, 12.80211], [79.82198, 12.80208], [79.8217, 12.80196], [79.82126, 12.80169], [79.82109, 12.80154], [79.82097, 12.80138], [79.82078, 12.80085], [79.82062, 12.80041], [79.82041, 12.7999], [79.82015, 12.79925], [79.8201, 12.79911], [79.82003, 12.79903], [79.81984, 12.79856], [79.81975, 12.79833], [79.81958, 12.79803], [79.81939, 12.79763], [79.81932, 12.79746], [79.81913, 12.79714], [79.81894, 12.79675], [79.81879, 12.79649], [79.81851, 12.79586], [79.81846, 12.79574], [79.81832, 12.79533], [79.81815, 12.79494], [79.81792, 12.7945], [79.81786, 12.79429], [79.81785, 12.79413], [79.81784, 12.79384], [79.81781, 12.79349], [79.81781, 12.79337], [79.81775, 12.79317], [79.81765, 12.7929], [79.8175, 12.79257]]}}]}