{"type": "FeatureCollection", "features": [{"type": "Feature", "properties": {"route_name": "42M", "stop_id": "EkWBPXmr", "name": "Broadway", "city": "CHENNAI"}, "geometry": {"type": "Point", "coordinates": [80.28388983, 13.08820568]}}, {"type": "Feature", "properties": {"route_name": "42M", "stop_id": "zVYhNTdK", "name": "Flower Bazzar", "city": "CHENNAI"}, "geometry": {"type": "Point", "coordinates": [80.28141873, 13.08750696]}}, {"type": "Feature", "properties": {"route_name": "42M", "stop_id": "BqZQArDi", "name": "Nurse Quarters", "city": "CHENNAI"}, "geometry": {"type": "Point", "coordinates": [80.27852104691374, 13.082227452128128]}}, {"type": "Feature", "properties": {"route_name": "42M", "stop_id": "dkEskUud", "name": "MGR Central Station", "city": "CHENNAI"}, "geometry": {"type": "Point", "coordinates": [80.27761846, 13.08187667]}}, {"type": "Feature", "properties": {"route_name": "42M", "stop_id": "rqBqDfoZ", "name": "Periyamedu", "city": "CHENNAI"}, "geometry": {"type": "Point", "coordinates": [80.27043776, 13.08392761]}}, {"type": "Feature", "properties": {"route_name": "42M", "stop_id": "PaLbQtln", "name": "Nehru Stadium Or Taluka Office", "city": "CHENNAI"}, "geometry": {"type": "Point", "coordinates": [80.26995180186987, 13.086992249560762]}}, {"type": "Feature", "properties": {"route_name": "42M", "stop_id": "zOQhKaAF", "name": "Choolai Rountana", "city": "CHENNAI"}, "geometry": {"type": "Point", "coordinates": [80.26930782820705, 13.091287428125854]}}, {"type": "Feature", "properties": {"route_name": "42M", "stop_id": "eVGAINdZ", "name": "Natraj Theatre", "city": "CHENNAI"}, "geometry": {"type": "Point", "coordinates": [80.26872048783537, 13.093290785058151]}}, {"type": "Feature", "properties": {"route_name": "42M", "stop_id": "SUoxgoEf", "name": "Kesavan Park", "city": "CHENNAI"}, "geometry": {"type": "Point", "coordinates": [80.26617793232674, 13.095088545283776]}}, {"type": "Feature", "properties": {"route_name": "42M", "stop_id": "CZmFLtlO", "name": "Aragadam", "city": "CHENNAI"}, "geometry": {"type": "Point", "coordinates": [80.26334535984256, 13.096691453309363]}}, {"type": "Feature", "properties": {"route_name": "42M", "stop_id": "IMtkgxTU", "name": "Madhavaram Aaduthotti", "city": "CHENNAI"}, "geometry": {"type": "Point", "coordinates": [80.26091360760006, 13.104248740837903]}}, {"type": "Feature", "properties": {"route_name": "42M", "stop_id": "XXPGaRGh", "name": "Kannigapuram", "city": "CHENNAI"}, "geometry": {"type": "Point", "coordinates": [80.2602584156947, 13.108079870979415]}}, {"type": "Feature", "properties": {"route_name": "42M", "stop_id": "PrdzzRyE", "name": "Ganeshapuram", "city": "CHENNAI"}, "geometry": {"type": "Point", "coordinates": [80.25841262656604, 13.109643361706837]}}, {"type": "Feature", "properties": {"route_name": "42M", "stop_id": "uTcsgvmK", "name": "BSNL Telephone Quarters Or Jeeva Railway Station", "city": "CHENNAI"}, "geometry": {"type": "Point", "coordinates": [80.25511219493637, 13.108984233997353]}}, {"type": "Feature", "properties": {"route_name": "42M", "stop_id": "bCOJrgoA", "name": "BB Road", "city": "CHENNAI"}, "geometry": {"type": "Point", "coordinates": [80.25194334125763, 13.108603782998246]}}, {"type": "Feature", "properties": {"route_name": "42M", "stop_id": "tMEROJFH", "name": "Perambur Bus Terminus", "city": "CHENNAI"}, "geometry": {"type": "Point", "coordinates": [80.24827707875228, 13.108197005825065]}}, {"type": "Feature", "properties": {"route_name": "42M", "stop_id": "hLEWSLqw", "name": "Perambur Railway Station", "city": "CHENNAI"}, "geometry": {"type": "Point", "coordinates": [80.24475608932096, 13.108002213683353]}}, {"type": "Feature", "properties": {"route_name": "42M", "stop_id": "FDCDnriY", "name": "Perambur Church", "city": "CHENNAI"}, "geometry": {"type": "Point", "coordinates": [80.24175116795834, 13.108857500545144]}}, {"type": "Feature", "properties": {"route_name": "42M", "stop_id": "yYSDLmlm", "name": "Chembium Old Post Office", "city": "CHENNAI"}, "geometry": {"type": "Point", "coordinates": [80.23871767365654, 13.111557392255834]}}, {"type": "Feature", "properties": {"route_name": "42M", "stop_id": "ydoNqUsu", "name": "Venus Theatre", "city": "CHENNAI"}, "geometry": {"type": "Point", "coordinates": [80.23547154535242, 13.113637093207927]}}, {"type": "Feature", "properties": {"route_name": "42M", "stop_id": "OyNIynZV", "name": "Peravallur", "city": "CHENNAI"}, "geometry": {"type": "Point", "coordinates": [80.23173400803353, 13.115951347596681]}}, {"type": "Feature", "properties": {"route_name": "42M", "stop_id": "GIAembsg", "name": "Agaram", "city": "CHENNAI"}, "geometry": {"type": "Point", "coordinates": [80.23148626243733, 13.112367666277143]}}, {"type": "Feature", "properties": {"route_name": "42M", "stop_id": "NcLanIdZ", "name": "S R B Colony", "city": "CHENNAI"}, "geometry": {"type": "Point", "coordinates": [80.22606365982938, 13.118486583665414]}}, {"type": "Feature", "properties": {"route_name": "42M", "stop_id": "SyrqOGJb", "name": "Kolathur Anna Salai", "city": "CHENNAI"}, "geometry": {"type": "Point", "coordinates": [80.22403467491631, 13.120712907830914]}}, {"type": "Feature", "properties": {"route_name": "42M", "stop_id": "IvqxNjHK", "name": "Welding Shop Kolathur", "city": "CHENNAI"}, "geometry": {"type": "Point", "coordinates": [80.22206191388045, 13.1240055850199]}}, {"type": "Feature", "properties": {"route_name": "42M", "stop_id": "XjEyEHqT", "name": "Moogambigai Kolathur", "city": "CHENNAI"}, "geometry": {"type": "Point", "coordinates": [80.21944982334253, 13.125942645973641]}}, {"type": "Feature", "properties": {"route_name": "42M", "stop_id": "tNDnmkQy", "name": "Padma Nagar Or Giriraj Nagar", "city": "CHENNAI"}, "geometry": {"type": "Point", "coordinates": [80.21618058508147, 13.128392202356864]}}, {"type": "Feature", "properties": {"route_name": "42M", "stop_id": "EYCnMsAF", "name": "Retteri Junction", "city": "CHENNAI"}, "geometry": {"type": "Point", "coordinates": [80.21431905675206, 13.129888141085678]}}, {"type": "Feature", "properties": {"route_name": "42M", "stop_id": "fJdABIlw", "name": "RTO Or Kolathur Shastri Nagar", "city": "CHENNAI"}, "geometry": {"type": "Point", "coordinates": [80.21634011439858, 13.136140683154789]}}, {"type": "Feature", "properties": {"route_name": "42M", "stop_id": "WKWTpoqQ", "name": "MMBT", "city": "CHENNAI"}, "geometry": {"type": "Point", "coordinates": [80.221506, 13.145276]}}, {"type": "Feature", "properties": {"name": "42M"}, "geometry": {"type": "LineString", "coordinates": [[80.28388, 13.08836], [80.28347, 13.08833], [80.28293, 13.08832], [80.28263, 13.08833], [80.2823, 13.08828], [80.28206, 13.08823], [80.28184, 13.08815], [80.28156, 13.08799], [80.28153, 13.08794], [80.28145, 13.08769], [80.2814, 13.08751], [80.28095, 13.08603], [80.28087, 13.08583], [80.28083, 13.08578], [80.28076, 13.08575], [80.28024, 13.0856], [80.27982, 13.08551], [80.27957, 13.08537], [80.27943, 13.08516], [80.27937, 13.08497], [80.27928, 13.08459], [80.27917, 13.08384], [80.27914, 13.08376], [80.27903, 13.08352], [80.27895, 13.08333], [80.27856, 13.08243], [80.27849, 13.08223], [80.27845, 13.08204], [80.27796, 13.08196], [80.27761, 13.08193], [80.27642, 13.08181], [80.27572, 13.0817], [80.27508, 13.08162], [80.27438, 13.08159], [80.27301, 13.08137], [80.27196, 13.08117], [80.27153, 13.08107], [80.271, 13.08091], [80.27094, 13.08088], [80.2709, 13.08098], [80.27077, 13.08184], [80.27068, 13.08269], [80.27057, 13.08347], [80.27049, 13.08394], [80.27044, 13.08395], [80.27049, 13.08394], [80.27042, 13.08428], [80.27036, 13.08459], [80.27029, 13.08498], [80.2703, 13.0852], [80.27021, 13.08553], [80.27016, 13.08577], [80.27018, 13.086], [80.27018, 13.0865], [80.27015, 13.08668], [80.26998, 13.08701], [80.26978, 13.08741], [80.26973, 13.08753], [80.2697, 13.08767], [80.26973, 13.08827], [80.26985, 13.09], [80.26985, 13.09018], [80.26983, 13.09028], [80.26981, 13.09033], [80.26971, 13.09045], [80.26959, 13.09054], [80.26949, 13.09058], [80.26946, 13.09058], [80.2694, 13.09059], [80.26935, 13.09063], [80.26932, 13.0907], [80.26933, 13.09075], [80.26934, 13.09078], [80.26934, 13.09087], [80.26934, 13.09129], [80.26943, 13.09219], [80.26945, 13.09229], [80.26941, 13.09233], [80.26927, 13.09244], [80.26909, 13.09265], [80.26875, 13.09331], [80.26838, 13.09402], [80.26813, 13.09423], [80.26807, 13.09434], [80.26793, 13.09443], [80.26722, 13.09477], [80.26657, 13.09503], [80.2662, 13.09514], [80.26544, 13.09541], [80.26498, 13.09574], [80.26425, 13.0963], [80.26399, 13.09644], [80.26351, 13.09666], [80.26337, 13.09674], [80.26242, 13.09719], [80.26238, 13.09702], [80.26236, 13.09685], [80.26236, 13.09673], [80.26155, 13.0969], [80.26081, 13.09708], [80.26049, 13.09719], [80.25994, 13.09729], [80.25927, 13.0974], [80.2595, 13.09844], [80.2595, 13.09863], [80.25956, 13.09902], [80.25963, 13.09941], [80.25972, 13.09987], [80.25989, 13.10072], [80.26035, 13.10216], [80.26041, 13.10223], [80.26045, 13.10244], [80.26065, 13.10315], [80.261, 13.10414], [80.26102, 13.10422], [80.26104, 13.10433], [80.26106, 13.1046], [80.26103, 13.10496], [80.261, 13.10518], [80.26091, 13.10537], [80.26086, 13.10575], [80.26081, 13.10589], [80.26077, 13.10593], [80.26077, 13.106], [80.2607, 13.10647], [80.26062, 13.10702], [80.26059, 13.10752], [80.26057, 13.10763], [80.26049, 13.10782], [80.26039, 13.10806], [80.26036, 13.10813], [80.26016, 13.1085], [80.26004, 13.1086], [80.25993, 13.10878], [80.25983, 13.10892], [80.25978, 13.10902], [80.25976, 13.1091], [80.25975, 13.10915], [80.25972, 13.10978], [80.2593, 13.10976], [80.25862, 13.10974], [80.25841, 13.10973], [80.25725, 13.10968], [80.25713, 13.10934], [80.25708, 13.10931], [80.25688, 13.10927], [80.25511, 13.109], [80.25431, 13.10899], [80.25332, 13.10888], [80.25193, 13.10869], [80.25004, 13.1084], [80.24856, 13.10826], [80.24827, 13.10824], [80.24765, 13.10818], [80.24591, 13.108], [80.24562, 13.10797], [80.24541, 13.10798], [80.24477, 13.10808], [80.2446, 13.10814], [80.24434, 13.10827], [80.24404, 13.1084], [80.24392, 13.10837], [80.24234, 13.10846], [80.24204, 13.10846], [80.24196, 13.10846], [80.24193, 13.10852], [80.24183, 13.10877], [80.24181, 13.10887], [80.2418, 13.10908], [80.24181, 13.1094], [80.2418, 13.10963], [80.24173, 13.10978], [80.24099, 13.11023], [80.23931, 13.11126], [80.23875, 13.1116], [80.23779, 13.11225], [80.23737, 13.11252], [80.23694, 13.11276], [80.23646, 13.11298], [80.23603, 13.11322], [80.23571, 13.11348], [80.23552, 13.11366], [80.2355, 13.11367], [80.23501, 13.11408], [80.23485, 13.1142], [80.23467, 13.11427], [80.234, 13.11444], [80.23358, 13.11456], [80.23293, 13.11476], [80.2328, 13.11482], [80.23272, 13.1149], [80.23269, 13.11498], [80.23267, 13.11527], [80.23265, 13.11538], [80.23253, 13.11554], [80.23239, 13.11564], [80.23175, 13.11599], [80.23164, 13.11605], [80.23155, 13.1156], [80.23153, 13.11525], [80.23152, 13.11498], [80.23146, 13.11462], [80.23146, 13.11446], [80.23146, 13.11435], [80.23149, 13.11409], [80.23154, 13.1133], [80.23162, 13.11292], [80.23173, 13.11246], [80.23161, 13.11241], [80.23149, 13.1124], [80.23161, 13.11241], [80.23173, 13.11246], [80.23157, 13.11308], [80.23149, 13.11405], [80.23146, 13.11436], [80.23146, 13.11462], [80.23152, 13.11498], [80.23152, 13.11516], [80.23153, 13.1153], [80.23155, 13.1156], [80.23164, 13.11605], [80.23108, 13.11643], [80.23082, 13.11654], [80.23061, 13.11665], [80.22925, 13.11738], [80.22851, 13.11771], [80.22825, 13.11784], [80.22772, 13.11799], [80.22714, 13.11816], [80.22661, 13.11834], [80.22609, 13.11855], [80.226, 13.11858], [80.22572, 13.1188], [80.22522, 13.11939], [80.2248, 13.11982], [80.2244, 13.12022], [80.2242, 13.12049], [80.22406, 13.12073], [80.224, 13.12082], [80.22395, 13.12107], [80.22386, 13.12142], [80.22376, 13.12177], [80.22362, 13.12217], [80.22341, 13.12259], [80.22322, 13.12286], [80.22302, 13.12309], [80.22272, 13.12345], [80.22235, 13.12385], [80.22209, 13.12404], [80.22164, 13.12436], [80.22117, 13.1247], [80.22049, 13.12519], [80.21947, 13.12597], [80.21824, 13.12692], [80.21728, 13.12762], [80.21634, 13.12833], [80.21621, 13.12843], [80.21561, 13.12888], [80.2155, 13.12893], [80.21503, 13.12927], [80.21449, 13.12974], [80.21433, 13.1299], [80.21404, 13.1301], [80.2138, 13.13019], [80.21373, 13.13022], [80.2138, 13.1303], [80.21402, 13.1306], [80.21432, 13.13108], [80.21507, 13.13277], [80.21555, 13.13395], [80.21592, 13.1348], [80.21615, 13.1354], [80.21607, 13.13542], [80.21635, 13.13614], [80.21649, 13.13648], [80.21653, 13.13659], [80.21667, 13.13656], [80.21797, 13.13964], [80.21805, 13.13979], [80.2183, 13.14032], [80.21829, 13.1404], [80.21832, 13.14054], [80.21898, 13.14223], [80.21954, 13.14357], [80.2197, 13.144], [80.21972, 13.14411], [80.21971, 13.14429], [80.21965, 13.1444], [80.21962, 13.14452], [80.21963, 13.14467], [80.21968, 13.14482], [80.21977, 13.14494], [80.21989, 13.14502], [80.21997, 13.14506], [80.22006, 13.14507], [80.22023, 13.14506], [80.22038, 13.14499], [80.2205, 13.14488], [80.22059, 13.14474], [80.22061, 13.14463], [80.22086, 13.14413], [80.22125, 13.14382], [80.22238, 13.14296], [80.22299, 13.1444], [80.22276, 13.14452], [80.22207, 13.14479], [80.22179, 13.1449]]}}]}