{"type": "FeatureCollection", "features": [{"type": "Feature", "properties": {"route_name": "114A", "stop_id": "NjRgIRup", "name": "Redhills Bus Terminus", "city": "CHENNAI"}, "geometry": {"type": "Point", "coordinates": [80.18436916240239, 13.193055667425153]}}, {"type": "Feature", "properties": {"route_name": "114A", "stop_id": "twlwLPZj", "name": "Redhills Market", "city": "CHENNAI"}, "geometry": {"type": "Point", "coordinates": [80.18746140869393, 13.189656443166843]}}, {"type": "Feature", "properties": {"route_name": "114A", "stop_id": "oXDhDxhT", "name": "Ayurveda Ashramam", "city": "CHENNAI"}, "geometry": {"type": "Point", "coordinates": [80.19163019178984, 13.184532073335602]}}, {"type": "Feature", "properties": {"route_name": "114A", "stop_id": "AKEMZMhk", "name": "Sri Nallaghu Polytechnic College", "city": "CHENNAI"}, "geometry": {"type": "Point", "coordinates": [80.19489143132, 13.178770017600861]}}, {"type": "Feature", "properties": {"route_name": "114A", "stop_id": "IWuAfYeM", "name": "Thandal Kazhani", "city": "CHENNAI"}, "geometry": {"type": "Point", "coordinates": [80.1963990238952, 13.176024187726195]}}, {"type": "Feature", "properties": {"route_name": "114A", "stop_id": "aCcokpIU", "name": "Kavangarai", "city": "CHENNAI"}, "geometry": {"type": "Point", "coordinates": [80.19951553290468, 13.170491280980686]}}, {"type": "Feature", "properties": {"route_name": "114A", "stop_id": "hTBkjNzq", "name": "Puzhal Jail", "city": "CHENNAI"}, "geometry": {"type": "Point", "coordinates": [80.2026735613066, 13.163860200988898]}}, {"type": "Feature", "properties": {"route_name": "114A", "stop_id": "MyzUerZz", "name": "Puzhal Camp", "city": "CHENNAI"}, "geometry": {"type": "Point", "coordinates": [80.2039709006117, 13.158033138726143]}}, {"type": "Feature", "properties": {"route_name": "114A", "stop_id": "WlkKexEs", "name": "Kathirvedu Bypass or Cycgle Shop", "city": "CHENNAI"}, "geometry": {"type": "Point", "coordinates": [80.20837754, 13.15341405]}}, {"type": "Feature", "properties": {"route_name": "114A", "stop_id": "hVMLOzME", "name": "Madhavaram Bypass", "city": "CHENNAI"}, "geometry": {"type": "Point", "coordinates": [80.21864907051247, 13.14048418060415]}}, {"type": "Feature", "properties": {"route_name": "114A", "stop_id": "KCMgfriT", "name": "RTO Or Kolathur Shastri Nagar", "city": "CHENNAI"}, "geometry": {"type": "Point", "coordinates": [80.21656843744097, 13.135905600959994]}}, {"type": "Feature", "properties": {"route_name": "114A", "stop_id": "qzuHypgA", "name": "Retteri Junction", "city": "CHENNAI"}, "geometry": {"type": "Point", "coordinates": [80.21356233853373, 13.129944301006555]}}, {"type": "Feature", "properties": {"route_name": "114A", "stop_id": "GjiyfRqd", "name": "Mallikai Avenue Nagar,", "city": "CHENNAI"}, "geometry": {"type": "Point", "coordinates": [80.21041905471975, 13.128058837524833]}}, {"type": "Feature", "properties": {"route_name": "114A", "stop_id": "juEhgeLi", "name": "Rajamangalam Police Station", "city": "CHENNAI"}, "geometry": {"type": "Point", "coordinates": [80.20541329387106, 13.122188787063191]}}, {"type": "Feature", "properties": {"route_name": "114A", "stop_id": "yeapPLlD", "name": "Srinivasa Nagar", "city": "CHENNAI"}, "geometry": {"type": "Point", "coordinates": [80.20654088159608, 13.118783083868525]}}, {"type": "Feature", "properties": {"route_name": "114A", "stop_id": "KQSHMGnw", "name": "Villivakkam Bus Stand", "city": "CHENNAI"}, "geometry": {"type": "Point", "coordinates": [80.20803643643512, 13.105421374732401]}}, {"type": "Feature", "properties": {"route_name": "114A", "stop_id": "TqlJzItM", "name": "Villivakkam Kalpana", "city": "CHENNAI"}, "geometry": {"type": "Point", "coordinates": [80.20746421345711, 13.10318949178912]}}, {"type": "Feature", "properties": {"route_name": "114A", "stop_id": "NJSgWoOc", "name": "Kallukkadai", "city": "CHENNAI"}, "geometry": {"type": "Point", "coordinates": [80.21100708978702, 13.102091789178067]}}, {"type": "Feature", "properties": {"route_name": "114A", "stop_id": "TcTonWJL", "name": "ICF", "city": "CHENNAI"}, "geometry": {"type": "Point", "coordinates": [80.21578320103663, 13.100222337697073]}}, {"type": "Feature", "properties": {"route_name": "114A", "stop_id": "HJTsgSzj", "name": "Kambar Arangam", "city": "CHENNAI"}, "geometry": {"type": "Point", "coordinates": [80.21976074824761, 13.0992472123686]}}, {"type": "Feature", "properties": {"route_name": "114A", "stop_id": "YvwQRHTE", "name": "Railway Quarters", "city": "CHENNAI"}, "geometry": {"type": "Point", "coordinates": [80.22534070183735, 13.100000025373078]}}, {"type": "Feature", "properties": {"route_name": "114A", "stop_id": "QrdELzCu", "name": "Joint Office", "city": "CHENNAI"}, "geometry": {"type": "Point", "coordinates": [80.22988659818111, 13.099765103995907]}}, {"type": "Feature", "properties": {"route_name": "114A", "stop_id": "fRxWIrbs", "name": "Noor Hotel", "city": "CHENNAI"}, "geometry": {"type": "Point", "coordinates": [80.23428872329623, 13.09862110170927]}}, {"type": "Feature", "properties": {"route_name": "114A", "stop_id": "ryMrZCSE", "name": "Sayani Theatre Aynavaram", "city": "CHENNAI"}, "geometry": {"type": "Point", "coordinates": [80.23976256796573, 13.097793041345161]}}, {"type": "Feature", "properties": {"route_name": "114A", "stop_id": "RoAYEvND", "name": "Ayanavaram Bus Depot", "city": "CHENNAI"}, "geometry": {"type": "Point", "coordinates": [80.24225360605328, 13.098451246752655]}}, {"type": "Feature", "properties": {"name": "114A"}, "geometry": {"type": "LineString", "coordinates": [[80.18436, 13.19301], [80.18546, 13.19185], [80.18631, 13.19087], [80.18743, 13.18963], [80.18794, 13.18905], [80.18796, 13.18899], [80.18818, 13.18874], [80.18848, 13.18843], [80.18889, 13.18806], [80.1891, 13.1879], [80.18922, 13.18786], [80.18926, 13.18783], [80.18938, 13.18773], [80.18953, 13.18756], [80.18962, 13.18741], [80.18992, 13.18668], [80.19006, 13.18636], [80.19016, 13.18622], [80.19026, 13.18611], [80.19055, 13.18586], [80.19072, 13.18571], [80.1909, 13.18552], [80.19115, 13.18518], [80.19135, 13.1849], [80.1915, 13.18466], [80.19159, 13.18451], [80.1917, 13.18431], [80.19177, 13.18425], [80.19181, 13.18423], [80.19203, 13.18421], [80.19224, 13.18411], [80.19228, 13.18403], [80.19239, 13.18354], [80.19264, 13.18283], [80.19286, 13.18236], [80.1931, 13.1819], [80.19355, 13.18114], [80.19441, 13.17959], [80.19487, 13.17876], [80.19639, 13.17602], [80.19787, 13.17338], [80.19949, 13.17048], [80.20021, 13.16918], [80.2005, 13.16869], [80.20042, 13.16866], [80.2005, 13.16852], [80.20112, 13.16742], [80.20173, 13.1663], [80.20198, 13.16576], [80.20219, 13.16513], [80.20242, 13.16431], [80.20248, 13.16409], [80.20258, 13.16412], [80.20264, 13.16385], [80.20275, 13.16343], [80.20295, 13.16259], [80.20304, 13.16211], [80.20312, 13.1616], [80.20334, 13.16044], [80.20341, 13.15996], [80.2035, 13.15957], [80.20376, 13.15871], [80.20375, 13.15866], [80.20371, 13.1586], [80.20374, 13.15855], [80.20381, 13.15834], [80.20394, 13.15802], [80.20395, 13.15802], [80.20423, 13.15744], [80.2044, 13.15715], [80.20449, 13.1571], [80.20455, 13.15705], [80.20498, 13.15643], [80.20521, 13.15613], [80.20568, 13.1556], [80.20593, 13.15534], [80.2066, 13.15473], [80.20807, 13.15362], [80.20836, 13.15339], [80.20888, 13.15301], [80.20928, 13.15269], [80.20925, 13.15263], [80.20955, 13.1524], [80.20983, 13.15219], [80.21106, 13.15127], [80.21232, 13.15031], [80.21453, 13.14864], [80.21638, 13.14732], [80.21773, 13.14637], [80.21821, 13.146], [80.21928, 13.14522], [80.21949, 13.14512], [80.21966, 13.14505], [80.21989, 13.14502], [80.21997, 13.14506], [80.22006, 13.14507], [80.22023, 13.14506], [80.22038, 13.14499], [80.2205, 13.14488], [80.22059, 13.14474], [80.22061, 13.14463], [80.2206, 13.14445], [80.22052, 13.14429], [80.2204, 13.14417], [80.22024, 13.1441], [80.22021, 13.14409], [80.22009, 13.14397], [80.22, 13.14381], [80.21952, 13.1428], [80.21854, 13.14053], [80.2185, 13.14046], [80.21837, 13.1403], [80.21731, 13.13773], [80.21652, 13.13593], [80.2155, 13.13356], [80.21495, 13.13226], [80.21436, 13.13101], [80.21428, 13.13083], [80.21412, 13.13062], [80.21386, 13.13026], [80.21369, 13.13007], [80.21355, 13.12996], [80.21314, 13.12964], [80.21267, 13.12936], [80.21041, 13.12807], [80.2104, 13.12806], [80.20868, 13.12711], [80.20793, 13.12671], [80.20649, 13.1259], [80.20605, 13.12561], [80.20539, 13.12526], [80.20545, 13.12507], [80.20545, 13.12482], [80.20537, 13.1229], [80.20539, 13.12219], [80.20542, 13.12168], [80.20548, 13.12128], [80.20562, 13.12065], [80.20574, 13.11905], [80.20576, 13.11874], [80.20652, 13.1188], [80.20652, 13.11878], [80.20651, 13.11825], [80.2064, 13.11781], [80.20638, 13.1175], [80.20636, 13.11733], [80.20634, 13.11696], [80.20633, 13.11663], [80.20638, 13.11635], [80.20654, 13.11606], [80.20663, 13.1159], [80.20669, 13.11574], [80.20674, 13.1154], [80.20673, 13.11479], [80.20679, 13.11422], [80.20681, 13.11361], [80.20681, 13.1131], [80.20683, 13.1124], [80.2068, 13.11194], [80.20674, 13.11158], [80.20657, 13.11026], [80.2065, 13.10959], [80.20643, 13.10935], [80.20632, 13.10918], [80.20613, 13.10885], [80.20609, 13.1087], [80.20607, 13.10858], [80.20607, 13.10817], [80.20605, 13.108], [80.20602, 13.1076], [80.20655, 13.10741], [80.20669, 13.10737], [80.20681, 13.1073], [80.20684, 13.10724], [80.20679, 13.10684], [80.20734, 13.10664], [80.20734, 13.10652], [80.20733, 13.10625], [80.2073, 13.10559], [80.20791, 13.10549], [80.2079, 13.10544], [80.20752, 13.1032], [80.20748, 13.10322], [80.20796, 13.10303], [80.20859, 13.10283], [80.20917, 13.10266], [80.21035, 13.10225], [80.21099, 13.10203], [80.2121, 13.10165], [80.2133, 13.10118], [80.21408, 13.10087], [80.21429, 13.10082], [80.2146, 13.1007], [80.2148, 13.10063], [80.21576, 13.10017], [80.21654, 13.09983], [80.21699, 13.09968], [80.21747, 13.09957], [80.21771, 13.09954], [80.21865, 13.09937], [80.21939, 13.09928], [80.21975, 13.09921], [80.22133, 13.09893], [80.22166, 13.09888], [80.22246, 13.09878], [80.22282, 13.0988], [80.2229, 13.09883], [80.22315, 13.09897], [80.22366, 13.09939], [80.22387, 13.09955], [80.22418, 13.09969], [80.22444, 13.09977], [80.2251, 13.09992], [80.22531, 13.09996], [80.22535, 13.09996], [80.22616, 13.10005], [80.22678, 13.10009], [80.22704, 13.10011], [80.22773, 13.10012], [80.2279, 13.10011], [80.22799, 13.10007], [80.22852, 13.09998], [80.22893, 13.0999], [80.22933, 13.09984], [80.22988, 13.09973], [80.23053, 13.09955], [80.23079, 13.09946], [80.23187, 13.099], [80.23216, 13.0989], [80.2326, 13.0988], [80.23336, 13.09866], [80.23366, 13.09862], [80.23429, 13.09858], [80.23491, 13.09851], [80.23599, 13.09834], [80.23721, 13.09811], [80.23734, 13.09811], [80.23769, 13.09804], [80.23889, 13.09783], [80.23976, 13.09776], [80.24052, 13.09772], [80.24141, 13.09761], [80.24207, 13.09748], [80.24224, 13.09833], [80.24229, 13.09838], [80.24229, 13.09842], [80.2423, 13.09844]]}}]}