{"type": "FeatureCollection", "features": [{"type": "Feature", "properties": {"route_name": "47A", "stop_id": "gyQqEnFq", "name": "Thiruvanmiyur Depot", "city": "CHENNAI"}, "geometry": {"type": "Point", "coordinates": [80.2592892551454, 12.98684992620367]}}, {"type": "Feature", "properties": {"route_name": "47A", "stop_id": "cNypyxpr", "name": "Jayanthi Theatre", "city": "CHENNAI"}, "geometry": {"type": "Point", "coordinates": [80.25582217606757, 12.988722680619484]}}, {"type": "Feature", "properties": {"route_name": "47A", "stop_id": "cTQVugNT", "name": "Adyar Depot", "city": "CHENNAI"}, "geometry": {"type": "Point", "coordinates": [80.25595449198102, 12.998757450902367]}}, {"type": "Feature", "properties": {"route_name": "47A", "stop_id": "MvaVVzVx", "name": "BSNL Telephone Exchange", "city": "CHENNAI"}, "geometry": {"type": "Point", "coordinates": [80.25630873360933, 13.000748008820086]}}, {"type": "Feature", "properties": {"route_name": "47A", "stop_id": "iOuVBZzk", "name": "Adyar Signal", "city": "CHENNAI"}, "geometry": {"type": "Point", "coordinates": [80.25736646974485, 13.00648356707115]}}, {"type": "Feature", "properties": {"route_name": "47A", "stop_id": "IHZGJZTs", "name": "Adyar Gandhi Nagar", "city": "CHENNAI"}, "geometry": {"type": "Point", "coordinates": [80.24984028893414, 13.006673142899373]}}, {"type": "Feature", "properties": {"route_name": "47A", "stop_id": "knCDNjnp", "name": "IIT Madras Or Guindy National Park", "city": "CHENNAI"}, "geometry": {"type": "Point", "coordinates": [80.23999363331677, 13.00679210140227]}}, {"type": "Feature", "properties": {"route_name": "47A", "stop_id": "mLBQtksd", "name": "Anna University Or Engineer College", "city": "CHENNAI"}, "geometry": {"type": "Point", "coordinates": [80.2366756977184, 13.007404587801359]}}, {"type": "Feature", "properties": {"route_name": "47A", "stop_id": "GpnhEWuy", "name": "Concorde or Chellammal College", "city": "CHENNAI"}, "geometry": {"type": "Point", "coordinates": [80.22194994, 13.01186343]}}, {"type": "Feature", "properties": {"route_name": "47A", "stop_id": "FyoAuDvn", "name": "Little Mount ", "city": "CHENNAI"}, "geometry": {"type": "Point", "coordinates": [80.2250649963828, 13.015597546918361]}}, {"type": "Feature", "properties": {"route_name": "47A", "stop_id": "NXLrCKMp", "name": "Panagal Maligai Or Saiadapet Bridge", "city": "CHENNAI"}, "geometry": {"type": "Point", "coordinates": [80.2243533022414, 13.019119618356324]}}, {"type": "Feature", "properties": {"route_name": "47A", "stop_id": "xiTGCYEl", "name": "Saidapet", "city": "CHENNAI"}, "geometry": {"type": "Point", "coordinates": [80.22645189784225, 13.02237471448576]}}, {"type": "Feature", "properties": {"route_name": "47A", "stop_id": "yNIUaSyZ", "name": "Thadandar Nagar", "city": "CHENNAI"}, "geometry": {"type": "Point", "coordinates": [80.22842398188516, 13.024420523467967]}}, {"type": "Feature", "properties": {"route_name": "47A", "stop_id": "cNuIRYrx", "name": "Saidapet Veterinary Hospital Or Raja Hostel", "city": "CHENNAI"}, "geometry": {"type": "Point", "coordinates": [80.22971101723124, 13.025441595631346]}}, {"type": "Feature", "properties": {"route_name": "47A", "stop_id": "bZroqIhX", "name": "CIT Nagar", "city": "CHENNAI"}, "geometry": {"type": "Point", "coordinates": [80.23073054407075, 13.02925281559845]}}, {"type": "Feature", "properties": {"route_name": "47A", "stop_id": "eTJQHplR", "name": "Thiyagaraya Nagar Bus Depot", "city": "CHENNAI"}, "geometry": {"type": "Point", "coordinates": [80.23005108, 13.03449501]}}, {"type": "Feature", "properties": {"route_name": "47A", "stop_id": "XtlnoPeE", "name": "Viveks And Company", "city": "CHENNAI"}, "geometry": {"type": "Point", "coordinates": [80.23292741792636, 13.04728550149857]}}, {"type": "Feature", "properties": {"route_name": "47A", "stop_id": "fRBexIzo", "name": "Kamarajar Illam", "city": "CHENNAI"}, "geometry": {"type": "Point", "coordinates": [80.23977553646, 13.04772552196662]}}, {"type": "Feature", "properties": {"route_name": "47A", "stop_id": "cEwgxjVO", "name": "Vidyodaya School Valluvar Kottam", "city": "CHENNAI"}, "geometry": {"type": "Point", "coordinates": [80.24045931666842, 13.051129778009896]}}, {"type": "Feature", "properties": {"route_name": "47A", "stop_id": "RfzcmazU", "name": "Valluvar Kottam", "city": "CHENNAI"}, "geometry": {"type": "Point", "coordinates": [80.24202386011893, 13.053769261938113]}}, {"type": "Feature", "properties": {"route_name": "47A", "stop_id": "XwcxmOai", "name": "Sterling Road Chetpat", "city": "CHENNAI"}, "geometry": {"type": "Point", "coordinates": [80.24317368782556, 13.062032636646551]}}, {"type": "Feature", "properties": {"route_name": "47A", "stop_id": "HrNWphPZ", "name": "Chetpet", "city": "CHENNAI"}, "geometry": {"type": "Point", "coordinates": [80.24199315966757, 13.069809897502173]}}, {"type": "Feature", "properties": {"route_name": "47A", "stop_id": "qrSNpKDz", "name": "EGA Theatre", "city": "CHENNAI"}, "geometry": {"type": "Point", "coordinates": [80.24001887655822, 13.07701803640873]}}, {"type": "Feature", "properties": {"route_name": "47A", "stop_id": "bWAbaUPC", "name": "Taylors Road", "city": "CHENNAI"}, "geometry": {"type": "Point", "coordinates": [80.23763618, 13.07642088]}}, {"type": "Feature", "properties": {"route_name": "47A", "stop_id": "cEOIeJTR", "name": "Pachaiyappas College", "city": "CHENNAI"}, "geometry": {"type": "Point", "coordinates": [80.23469050351514, 13.075832098430912]}}, {"type": "Feature", "properties": {"route_name": "47A", "stop_id": "uKbbRztG", "name": "New Avadi Road", "city": "CHENNAI"}, "geometry": {"type": "Point", "coordinates": [80.23346235748272, 13.079996881901312]}}, {"type": "Feature", "properties": {"route_name": "47A", "stop_id": "qKDzyFqg", "name": "Bala Vihar", "city": "CHENNAI"}, "geometry": {"type": "Point", "coordinates": [80.23145374, 13.08246222]}}, {"type": "Feature", "properties": {"route_name": "47A", "stop_id": "ERcEoUXY", "name": "Kilpauk Garden", "city": "CHENNAI"}, "geometry": {"type": "Point", "coordinates": [80.23386520317683, 13.083885143563158]}}, {"type": "Feature", "properties": {"route_name": "47A", "stop_id": "QncWjmnC", "name": "Water Tank Kilpauk New Avadi Rd", "city": "CHENNAI"}, "geometry": {"type": "Point", "coordinates": [80.23062585388527, 13.088767200549096]}}, {"type": "Feature", "properties": {"route_name": "47A", "stop_id": "LBOtcvsG", "name": "VOC Nagar", "city": "CHENNAI"}, "geometry": {"type": "Point", "coordinates": [80.22732646447434, 13.091327298291011]}}, {"type": "Feature", "properties": {"route_name": "47A", "stop_id": "wvKdtztS", "name": "Gandhi Nagar Hospital", "city": "CHENNAI"}, "geometry": {"type": "Point", "coordinates": [80.21939196729568, 13.096361540904073]}}, {"type": "Feature", "properties": {"route_name": "47A", "stop_id": "VCDwRKse", "name": "Gandhi Nagar", "city": "CHENNAI"}, "geometry": {"type": "Point", "coordinates": [80.21720570861953, 13.097087242266026]}}, {"type": "Feature", "properties": {"route_name": "47A", "stop_id": "TPsFloRu", "name": "ICF", "city": "CHENNAI"}, "geometry": {"type": "Point", "coordinates": [80.21437604713219, 13.100145924845965]}}, {"type": "Feature", "properties": {"route_name": "47A", "stop_id": "IjwLXBRx", "name": "Kallukkadai", "city": "CHENNAI"}, "geometry": {"type": "Point", "coordinates": [80.21086157994796, 13.102006233556963]}}, {"type": "Feature", "properties": {"route_name": "47A", "stop_id": "JGbfxLUL", "name": "Kalpana Hotel", "city": "CHENNAI"}, "geometry": {"type": "Point", "coordinates": [80.20765498937669, 13.103092483636557]}}, {"type": "Feature", "properties": {"route_name": "47A", "stop_id": "KQSHMGnw", "name": "Villivakkam Bus Stand", "city": "CHENNAI"}, "geometry": {"type": "Point", "coordinates": [80.20803643643512, 13.105421374732401]}}, {"type": "Feature", "properties": {"name": "47A"}, "geometry": {"type": "LineString", "coordinates": [[80.25929, 12.9869], [80.25929, 12.9873], [80.25767, 12.98743], [80.2563, 12.98753], [80.25588, 12.9876], [80.25569, 12.98762], [80.25583, 12.98868], [80.25583, 12.98874], [80.25584, 12.98872], [80.25588, 12.98906], [80.25595, 12.99019], [80.25601, 12.99145], [80.25605, 12.9926], [80.25604, 12.99299], [80.25591, 12.99427], [80.25589, 12.9948], [80.25586, 12.99518], [80.25582, 12.9964], [80.25582, 12.99693], [80.25587, 12.99779], [80.25602, 12.99875], [80.25613, 12.99949], [80.25616, 12.99978], [80.25625, 13.00023], [80.25633, 13.00074], [80.25657, 13.00214], [80.25686, 13.00369], [80.2572, 13.00544], [80.25743, 13.00648], [80.25736, 13.00655], [80.25612, 13.00652], [80.2554, 13.0065], [80.2547, 13.00654], [80.25426, 13.00651], [80.2529, 13.0065], [80.25232, 13.00653], [80.25167, 13.00667], [80.25166, 13.00662], [80.25145, 13.00665], [80.25108, 13.00668], [80.25064, 13.00666], [80.24984, 13.00664], [80.2484, 13.00657], [80.24841, 13.00667], [80.24811, 13.00668], [80.24789, 13.00668], [80.24762, 13.00668], [80.24599, 13.00666], [80.245, 13.00664], [80.2436, 13.00664], [80.24206, 13.0066], [80.24132, 13.00661], [80.24058, 13.00672], [80.24, 13.00683], [80.23812, 13.00719], [80.2372, 13.00739], [80.2367, 13.0075], [80.23504, 13.00784], [80.23164, 13.00851], [80.22853, 13.00913], [80.2282, 13.0092], [80.22753, 13.00947], [80.22625, 13.01004], [80.22613, 13.01011], [80.22607, 13.01018], [80.22541, 13.0105], [80.22492, 13.01074], [80.22486, 13.01075], [80.22467, 13.01083], [80.22409, 13.01106], [80.22323, 13.01137], [80.22196, 13.0119], [80.22149, 13.01207], [80.22142, 13.01221], [80.2214, 13.01227], [80.22141, 13.01234], [80.22149, 13.01244], [80.22183, 13.01269], [80.22219, 13.01297], [80.22268, 13.01338], [80.22315, 13.01377], [80.22317, 13.01381], [80.22317, 13.01387], [80.22329, 13.01396], [80.22374, 13.01434], [80.22462, 13.01504], [80.2247, 13.0151], [80.22475, 13.01522], [80.22482, 13.01536], [80.22493, 13.01553], [80.22499, 13.01557], [80.22503, 13.0156], [80.22505, 13.01561], [80.22523, 13.01581], [80.2253, 13.01593], [80.22534, 13.01605], [80.22536, 13.01614], [80.22535, 13.01627], [80.22527, 13.01662], [80.22509, 13.01709], [80.22441, 13.01877], [80.22436, 13.0191], [80.22436, 13.01912], [80.2244, 13.01942], [80.22451, 13.0197], [80.22462, 13.01991], [80.22491, 13.02035], [80.22625, 13.02209], [80.22648, 13.02235], [80.22747, 13.02349], [80.22771, 13.02374], [80.22799, 13.02398], [80.22846, 13.02437], [80.22978, 13.02536], [80.22977, 13.02537], [80.22997, 13.02553], [80.23026, 13.02571], [80.23051, 13.02583], [80.23083, 13.02593], [80.23138, 13.0261], [80.23124, 13.02644], [80.23111, 13.027], [80.23098, 13.02754], [80.23097, 13.02764], [80.23079, 13.02926], [80.23075, 13.02969], [80.23073, 13.0302], [80.23065, 13.03078], [80.23058, 13.03198], [80.23042, 13.03402], [80.23038, 13.0342], [80.23002, 13.03423], [80.23002, 13.0345], [80.23031, 13.03453], [80.23019, 13.035], [80.23018, 13.03501], [80.23017, 13.03503], [80.23017, 13.03508], [80.23019, 13.03513], [80.2302, 13.03513], [80.23027, 13.03537], [80.23049, 13.03606], [80.23072, 13.03687], [80.23076, 13.03698], [80.23079, 13.03702], [80.23083, 13.03711], [80.23089, 13.03724], [80.23109, 13.03791], [80.23134, 13.03875], [80.2316, 13.03974], [80.23183, 13.04054], [80.23192, 13.04075], [80.23198, 13.04085], [80.23209, 13.04111], [80.23214, 13.04131], [80.23232, 13.04205], [80.23234, 13.0423], [80.23234, 13.04271], [80.23237, 13.04365], [80.23242, 13.0441], [80.23244, 13.04436], [80.23264, 13.04547], [80.23275, 13.04617], [80.23291, 13.04693], [80.23297, 13.04728], [80.23299, 13.04741], [80.23306, 13.04741], [80.23368, 13.0473], [80.23504, 13.04714], [80.23571, 13.04703], [80.23601, 13.04697], [80.23689, 13.04681], [80.23825, 13.04651], [80.23952, 13.04629], [80.23968, 13.04708], [80.23982, 13.04772], [80.23984, 13.04771], [80.24037, 13.05051], [80.24049, 13.05112], [80.24067, 13.05203], [80.24081, 13.05246], [80.24084, 13.05254], [80.24095, 13.05253], [80.24123, 13.05255], [80.2415, 13.0526], [80.24164, 13.05263], [80.24176, 13.05299], [80.24193, 13.05336], [80.2421, 13.05373], [80.24225, 13.05409], [80.2423, 13.05441], [80.24231, 13.05469], [80.24225, 13.05508], [80.24219, 13.05553], [80.24224, 13.0558], [80.24231, 13.05601], [80.24239, 13.05614], [80.24246, 13.05629], [80.24258, 13.05655], [80.2426, 13.05679], [80.24257, 13.05688], [80.24257, 13.05689], [80.24258, 13.05691], [80.24264, 13.05697], [80.24267, 13.05697], [80.24277, 13.05724], [80.24277, 13.05753], [80.24273, 13.05786], [80.24247, 13.05921], [80.24247, 13.05937], [80.24246, 13.05949], [80.24254, 13.05977], [80.24281, 13.06047], [80.24297, 13.06096], [80.24313, 13.06161], [80.24321, 13.06203], [80.24341, 13.06314], [80.24345, 13.06335], [80.24344, 13.06367], [80.24346, 13.06397], [80.24352, 13.06456], [80.24351, 13.06517], [80.24349, 13.06571], [80.24353, 13.06587], [80.24345, 13.06584], [80.24343, 13.0661], [80.24339, 13.06635], [80.24319, 13.06686], [80.24297, 13.06736], [80.24281, 13.06769], [80.24255, 13.06857], [80.24224, 13.06931], [80.24208, 13.06983], [80.24177, 13.07093], [80.24154, 13.07156], [80.24141, 13.07185], [80.2413, 13.07201], [80.24104, 13.07241], [80.24085, 13.07272], [80.24079, 13.07289], [80.24047, 13.07397], [80.24044, 13.07422], [80.24043, 13.07458], [80.24043, 13.07564], [80.24044, 13.07618], [80.24046, 13.07636], [80.24053, 13.07671], [80.24057, 13.07698], [80.24045, 13.07718], [80.24001, 13.07707], [80.23939, 13.07693], [80.23868, 13.07675], [80.23804, 13.07657], [80.23797, 13.07657], [80.23762, 13.0765], [80.23704, 13.07637], [80.23626, 13.07625], [80.23579, 13.07619], [80.23543, 13.0761], [80.23467, 13.07591], [80.23464, 13.07584], [80.23464, 13.07591], [80.2339, 13.07575], [80.23388, 13.07588], [80.23384, 13.07609], [80.23376, 13.07654], [80.23365, 13.07725], [80.23357, 13.07785], [80.23352, 13.07866], [80.23352, 13.07927], [80.23352, 13.08], [80.23352, 13.08091], [80.23355, 13.08198], [80.23302, 13.08204], [80.23265, 13.08212], [80.23203, 13.08232], [80.23167, 13.08243], [80.23148, 13.08252], [80.231, 13.08274], [80.23062, 13.08289], [80.23064, 13.08319], [80.23088, 13.08321], [80.23163, 13.08324], [80.23215, 13.08323], [80.23257, 13.0833], [80.23282, 13.08336], [80.23341, 13.0835], [80.23382, 13.08358], [80.23391, 13.08387], [80.23404, 13.08432], [80.23418, 13.08496], [80.23445, 13.0861], [80.23458, 13.08691], [80.2346, 13.08741], [80.23456, 13.08759], [80.23447, 13.08777], [80.23436, 13.08786], [80.23415, 13.08793], [80.23334, 13.08803], [80.23249, 13.0882], [80.23128, 13.08858], [80.23066, 13.08885], [80.2302, 13.08906], [80.22958, 13.08938], [80.22926, 13.08959], [80.22861, 13.09017], [80.22735, 13.09135], [80.22668, 13.09198], [80.22591, 13.09278], [80.22498, 13.09367], [80.22452, 13.09407], [80.22356, 13.09475], [80.2232, 13.09498], [80.22286, 13.09514], [80.22231, 13.09535], [80.22135, 13.09568], [80.2194, 13.09637], [80.21722, 13.09712], [80.21643, 13.09742], [80.2156, 13.09778], [80.21457, 13.09823], [80.21395, 13.09851], [80.21387, 13.09855], [80.2139, 13.09861], [80.21406, 13.09887], [80.21418, 13.09912], [80.21444, 13.10013], [80.21457, 13.10051], [80.21459, 13.10063], [80.21425, 13.10077], [80.21408, 13.10087], [80.21383, 13.10099], [80.2133, 13.10118], [80.2121, 13.10165], [80.21088, 13.10207], [80.20997, 13.10238], [80.20898, 13.10271], [80.2078, 13.1031], [80.20767, 13.10314], [80.20752, 13.1032], [80.2077, 13.10425], [80.2079, 13.10544]]}}]}