{"type": "FeatureCollection", "features": [{"type": "Feature", "properties": {"route_name": "51J", "stop_id": "EkWBPXmr", "name": "Broadway", "city": "CHENNAI"}, "geometry": {"type": "Point", "coordinates": [80.28388983, 13.08820568]}}, {"type": "Feature", "properties": {"route_name": "51J", "stop_id": "zVYhNTdK", "name": "Flower Bazzar", "city": "CHENNAI"}, "geometry": {"type": "Point", "coordinates": [80.28141873, 13.08750696]}}, {"type": "Feature", "properties": {"route_name": "51J", "stop_id": "xbiDwIOu", "name": "Payaigada Evening Bazar", "city": "CHENNAI"}, "geometry": {"type": "Point", "coordinates": [80.28017343, 13.08554921]}}, {"type": "Feature", "properties": {"route_name": "51J", "stop_id": "BqZQArDi", "name": "Nurse Quarters", "city": "CHENNAI"}, "geometry": {"type": "Point", "coordinates": [80.27852104691374, 13.082227452128128]}}, {"type": "Feature", "properties": {"route_name": "51J", "stop_id": "TShNRujB", "name": "Mgr Central Station Or Rajiv Gandhi Government General Hospital", "city": "CHENNAI"}, "geometry": {"type": "Point", "coordinates": [80.27666299527485, 13.081750493356726]}}, {"type": "Feature", "properties": {"route_name": "51J", "stop_id": "hxSTJhOz", "name": "Pallavan Salai", "city": "CHENNAI"}, "geometry": {"type": "Point", "coordinates": [80.27638522507527, 13.075417794179309]}}, {"type": "Feature", "properties": {"route_name": "51J", "stop_id": "rDSiGFpR", "name": "Simson Or Periyar Bridge", "city": "CHENNAI"}, "geometry": {"type": "Point", "coordinates": [80.27388174341809, 13.070529313285379]}}, {"type": "Feature", "properties": {"route_name": "51J", "stop_id": "LbKosGpD", "name": "Shanthi Theatre", "city": "CHENNAI"}, "geometry": {"type": "Point", "coordinates": [80.27047620448093, 13.067231830340535]}}, {"type": "Feature", "properties": {"route_name": "51J", "stop_id": "NBopaFdP", "name": "Lic", "city": "CHENNAI"}, "geometry": {"type": "Point", "coordinates": [80.2663441938297, 13.06467874213801]}}, {"type": "Feature", "properties": {"route_name": "51J", "stop_id": "mHRdWDIt", "name": "Spensor Plaza TVS", "city": "CHENNAI"}, "geometry": {"type": "Point", "coordinates": [80.2599162395787, 13.059476027356299]}}, {"type": "Feature", "properties": {"route_name": "51J", "stop_id": "XFLojCJa", "name": "Anand Theatre", "city": "CHENNAI"}, "geometry": {"type": "Point", "coordinates": [80.25718621, 13.05641246]}}, {"type": "Feature", "properties": {"route_name": "51J", "stop_id": "cPCRxZjy", "name": "Thousand light Or U S Embassy", "city": "CHENNAI"}, "geometry": {"type": "Point", "coordinates": [80.25297039129896, 13.053612965708266]}}, {"type": "Feature", "properties": {"route_name": "51J", "stop_id": "LPfgjVyT", "name": "DMS", "city": "CHENNAI"}, "geometry": {"type": "Point", "coordinates": [80.24861385254701, 13.046978028476232]}}, {"type": "Feature", "properties": {"route_name": "51J", "stop_id": "cniBuICf", "name": "Vanavil", "city": "CHENNAI"}, "geometry": {"type": "Point", "coordinates": [80.24742096301384, 13.041493303435086]}}, {"type": "Feature", "properties": {"route_name": "51J", "stop_id": "WtPVEKaC", "name": "Teynampet Metro or SIET College", "city": "CHENNAI"}, "geometry": {"type": "Point", "coordinates": [80.24651083106585, 13.037120995799397]}}, {"type": "Feature", "properties": {"route_name": "51J", "stop_id": "HvQMjFdy", "name": "S I E T College", "city": "CHENNAI"}, "geometry": {"type": "Point", "coordinates": [80.24613247, 13.03527919]}}, {"type": "Feature", "properties": {"route_name": "51J", "stop_id": "XhEiPtVg", "name": "SHB", "city": "CHENNAI"}, "geometry": {"type": "Point", "coordinates": [80.23828014765331, 13.03011666691511]}}, {"type": "Feature", "properties": {"route_name": "51J", "stop_id": "JERGrgVI", "name": "Munipillai Chathiram", "city": "CHENNAI"}, "geometry": {"type": "Point", "coordinates": [80.2314275604673, 13.026012966072276]}}, {"type": "Feature", "properties": {"route_name": "51J", "stop_id": "DOGyniWl", "name": "Saidapet Metro", "city": "CHENNAI"}, "geometry": {"type": "Point", "coordinates": [80.2281859358351, 13.023758074666299]}}, {"type": "Feature", "properties": {"route_name": "51J", "stop_id": "ItndWSiW", "name": "Saidapet", "city": "CHENNAI"}, "geometry": {"type": "Point", "coordinates": [80.2272533, 13.02297368]}}, {"type": "Feature", "properties": {"route_name": "51J", "stop_id": "udTxdaUq", "name": "Saidapet Bridge", "city": "CHENNAI"}, "geometry": {"type": "Point", "coordinates": [80.22466538271965, 13.01970703439942]}}, {"type": "Feature", "properties": {"route_name": "51J", "stop_id": "YmkUpvHU", "name": "Chinnamalai B S or Saidapet Court", "city": "CHENNAI"}, "geometry": {"type": "Point", "coordinates": [80.22645940770053, 13.0139397637957]}}, {"type": "Feature", "properties": {"route_name": "51J", "stop_id": "rRGVruPM", "name": "Raj Bhavan Quarters", "city": "CHENNAI"}, "geometry": {"type": "Point", "coordinates": [80.22517469844684, 13.010580746325664]}}, {"type": "Feature", "properties": {"route_name": "51J", "stop_id": "POsNTwnJ", "name": "Halda", "city": "CHENNAI"}, "geometry": {"type": "Point", "coordinates": [80.22286082, 13.0106453]}}, {"type": "Feature", "properties": {"route_name": "51J", "stop_id": "OXcUkifL", "name": "Kannaigapuram", "city": "CHENNAI"}, "geometry": {"type": "Point", "coordinates": [80.22041006, 13.00511158]}}, {"type": "Feature", "properties": {"route_name": "51J", "stop_id": "WCllcJIC", "name": "Vellacherry Check Post", "city": "CHENNAI"}, "geometry": {"type": "Point", "coordinates": [80.21657282, 12.99757362]}}, {"type": "Feature", "properties": {"route_name": "51J", "stop_id": "SEjojzMr", "name": "Guru Nanak College", "city": "CHENNAI"}, "geometry": {"type": "Point", "coordinates": [80.22023578275683, 12.990783918859547]}}, {"type": "Feature", "properties": {"route_name": "51J", "stop_id": "TgzZcdmy", "name": "Gandhi Road", "city": "CHENNAI"}, "geometry": {"type": "Point", "coordinates": [80.22308184171618, 12.987704690097594]}}, {"type": "Feature", "properties": {"route_name": "51J", "stop_id": "KIvXTDlT", "name": "Dhandeeswaran Nagar", "city": "CHENNAI"}, "geometry": {"type": "Point", "coordinates": [80.22330789312657, 12.985402644684891]}}, {"type": "Feature", "properties": {"route_name": "51J", "stop_id": "mexFgKBp", "name": "Velachery", "city": "CHENNAI"}, "geometry": {"type": "Point", "coordinates": [80.22125344130461, 12.976171322771068]}}, {"type": "Feature", "properties": {"route_name": "51J", "stop_id": "HcKLTTXk", "name": "Velachery Railway Station", "city": "CHENNAI"}, "geometry": {"type": "Point", "coordinates": [80.21910222319366, 12.971072941036168]}}, {"type": "Feature", "properties": {"route_name": "51J", "stop_id": "UgdUAhSn", "name": "Kaiveli", "city": "CHENNAI"}, "geometry": {"type": "Point", "coordinates": [80.2159297901783, 12.963017954363247]}}, {"type": "Feature", "properties": {"route_name": "51J", "stop_id": "veAXvdUO", "name": "Balaji Nagar Medavakkam", "city": "CHENNAI"}, "geometry": {"type": "Point", "coordinates": [80.21226292919391, 12.953930801936878]}}, {"type": "Feature", "properties": {"route_name": "51J", "stop_id": "CCoJPQpR", "name": "Pallikaranai Kamachi Hospital", "city": "CHENNAI"}, "geometry": {"type": "Point", "coordinates": [80.21027843960997, 12.94862372018681]}}, {"type": "Feature", "properties": {"route_name": "51J", "stop_id": "MttNRhjN", "name": "Narayanapuram", "city": "CHENNAI"}, "geometry": {"type": "Point", "coordinates": [80.20558241790764, 12.939680883600676]}}, {"type": "Feature", "properties": {"route_name": "51J", "stop_id": "VbMcfGsr", "name": "Pallikaranai", "city": "CHENNAI"}, "geometry": {"type": "Point", "coordinates": [80.20398906628498, 12.933987091421075]}}, {"type": "Feature", "properties": {"route_name": "51J", "stop_id": "ljNlRbnZ", "name": "Oil Mill", "city": "CHENNAI"}, "geometry": {"type": "Point", "coordinates": [80.2027966497202, 12.929448223931814]}}, {"type": "Feature", "properties": {"route_name": "51J", "stop_id": "shEBYolm", "name": "Pallikaranai Government School", "city": "CHENNAI"}, "geometry": {"type": "Point", "coordinates": [80.19760757458414, 12.92632849327181]}}, {"type": "Feature", "properties": {"route_name": "51J", "stop_id": "KSJnwxVm", "name": "Asan College", "city": "CHENNAI"}, "geometry": {"type": "Point", "coordinates": [80.19743057700975, 12.922311715265998]}}, {"type": "Feature", "properties": {"route_name": "51J", "stop_id": "mdiSFJRM", "name": "Medavakkam Colony Or Puliamaram", "city": "CHENNAI"}, "geometry": {"type": "Point", "coordinates": [80.19617399890899, 12.919129267113453]}}, {"type": "Feature", "properties": {"route_name": "51J", "stop_id": "dHuMOmqh", "name": "Medavakkam Junction", "city": "CHENNAI"}, "geometry": {"type": "Point", "coordinates": [80.19285620789992, 12.916974279647274]}}, {"type": "Feature", "properties": {"route_name": "51J", "stop_id": "OhgtKZPi", "name": "Babu Nagar Medavakkam", "city": "CHENNAI"}, "geometry": {"type": "Point", "coordinates": [80.19195196847136, 12.912485424459158]}}, {"type": "Feature", "properties": {"route_name": "51J", "stop_id": "lhYDMMsV", "name": "Soumya Nagar", "city": "CHENNAI"}, "geometry": {"type": "Point", "coordinates": [80.1913151260078, 12.909568211109718]}}, {"type": "Feature", "properties": {"route_name": "51J", "stop_id": "LNRgsQQF", "name": "Veerabadra Nagar", "city": "CHENNAI"}, "geometry": {"type": "Point", "coordinates": [80.18895098965663, 12.906393327883684]}}, {"type": "Feature", "properties": {"route_name": "51J", "stop_id": "MhGEPaGW", "name": "Housing Board Sithalapakam", "city": "CHENNAI"}, "geometry": {"type": "Point", "coordinates": [80.17576145931616, 12.890951122058679]}}, {"type": "Feature", "properties": {"route_name": "51J", "stop_id": "LjfvDYFE", "name": "Kovilanchery", "city": "CHENNAI"}, "geometry": {"type": "Point", "coordinates": [80.1706938233018, 12.882526349225452]}}, {"type": "Feature", "properties": {"route_name": "51J", "stop_id": "IANlmbvg", "name": "Kovilanchery Colony Or Thaila Maram", "city": "CHENNAI"}, "geometry": {"type": "Point", "coordinates": [80.17025907615835, 12.879922209070566]}}, {"type": "Feature", "properties": {"route_name": "51J", "stop_id": "pnYEWPBG", "name": "Kandigai Junction", "city": "CHENNAI"}, "geometry": {"type": "Point", "coordinates": [80.17067068924905, 12.87648175339233]}}, {"type": "Feature", "properties": {"route_name": "51J", "stop_id": "VUmYNFZt", "name": "Madurapakkam Road Junction", "city": "CHENNAI"}, "geometry": {"type": "Point", "coordinates": [80.17572580655701, 12.865225226462988]}}, {"type": "Feature", "properties": {"route_name": "51J", "stop_id": "ltfHcqwC", "name": "Ponmar Colony", "city": "CHENNAI"}, "geometry": {"type": "Point", "coordinates": [80.17436301517728, 12.862798892728033]}}, {"type": "Feature", "properties": {"route_name": "51J", "stop_id": "tfRCwcQZ", "name": "Ponmar", "city": "CHENNAI"}, "geometry": {"type": "Point", "coordinates": [80.17342050593015, 12.860747298948137]}}, {"type": "Feature", "properties": {"route_name": "51J", "stop_id": "HDmoIVra", "name": "K Vasudevan College Of Engineering And Technology", "city": "CHENNAI"}, "geometry": {"type": "Point", "coordinates": [80.17124590998787, 12.853051554197805]}}, {"type": "Feature", "properties": {"route_name": "51J", "stop_id": "bCNvXuax", "name": "Mambakkam Sivan Kovil", "city": "CHENNAI"}, "geometry": {"type": "Point", "coordinates": [80.16940110601377, 12.838068114153808]}}, {"type": "Feature", "properties": {"route_name": "51J", "stop_id": "KqFhDHZN", "name": "Mambakkam Rice Mill", "city": "CHENNAI"}, "geometry": {"type": "Point", "coordinates": [80.16624007196867, 12.832565214477174]}}, {"type": "Feature", "properties": {"route_name": "51J", "stop_id": "DrDUQeXZ", "name": "Mambakkam", "city": "CHENNAI"}, "geometry": {"type": "Point", "coordinates": [80.1651181593553, 12.827699062972185]}}, {"type": "Feature", "properties": {"name": "51J"}, "geometry": {"type": "LineString", "coordinates": [[80.28388, 13.08836], [80.28347, 13.08833], [80.28291, 13.08832], [80.28261, 13.08833], [80.28227, 13.08828], [80.28204, 13.08823], [80.28184, 13.08815], [80.28156, 13.08799], [80.28153, 13.08794], [80.28145, 13.08769], [80.2814, 13.08751], [80.28095, 13.08603], [80.28087, 13.08583], [80.28083, 13.08578], [80.28076, 13.08575], [80.28024, 13.0856], [80.28016, 13.08559], [80.27982, 13.08551], [80.27957, 13.08537], [80.27943, 13.08516], [80.27937, 13.08497], [80.27928, 13.08459], [80.27914, 13.08376], [80.27898, 13.08332], [80.27883, 13.08295], [80.27864, 13.08243], [80.27857, 13.08221], [80.27856, 13.08221], [80.27852, 13.08209], [80.27838, 13.08209], [80.27796, 13.08201], [80.27668, 13.0818], [80.27666, 13.08179], [80.27604, 13.08168], [80.27572, 13.08164], [80.2755, 13.08156], [80.27532, 13.08152], [80.27527, 13.08149], [80.27524, 13.08144], [80.27525, 13.08117], [80.27529, 13.08069], [80.27534, 13.07998], [80.27534, 13.07973], [80.27529, 13.07939], [80.27518, 13.07885], [80.27519, 13.07876], [80.27522, 13.07867], [80.27528, 13.07856], [80.27537, 13.07845], [80.27544, 13.07841], [80.27573, 13.0783], [80.27606, 13.07819], [80.27616, 13.07807], [80.27622, 13.07786], [80.27633, 13.07542], [80.27642, 13.0742], [80.27647, 13.0738], [80.27652, 13.0737], [80.27589, 13.07309], [80.27512, 13.0724], [80.27469, 13.072], [80.2745, 13.07174], [80.27445, 13.07158], [80.27435, 13.07127], [80.27416, 13.07087], [80.27399, 13.0707], [80.27385, 13.07056], [80.27387, 13.07061], [80.27389, 13.07058], [80.27386, 13.07056], [80.27351, 13.07032], [80.27279, 13.06971], [80.27251, 13.06941], [80.27217, 13.069], [80.27204, 13.06875], [80.2719, 13.06846], [80.27179, 13.06836], [80.27165, 13.06823], [80.27125, 13.06799], [80.27103, 13.06785], [80.27044, 13.06726], [80.27009, 13.06691], [80.2698, 13.06667], [80.26962, 13.06655], [80.26953, 13.0665], [80.26945, 13.06646], [80.26923, 13.06639], [80.26893, 13.06635], [80.26851, 13.06633], [80.26843, 13.06631], [80.26833, 13.06625], [80.26787, 13.06595], [80.26756, 13.06571], [80.2663, 13.06473], [80.26507, 13.06373], [80.26461, 13.06339], [80.26383, 13.06264], [80.26326, 13.06221], [80.26247, 13.06161], [80.26146, 13.06077], [80.26138, 13.06069], [80.2599, 13.05949], [80.25902, 13.05877], [80.25836, 13.05824], [80.25771, 13.05768], [80.25776, 13.05662], [80.25761, 13.05659], [80.25728, 13.05652], [80.25717, 13.05649], [80.25715, 13.05648], [80.25689, 13.05642], [80.25667, 13.05639], [80.25651, 13.05639], [80.25625, 13.05618], [80.25454, 13.05494], [80.25417, 13.05463], [80.25378, 13.05432], [80.25309, 13.05382], [80.25291, 13.05369], [80.25293, 13.05368], [80.25232, 13.05327], [80.25203, 13.05306], [80.25116, 13.05242], [80.25074, 13.05209], [80.25048, 13.05181], [80.25036, 13.05166], [80.25027, 13.05152], [80.25018, 13.05132], [80.25008, 13.05096], [80.25, 13.05045], [80.24992, 13.04979], [80.24985, 13.0494], [80.2498, 13.04884], [80.24972, 13.04858], [80.24958, 13.04834], [80.24933, 13.048], [80.24875, 13.04744], [80.24865, 13.0473], [80.24858, 13.04713], [80.24855, 13.047], [80.2483, 13.04599], [80.2482, 13.04556], [80.24819, 13.04539], [80.24813, 13.04496], [80.24793, 13.04393], [80.2478, 13.04332], [80.2474, 13.0415], [80.2472, 13.04048], [80.24694, 13.0392], [80.24659, 13.0376], [80.2462, 13.0359], [80.24605, 13.03531], [80.24592, 13.03504], [80.24581, 13.03491], [80.24567, 13.03478], [80.24489, 13.03416], [80.24429, 13.03373], [80.24299, 13.03274], [80.24254, 13.03244], [80.24229, 13.03229], [80.24141, 13.03181], [80.24121, 13.0317], [80.24019, 13.03123], [80.23974, 13.031], [80.23898, 13.03055], [80.23826, 13.03015], [80.23826, 13.03016], [80.23758, 13.02976], [80.23734, 13.02959], [80.23705, 13.02937], [80.23639, 13.02876], [80.23579, 13.02824], [80.23562, 13.02808], [80.23548, 13.02796], [80.2348, 13.02759], [80.23306, 13.02657], [80.2326, 13.02635], [80.23215, 13.02622], [80.23133, 13.02601], [80.23072, 13.0258], [80.23035, 13.02564], [80.23017, 13.02553], [80.22918, 13.0248], [80.229, 13.0246], [80.22873, 13.02438], [80.2285, 13.02421], [80.22813, 13.02382], [80.22766, 13.02346], [80.22722, 13.023], [80.2263, 13.02198], [80.22539, 13.02078], [80.22509, 13.02038], [80.22497, 13.02026], [80.22476, 13.01996], [80.22462, 13.01973], [80.22451, 13.01949], [80.22446, 13.01918], [80.22447, 13.01893], [80.22537, 13.01666], [80.22559, 13.01604], [80.22604, 13.01489], [80.22641, 13.01392], [80.22672, 13.01307], [80.22699, 13.01237], [80.22751, 13.01108], [80.22792, 13.01013], [80.22796, 13.00976], [80.22792, 13.00961], [80.22783, 13.00955], [80.22774, 13.00952], [80.22769, 13.00952], [80.22747, 13.00959], [80.22629, 13.01014], [80.22615, 13.01018], [80.22607, 13.01018], [80.22541, 13.0105], [80.22519, 13.01061], [80.22492, 13.01074], [80.22486, 13.01075], [80.22467, 13.01083], [80.22409, 13.01106], [80.22357, 13.01125], [80.22337, 13.01132], [80.22321, 13.01127], [80.22316, 13.01122], [80.22311, 13.01113], [80.22285, 13.01065], [80.22199, 13.00909], [80.22107, 13.00733], [80.22082, 13.00685], [80.22071, 13.00664], [80.22059, 13.00628], [80.22043, 13.00545], [80.22036, 13.00512], [80.22027, 13.00466], [80.2202, 13.00448], [80.22012, 13.00416], [80.21999, 13.00354], [80.21989, 13.00316], [80.21974, 13.00283], [80.21963, 13.00262], [80.21949, 13.00246], [80.21882, 13.00183], [80.21866, 13.00167], [80.21834, 13.00127], [80.21813, 13.00095], [80.21777, 13.00034], [80.21722, 12.99944], [80.21699, 12.99901], [80.21684, 12.99871], [80.21669, 12.99837], [80.21662, 12.99814], [80.21657, 12.99788], [80.21654, 12.99758], [80.21653, 12.99694], [80.21657, 12.99655], [80.21661, 12.99624], [80.21676, 12.99568], [80.21692, 12.99529], [80.21711, 12.99499], [80.21729, 12.99473], [80.21885, 12.99258], [80.21955, 12.99161], [80.21978, 12.99132], [80.22022, 12.99077], [80.22068, 12.99015], [80.22088, 12.98994], [80.22097, 12.98984], [80.22148, 12.98941], [80.22171, 12.98925], [80.22229, 12.98875], [80.22263, 12.98838], [80.22295, 12.98797], [80.22303, 12.98784], [80.22306, 12.98775], [80.22306, 12.9877], [80.22307, 12.98736], [80.22304, 12.98708], [80.22297, 12.98674], [80.22296, 12.9864], [80.22297, 12.98616], [80.22297, 12.98597], [80.223, 12.98582], [80.22303, 12.98575], [80.22313, 12.98561], [80.22324, 12.9855], [80.22329, 12.98541], [80.22329, 12.98539], [80.22329, 12.98529], [80.22323, 12.98508], [80.22302, 12.9847], [80.22284, 12.98441], [80.22261, 12.98403], [80.22208, 12.98316], [80.22187, 12.98276], [80.2217, 12.98224], [80.22159, 12.98205], [80.22125, 12.98155], [80.22107, 12.98115], [80.22098, 12.98081], [80.22098, 12.98058], [80.22102, 12.98021], [80.22104, 12.98001], [80.2211, 12.97961], [80.22115, 12.97908], [80.22118, 12.97856], [80.22121, 12.97823], [80.22119, 12.97794], [80.22121, 12.97756], [80.22123, 12.97704], [80.22121, 12.97679], [80.22122, 12.97627], [80.22127, 12.97618], [80.22123, 12.97617], [80.22122, 12.97603], [80.22189, 12.97644], [80.22216, 12.97664], [80.22271, 12.97702], [80.22354, 12.97751], [80.22476, 12.97824], [80.22501, 12.97839], [80.22516, 12.9783], [80.2244, 12.97784], [80.2235, 12.97732], [80.22278, 12.9769], [80.22212, 12.97648], [80.22168, 12.97618], [80.22129, 12.9758], [80.22083, 12.97538], [80.22075, 12.97524], [80.22067, 12.97498], [80.2205, 12.97457], [80.22032, 12.9742], [80.21993, 12.97339], [80.21955, 12.97235], [80.2194, 12.97188], [80.21906, 12.97109], [80.21905, 12.9711], [80.21878, 12.97049], [80.21854, 12.9699], [80.2177, 12.96788], [80.2175, 12.96737], [80.21705, 12.96614], [80.21634, 12.96431], [80.21582, 12.96306], [80.21435, 12.9594], [80.21384, 12.95809], [80.21333, 12.95695], [80.21305, 12.95615], [80.2122, 12.95395], [80.21143, 12.95194], [80.21112, 12.95121], [80.21116, 12.95115], [80.21117, 12.95111], [80.21107, 12.95082], [80.21025, 12.94869], [80.21023, 12.94864], [80.21014, 12.9484], [80.20975, 12.94749], [80.20909, 12.94584], [80.20904, 12.94574], [80.20898, 12.94567], [80.20892, 12.94563], [80.20864, 12.94492], [80.2084, 12.94432], [80.20807, 12.94356], [80.20789, 12.94323], [80.2078, 12.94312], [80.20726, 12.9427], [80.20678, 12.94221], [80.2064, 12.94177], [80.20625, 12.94156], [80.20613, 12.94134], [80.20584, 12.94067], [80.20553, 12.9397], [80.20519, 12.93865], [80.20486, 12.93743], [80.20438, 12.93579], [80.20419, 12.93535], [80.2041, 12.93513], [80.20404, 12.93494], [80.20401, 12.93474], [80.20394, 12.93412], [80.20393, 12.93399], [80.20389, 12.93362], [80.20379, 12.93325], [80.20356, 12.93264], [80.20319, 12.93153], [80.203, 12.93092], [80.20288, 12.9304], [80.20275, 12.92945], [80.20265, 12.92879], [80.20261, 12.92871], [80.20252, 12.92863], [80.2023, 12.92856], [80.20031, 12.92842], [80.19999, 12.92838], [80.19968, 12.9283], [80.19932, 12.92816], [80.19843, 12.92775], [80.19832, 12.92768], [80.19815, 12.92751], [80.19789, 12.92711], [80.19764, 12.9266], [80.19754, 12.92634], [80.19751, 12.92615], [80.19751, 12.92555], [80.19751, 12.9247], [80.19749, 12.92375], [80.19741, 12.92297], [80.19731, 12.92233], [80.19728, 12.92215], [80.19715, 12.92176], [80.19673, 12.92058], [80.19651, 12.91996], [80.19629, 12.91947], [80.19614, 12.91923], [80.1961, 12.91918], [80.19578, 12.91877], [80.19555, 12.91853], [80.19517, 12.91812], [80.19487, 12.91778], [80.19466, 12.91743], [80.1945, 12.91721], [80.1943, 12.91703], [80.19414, 12.91698], [80.19386, 12.91695], [80.19353, 12.91696], [80.19292, 12.91701], [80.19286, 12.91702], [80.19237, 12.91709], [80.1923, 12.91661], [80.19227, 12.91606], [80.19218, 12.91478], [80.19208, 12.91399], [80.19202, 12.91324], [80.19192, 12.91249], [80.19165, 12.91018], [80.1916, 12.91001], [80.19156, 12.90993], [80.19141, 12.90976], [80.19128, 12.90959], [80.19027, 12.90825], [80.18977, 12.90761], [80.18967, 12.90743], [80.18921, 12.90685], [80.1889, 12.90642], [80.18802, 12.90504], [80.18761, 12.90445], [80.18748, 12.90424], [80.18735, 12.90409], [80.18723, 12.90403], [80.18707, 12.904], [80.18616, 12.90402], [80.1855, 12.90405], [80.18502, 12.90406], [80.18477, 12.90403], [80.18471, 12.904], [80.18465, 12.90392], [80.18446, 12.90334], [80.1839, 12.90133], [80.18376, 12.90087], [80.18358, 12.90048], [80.18287, 12.89912], [80.1822, 12.89782], [80.1821, 12.89763], [80.18204, 12.89743], [80.18175, 12.89691], [80.18148, 12.89636], [80.18068, 12.89477], [80.18002, 12.89345], [80.1799, 12.89331], [80.17973, 12.8932], [80.17951, 12.89308], [80.17774, 12.89209], [80.17762, 12.89203], [80.17693, 12.89163], [80.17649, 12.89142], [80.17573, 12.89101], [80.17476, 12.8905], [80.17463, 12.89042], [80.17456, 12.89033], [80.1744, 12.88993], [80.1743, 12.88967], [80.17292, 12.88704], [80.17153, 12.88434], [80.17099, 12.88327], [80.17073, 12.88279], [80.17065, 12.88265], [80.17065, 12.88258], [80.17065, 12.88252], [80.17069, 12.88238], [80.17092, 12.88217], [80.17098, 12.88209], [80.171, 12.88202], [80.17101, 12.88192], [80.17097, 12.88175], [80.17091, 12.88155], [80.17063, 12.88077], [80.17055, 12.88067], [80.17043, 12.88038], [80.1702, 12.87995], [80.17, 12.87958], [80.16993, 12.87936], [80.16997, 12.87896], [80.17009, 12.87815], [80.17016, 12.87784], [80.17063, 12.87647], [80.17087, 12.87586], [80.17102, 12.87557], [80.17345, 12.8719], [80.17386, 12.8713], [80.17576, 12.86846], [80.17589, 12.86823], [80.17593, 12.86807], [80.17586, 12.86714], [80.17589, 12.86697], [80.17585, 12.86665], [80.17577, 12.86584], [80.17578, 12.86571], [80.17569, 12.86523], [80.17556, 12.86485], [80.17531, 12.86439], [80.17444, 12.86303], [80.17433, 12.86282], [80.17401, 12.86219], [80.17338, 12.86076], [80.17265, 12.85907], [80.17249, 12.85833], [80.17219, 12.85676], [80.17212, 12.85656], [80.17206, 12.85632], [80.17158, 12.85455], [80.17143, 12.85409], [80.17135, 12.85373], [80.17122, 12.85306], [80.17107, 12.8519], [80.17092, 12.85103], [80.17038, 12.84781], [80.17025, 12.84704], [80.17019, 12.8462], [80.17012, 12.84438], [80.17013, 12.84414], [80.1701, 12.84392], [80.17, 12.84324], [80.16995, 12.84277], [80.16995, 12.842], [80.16995, 12.8409], [80.16993, 12.84058], [80.16992, 12.84011], [80.16996, 12.83966], [80.16995, 12.83938], [80.16977, 12.83874], [80.16968, 12.83853], [80.1694, 12.83821], [80.16933, 12.8381], [80.1693, 12.83799], [80.16929, 12.83777], [80.16928, 12.83766], [80.16917, 12.83734], [80.16904, 12.83723], [80.16891, 12.83714], [80.16884, 12.83701], [80.16869, 12.83654], [80.16854, 12.83618], [80.16841, 12.83604], [80.16803, 12.83593], [80.16789, 12.83585], [80.16781, 12.83573], [80.16763, 12.83517], [80.16741, 12.83483], [80.16689, 12.83389], [80.16642, 12.83308], [80.16618, 12.83259], [80.1659, 12.83193], [80.16581, 12.83166], [80.16566, 12.83107], [80.16535, 12.8294], [80.16511, 12.8277]]}}]}