{"type": "FeatureCollection", "features": [{"type": "Feature", "properties": {"route_name": "505K", "stop_id": "xfbmoJHP", "name": "Redhills Bus Terminus", "city": "CHENNAI"}, "geometry": {"type": "Point", "coordinates": [80.18435172804377, 13.192823904116457]}}, {"type": "Feature", "properties": {"route_name": "505K", "stop_id": "ZPJGdbAJ", "name": "Red Hills Thiruvallur Road Junction", "city": "CHENNAI"}, "geometry": {"type": "Point", "coordinates": [80.18098164658738, 13.1963020278396]}}, {"type": "Feature", "properties": {"route_name": "505K", "stop_id": "GIlSPhwi", "name": "Elite Matriculation Higher Secondary", "city": "CHENNAI"}, "geometry": {"type": "Point", "coordinates": [80.17707490086377, 13.195060525156054]}}, {"type": "Feature", "properties": {"route_name": "505K", "stop_id": "SOtvIsgL", "name": "Alamaram Red Hills", "city": "CHENNAI"}, "geometry": {"type": "Point", "coordinates": [80.17466770419173, 13.194161794947808]}}, {"type": "Feature", "properties": {"route_name": "505K", "stop_id": "siPRjksc", "name": "Gandhi Nagar Redhills", "city": "CHENNAI"}, "geometry": {"type": "Point", "coordinates": [80.16818111074485, 13.19502229863802]}}, {"type": "Feature", "properties": {"route_name": "505K", "stop_id": "wzWDodFe", "name": "Bammedukulam", "city": "CHENNAI"}, "geometry": {"type": "Point", "coordinates": [80.16364986607152, 13.196038266550687]}}, {"type": "Feature", "properties": {"route_name": "505K", "stop_id": "lyEmHaNr", "name": "Gandhi Nagar West", "city": "CHENNAI"}, "geometry": {"type": "Point", "coordinates": [80.16093779089363, 13.196611647426181]}}, {"type": "Feature", "properties": {"route_name": "505K", "stop_id": "DLAIfXxc", "name": "Rajakalam", "city": "CHENNAI"}, "geometry": {"type": "Point", "coordinates": [80.15405676717842, 13.198163296450947]}}, {"type": "Feature", "properties": {"route_name": "505K", "stop_id": "CJTVPZbh", "name": "Jeeva Nagar", "city": "CHENNAI"}, "geometry": {"type": "Point", "coordinates": [80.14349025982756, 13.2010311726951]}}, {"type": "Feature", "properties": {"route_name": "505K", "stop_id": "CMzYUzyh", "name": "Edapalayam", "city": "CHENNAI"}, "geometry": {"type": "Point", "coordinates": [80.13938447401063, 13.202226836809652]}}, {"type": "Feature", "properties": {"route_name": "505K", "stop_id": "SrmEoNnE", "name": "Eswaran Temple", "city": "CHENNAI"}, "geometry": {"type": "Point", "coordinates": [80.12994573202934, 13.202735447484955]}}, {"type": "Feature", "properties": {"route_name": "505K", "stop_id": "jlZHvhwS", "name": "Alamathi Cattle Farm", "city": "CHENNAI"}, "geometry": {"type": "Point", "coordinates": [80.11711448392509, 13.205817698345593]}}, {"type": "Feature", "properties": {"route_name": "505K", "stop_id": "lgdUBlCD", "name": "Alamathi", "city": "CHENNAI"}, "geometry": {"type": "Point", "coordinates": [80.10944596947888, 13.207774209126631]}}, {"type": "Feature", "properties": {"route_name": "505K", "stop_id": "ZZxaTLmM", "name": "Alamathi Sub Station", "city": "CHENNAI"}, "geometry": {"type": "Point", "coordinates": [80.0994315929056, 13.210202419203128]}}, {"type": "Feature", "properties": {"route_name": "505K", "stop_id": "IxqYybMf", "name": "Vanianchathiram", "city": "CHENNAI"}, "geometry": {"type": "Point", "coordinates": [80.09337521252178, 13.211652953442623]}}, {"type": "Feature", "properties": {"route_name": "505K", "stop_id": "UsVsFgoS", "name": "Poochi Athipet", "city": "CHENNAI"}, "geometry": {"type": "Point", "coordinates": [80.08744769258715, 13.212549778960685]}}, {"type": "Feature", "properties": {"route_name": "505K", "stop_id": "sWjnuVdS", "name": "Dhass", "city": "CHENNAI"}, "geometry": {"type": "Point", "coordinates": [80.07823051977539, 13.212929215698614]}}, {"type": "Feature", "properties": {"route_name": "505K", "stop_id": "PYFpJmOq", "name": "Jaya Suriya Engineering College", "city": "CHENNAI"}, "geometry": {"type": "Point", "coordinates": [80.0691476204479, 13.213301379933432]}}, {"type": "Feature", "properties": {"route_name": "505K", "stop_id": "BjpwENcr", "name": "Karanipataih", "city": "CHENNAI"}, "geometry": {"type": "Point", "coordinates": [80.06332732231772, 13.21354859843284]}}, {"type": "Feature", "properties": {"route_name": "505K", "stop_id": "EvlCTWAM", "name": "Koduvally", "city": "CHENNAI"}, "geometry": {"type": "Point", "coordinates": [80.0578364636724, 13.21360068110337]}}, {"type": "Feature", "properties": {"route_name": "505K", "stop_id": "eIGUaObZ", "name": "Magaral", "city": "CHENNAI"}, "geometry": {"type": "Point", "coordinates": [80.05105893323616, 13.214489329608561]}}, {"type": "Feature", "properties": {"route_name": "505K", "stop_id": "pbsOcZdr", "name": "Magaral Kandigai", "city": "CHENNAI"}, "geometry": {"type": "Point", "coordinates": [80.0476429569884, 13.21528283477024]}}, {"type": "Feature", "properties": {"route_name": "505K", "stop_id": "oQxUwlRM", "name": "Sivan Koil", "city": "CHENNAI"}, "geometry": {"type": "Point", "coordinates": [80.03371803902212, 13.218967179394712]}}, {"type": "Feature", "properties": {"route_name": "505K", "stop_id": "GrxyFhrL", "name": "Thamaraipakkam Junction", "city": "CHENNAI"}, "geometry": {"type": "Point", "coordinates": [80.02839662876647, 13.220740387693654]}}, {"type": "Feature", "properties": {"route_name": "505K", "stop_id": "rDRMBgEM", "name": "Velliyur Hospital", "city": "CHENNAI"}, "geometry": {"type": "Point", "coordinates": [80.01061519087148, 13.217814848060364]}}, {"type": "Feature", "properties": {"route_name": "505K", "stop_id": "mfgtosUp", "name": "Velliyur School", "city": "CHENNAI"}, "geometry": {"type": "Point", "coordinates": [80.00561289536279, 13.217017523442562]}}, {"type": "Feature", "properties": {"route_name": "505K", "stop_id": "WeqAZPal", "name": "Vilappakkam", "city": "CHENNAI"}, "geometry": {"type": "Point", "coordinates": [79.98639739319094, 13.2158266221152]}}, {"type": "Feature", "properties": {"route_name": "505K", "stop_id": "kOVxiGFe", "name": "New Karikkalvakkam", "city": "CHENNAI"}, "geometry": {"type": "Point", "coordinates": [79.98273081947264, 13.211025848824093]}}, {"type": "Feature", "properties": {"route_name": "505K", "stop_id": "qUWcqGRU", "name": "Vishnuvakkam", "city": "CHENNAI"}, "geometry": {"type": "Point", "coordinates": [79.97308546604211, 13.204171570884576]}}, {"type": "Feature", "properties": {"route_name": "505K", "stop_id": "xHyAtnfx", "name": "Keelanur", "city": "CHENNAI"}, "geometry": {"type": "Point", "coordinates": [79.96287060752297, 13.198129836111363]}}, {"type": "Feature", "properties": {"route_name": "505K", "stop_id": "zrFdTehz", "name": "Moolakkarai", "city": "CHENNAI"}, "geometry": {"type": "Point", "coordinates": [79.95030678213107, 13.19203777373642]}}, {"type": "Feature", "properties": {"route_name": "505K", "stop_id": "lWnrzrzW", "name": "Nasarath", "city": "CHENNAI"}, "geometry": {"type": "Point", "coordinates": [79.94662934235396, 13.18423249853604]}}, {"type": "Feature", "properties": {"route_name": "505K", "stop_id": "MLYhGOjG", "name": "Othikkadu", "city": "CHENNAI"}, "geometry": {"type": "Point", "coordinates": [79.94303717123739, 13.179531133266384]}}, {"type": "Feature", "properties": {"route_name": "505K", "stop_id": "xRMPpTGi", "name": "Ikkadu Kandigai", "city": "CHENNAI"}, "geometry": {"type": "Point", "coordinates": [79.93593955179097, 13.172433681814182]}}, {"type": "Feature", "properties": {"route_name": "505K", "stop_id": "euIYYdlw", "name": "CSI Bethel Church Ikkadu", "city": "CHENNAI"}, "geometry": {"type": "Point", "coordinates": [79.93399481579547, 13.170189012297149]}}, {"type": "Feature", "properties": {"route_name": "505K", "stop_id": "eViNbjWB", "name": "Ekkadu CSI Hospital", "city": "CHENNAI"}, "geometry": {"type": "Point", "coordinates": [79.92228644168688, 13.159527789297666]}}, {"type": "Feature", "properties": {"route_name": "505K", "stop_id": "MtbBZIqI", "name": "BDO Office Ikkadu", "city": "CHENNAI"}, "geometry": {"type": "Point", "coordinates": [79.91772885807165, 13.156469819580167]}}, {"type": "Feature", "properties": {"route_name": "505K", "stop_id": "sKXIofXa", "name": "Ikkadu Water Tank Or Teachers Colony", "city": "CHENNAI"}, "geometry": {"type": "Point", "coordinates": [79.91386285065255, 13.148859339245456]}}, {"type": "Feature", "properties": {"route_name": "505K", "stop_id": "rDmQAEpc", "name": "Theradi", "city": "CHENNAI"}, "geometry": {"type": "Point", "coordinates": [79.90878180824438, 13.143298972428218]}}, {"type": "Feature", "properties": {"route_name": "505K", "stop_id": "BDmybVdG", "name": "Thiruvallur Terminal", "city": "CHENNAI"}, "geometry": {"type": "Point", "coordinates": [79.90810952313655, 13.140406485250358]}}, {"type": "Feature", "properties": {"name": "505K"}, "geometry": {"type": "LineString", "coordinates": [[80.18414, 13.19313], [80.18387, 13.19341], [80.18365, 13.19369], [80.18324, 13.19411], [80.18286, 13.19453], [80.18249, 13.19493], [80.18142, 13.19609], [80.18113, 13.19642], [80.18112, 13.19642], [80.18111, 13.19642], [80.18097, 13.19632], [80.18045, 13.1961], [80.17962, 13.19585], [80.17912, 13.19573], [80.1783, 13.19547], [80.17707, 13.19508], [80.17647, 13.1949], [80.17607, 13.19475], [80.1752, 13.19443], [80.17466, 13.19418], [80.17388, 13.19378], [80.17368, 13.19369], [80.17351, 13.19368], [80.1731, 13.1938], [80.1719, 13.19424], [80.17111, 13.19444], [80.17062, 13.19456], [80.16999, 13.19468], [80.16819, 13.19506], [80.16704, 13.19531], [80.16574, 13.1956], [80.16479, 13.19581], [80.16393, 13.19599], [80.16366, 13.19606], [80.16094, 13.19663], [80.15918, 13.19701], [80.15824, 13.19722], [80.15712, 13.19745], [80.15686, 13.19749], [80.15636, 13.19763], [80.15587, 13.19774], [80.15406, 13.19819], [80.14952, 13.19939], [80.14788, 13.19983], [80.14565, 13.20047], [80.1435, 13.20106], [80.14123, 13.20173], [80.13939, 13.20225], [80.13919, 13.20231], [80.13894, 13.20236], [80.13855, 13.20239], [80.13801, 13.2024], [80.1374, 13.20241], [80.13685, 13.20244], [80.13637, 13.2025], [80.13585, 13.20252], [80.13459, 13.20257], [80.13381, 13.20259], [80.1322, 13.20267], [80.13067, 13.20273], [80.12995, 13.2028], [80.12897, 13.20299], [80.12742, 13.20334], [80.12565, 13.20376], [80.12394, 13.2042], [80.12309, 13.20441], [80.12258, 13.20451], [80.12194, 13.20467], [80.12046, 13.20505], [80.11902, 13.20543], [80.11715, 13.20583], [80.11712, 13.20584], [80.11483, 13.20645], [80.11427, 13.20658], [80.11284, 13.20693], [80.11207, 13.20714], [80.11165, 13.20727], [80.1109, 13.20746], [80.10946, 13.20779], [80.10657, 13.20845], [80.10263, 13.20947], [80.09949, 13.21021], [80.09944, 13.21023], [80.09717, 13.21081], [80.09625, 13.21104], [80.09515, 13.2113], [80.09338, 13.21167], [80.09335, 13.21168], [80.09282, 13.21179], [80.09094, 13.21213], [80.08974, 13.2124], [80.08901, 13.21252], [80.08745, 13.21258], [80.08644, 13.21264], [80.08607, 13.21265], [80.08594, 13.21265], [80.08578, 13.21269], [80.08549, 13.21275], [80.08491, 13.21279], [80.08364, 13.21279], [80.08227, 13.21282], [80.08098, 13.21287], [80.07993, 13.2129], [80.07823, 13.21296], [80.07403, 13.21312], [80.06915, 13.21333], [80.06333, 13.21358], [80.06018, 13.21367], [80.05879, 13.21365], [80.05784, 13.21363], [80.05551, 13.2136], [80.05509, 13.21365], [80.05459, 13.21375], [80.05225, 13.21424], [80.05174, 13.21436], [80.05107, 13.21452], [80.04954, 13.21484], [80.04766, 13.21535], [80.04645, 13.21565], [80.04603, 13.21573], [80.04503, 13.21586], [80.04464, 13.21594], [80.04443, 13.21601], [80.04419, 13.2161], [80.04391, 13.21623], [80.04331, 13.21662], [80.04299, 13.21684], [80.04284, 13.21691], [80.04247, 13.21704], [80.04207, 13.2171], [80.04135, 13.21713], [80.04064, 13.21713], [80.04, 13.21721], [80.03864, 13.21751], [80.03755, 13.21777], [80.03663, 13.21803], [80.03372, 13.21899], [80.03025, 13.22017], [80.02853, 13.22074], [80.02849, 13.22073], [80.02844, 13.22074], [80.02842, 13.22078], [80.02683, 13.22128], [80.02651, 13.22136], [80.02618, 13.22139], [80.0257, 13.22135], [80.02436, 13.22114], [80.0218, 13.22078], [80.02104, 13.22067], [80.01823, 13.22018], [80.01734, 13.22005], [80.01679, 13.21995], [80.01635, 13.21987], [80.01595, 13.21974], [80.01477, 13.21933], [80.01309, 13.21873], [80.01249, 13.21849], [80.01174, 13.21817], [80.01061, 13.21784], [80.01021, 13.21774], [80.00975, 13.21765], [80.00561, 13.21704], [80.00507, 13.21697], [80.00384, 13.21686], [80.00302, 13.21686], [80.00174, 13.21691], [80.00046, 13.21695], [80.00023, 13.21694], [80.00007, 13.21691], [79.99953, 13.21675], [79.99915, 13.21672], [79.99713, 13.2168], [79.99637, 13.21676], [79.99597, 13.2167], [79.99563, 13.21663], [79.99433, 13.21626], [79.9941, 13.21621], [79.99388, 13.21622], [79.99279, 13.21651], [79.99244, 13.21655], [79.9922, 13.21653], [79.99184, 13.21643], [79.99067, 13.21605], [79.98959, 13.21579], [79.98924, 13.21577], [79.98797, 13.21578], [79.98681, 13.21584], [79.98639, 13.21585], [79.98633, 13.21583], [79.98619, 13.21573], [79.98473, 13.21424], [79.98426, 13.21377], [79.98399, 13.21345], [79.98381, 13.21316], [79.98366, 13.21286], [79.9836, 13.21264], [79.98357, 13.21211], [79.98353, 13.21192], [79.98345, 13.21173], [79.98332, 13.21156], [79.98271, 13.21105], [79.98215, 13.21064], [79.98112, 13.21003], [79.98022, 13.20936], [79.98001, 13.20916], [79.97966, 13.20877], [79.97929, 13.20847], [79.9785, 13.2079], [79.97802, 13.20754], [79.97784, 13.20737], [79.97762, 13.20711], [79.97714, 13.20638], [79.97695, 13.20617], [79.97679, 13.20606], [79.97539, 13.20532], [79.97474, 13.2051], [79.97317, 13.20427], [79.97306, 13.20421], [79.97174, 13.20352], [79.97111, 13.20313], [79.97042, 13.20258], [79.97023, 13.20244], [79.96997, 13.20229], [79.96956, 13.20212], [79.96889, 13.20188], [79.96851, 13.20172], [79.96815, 13.20154], [79.96684, 13.20078], [79.96665, 13.20064], [79.96649, 13.20048], [79.96639, 13.20033], [79.96631, 13.20009], [79.96623, 13.19975], [79.96615, 13.19956], [79.96606, 13.19943], [79.96588, 13.1993], [79.9656, 13.19917], [79.96526, 13.19905], [79.96439, 13.19879], [79.9641, 13.19868], [79.96324, 13.19835], [79.96286, 13.19815], [79.96241, 13.1979], [79.9618, 13.19762], [79.96018, 13.197], [79.95947, 13.19674], [79.95901, 13.19659], [79.95845, 13.19636], [79.95776, 13.19601], [79.95744, 13.19582], [79.95705, 13.19556], [79.956, 13.1947], [79.95567, 13.19445], [79.95523, 13.19416], [79.95411, 13.19356], [79.95285, 13.19293], [79.95253, 13.19278], [79.95232, 13.1927], [79.9513, 13.19251], [79.95105, 13.19244], [79.95067, 13.1923], [79.95035, 13.19213], [79.95028, 13.19205], [79.95024, 13.19195], [79.95021, 13.19173], [79.95021, 13.19142], [79.9502, 13.19121], [79.95014, 13.19091], [79.9498, 13.18963], [79.94973, 13.18937], [79.94963, 13.18915], [79.94941, 13.18878], [79.94889, 13.18784], [79.9478, 13.18577], [79.94768, 13.18558], [79.94685, 13.18454], [79.94663, 13.18428], [79.94661, 13.18425], [79.94614, 13.18368], [79.94598, 13.18338], [79.94536, 13.18174], [79.94523, 13.18147], [79.94511, 13.18132], [79.945, 13.18123], [79.94467, 13.18101], [79.94435, 13.18076], [79.94301, 13.17956], [79.94248, 13.17911], [79.94192, 13.1786], [79.94094, 13.17759], [79.94081, 13.17743], [79.94059, 13.17706], [79.93995, 13.17605], [79.93953, 13.17542], [79.93936, 13.17525], [79.93922, 13.17516], [79.9382, 13.1747], [79.93791, 13.17456], [79.93761, 13.17436], [79.93725, 13.17408], [79.93665, 13.1735], [79.93585, 13.1725], [79.93584, 13.17248], [79.9354, 13.17187], [79.93504, 13.1713], [79.9348, 13.17101], [79.93447, 13.17068], [79.93397, 13.17021], [79.93352, 13.16978], [79.93278, 13.16911], [79.93255, 13.1689], [79.93234, 13.16867], [79.93226, 13.16855], [79.93213, 13.16817], [79.93188, 13.16733], [79.93181, 13.16719], [79.93171, 13.16704], [79.93135, 13.1667], [79.93107, 13.16647], [79.93077, 13.16619], [79.93026, 13.16559], [79.92968, 13.16498], [79.92943, 13.16475], [79.92917, 13.16458], [79.92871, 13.1643], [79.92795, 13.16379], [79.92649, 13.16268], [79.92602, 13.16236], [79.92571, 13.16213], [79.92487, 13.16144], [79.92453, 13.16108], [79.92411, 13.16058], [79.92385, 13.16038], [79.92311, 13.15998], [79.92245, 13.15967], [79.92226, 13.15956], [79.92212, 13.15946], [79.92204, 13.15935], [79.92183, 13.15913], [79.92172, 13.15906], [79.92165, 13.15905], [79.92142, 13.15905], [79.92099, 13.15908], [79.92064, 13.15909], [79.91984, 13.15903], [79.91797, 13.15887], [79.9178, 13.15886], [79.9177, 13.15883], [79.91765, 13.15875], [79.91763, 13.15858], [79.91764, 13.1584], [79.91767, 13.15795], [79.91765, 13.15702], [79.91769, 13.15647], [79.91771, 13.15546], [79.91767, 13.15514], [79.91737, 13.15428], [79.91718, 13.15366], [79.91709, 13.1534], [79.91701, 13.15334], [79.91698, 13.15324], [79.91696, 13.15312], [79.91678, 13.15275], [79.91657, 13.15239], [79.91589, 13.15109], [79.91553, 13.15047], [79.91526, 13.15019], [79.9146, 13.14962], [79.91425, 13.14934], [79.91398, 13.14909], [79.91381, 13.1489], [79.91333, 13.14837], [79.91308, 13.14821], [79.9128, 13.14809], [79.91211, 13.14783], [79.91173, 13.14776], [79.91084, 13.14774], [79.91035, 13.14774], [79.90993, 13.14774], [79.90975, 13.14771], [79.90953, 13.14762], [79.90929, 13.14749], [79.90906, 13.14729], [79.90891, 13.14703], [79.90859, 13.14639], [79.90845, 13.14615], [79.90827, 13.14571], [79.90825, 13.14561], [79.90825, 13.14552], [79.90827, 13.14545], [79.90831, 13.14539], [79.90838, 13.14535], [79.9087, 13.1453], [79.90884, 13.14526], [79.90888, 13.14515], [79.90885, 13.1448], [79.90881, 13.1442], [79.90873, 13.14363], [79.90867, 13.14326], [79.90875, 13.14323], [79.90877, 13.14323], [79.90867, 13.14326], [79.9086, 13.14322], [79.90856, 13.14313], [79.90848, 13.14283], [79.90756, 13.14297], [79.90736, 13.14233], [79.90722, 13.14209], [79.90698, 13.14174], [79.90668, 13.14131], [79.90666, 13.14123], [79.90664, 13.14113], [79.90669, 13.14091], [79.90694, 13.14035], [79.90695, 13.14029], [79.90703, 13.1402], [79.90712, 13.13995], [79.90721, 13.13972], [79.90729, 13.13954], [79.90735, 13.13954], [79.90746, 13.13956], [79.90752, 13.1396], [79.90761, 13.13972], [79.90783, 13.14012], [79.90793, 13.14034], [79.90798, 13.14046]]}}]}