{"type": "FeatureCollection", "features": [{"type": "Feature", "properties": {"route_name": "70C", "stop_id": "ojqTFFWy", "name": "Tambaram West Bus Stand", "city": "CHENNAI"}, "geometry": {"type": "Point", "coordinates": [80.11862628452741, 12.927652178598898]}}, {"type": "Feature", "properties": {"route_name": "70C", "stop_id": "zjKsBdNQ", "name": "Kadaperi", "city": "CHENNAI"}, "geometry": {"type": "Point", "coordinates": [80.12406423758796, 12.933095319064629]}}, {"type": "Feature", "properties": {"route_name": "70C", "stop_id": "puwcRgFs", "name": "Tambaram Sanatorium Bus Stand", "city": "CHENNAI"}, "geometry": {"type": "Point", "coordinates": [80.12748203125693, 12.937217648869067]}}, {"type": "Feature", "properties": {"route_name": "70C", "stop_id": "vyojaKRU", "name": "TB Hospital", "city": "CHENNAI"}, "geometry": {"type": "Point", "coordinates": [80.13450000658327, 12.944099170682174]}}, {"type": "Feature", "properties": {"route_name": "70C", "stop_id": "fzSWURzx", "name": "MIT Gate", "city": "CHENNAI"}, "geometry": {"type": "Point", "coordinates": [80.1374050176471, 12.947988238425095]}}, {"type": "Feature", "properties": {"route_name": "70C", "stop_id": "XiXLaJEL", "name": "Chromepet", "city": "CHENNAI"}, "geometry": {"type": "Point", "coordinates": [80.14007744716844, 12.95149481497275]}}, {"type": "Feature", "properties": {"route_name": "70C", "stop_id": "OyAyNkqZ", "name": "Saravana Store Chromepet", "city": "CHENNAI"}, "geometry": {"type": "Point", "coordinates": [80.14328253738302, 12.956911513898792]}}, {"type": "Feature", "properties": {"route_name": "70C", "stop_id": "cIQOVqQI", "name": "Ponds Company", "city": "CHENNAI"}, "geometry": {"type": "Point", "coordinates": [80.1456306546487, 12.961434135955843]}}, {"type": "Feature", "properties": {"route_name": "70C", "stop_id": "EKYbCcms", "name": "Pallavaram", "city": "CHENNAI"}, "geometry": {"type": "Point", "coordinates": [80.14962855, 12.96869503]}}, {"type": "Feature", "properties": {"route_name": "70C", "stop_id": "oynLwMrX", "name": "Pallavaram Or English Electrical", "city": "CHENNAI"}, "geometry": {"type": "Point", "coordinates": [80.15295513672345, 12.973428089525743]}}, {"type": "Feature", "properties": {"route_name": "70C", "stop_id": "jaCrAUFK", "name": "Thirusoolam National Airport", "city": "CHENNAI"}, "geometry": {"type": "Point", "coordinates": [80.16624253999316, 12.98140932892296]}}, {"type": "Feature", "properties": {"route_name": "70C", "stop_id": "MlqbsUKu", "name": "Meeanambakkam Metro", "city": "CHENNAI"}, "geometry": {"type": "Point", "coordinates": [80.17596275118285, 12.987451127169622]}}, {"type": "Feature", "properties": {"route_name": "70C", "stop_id": "AXkvSZpr", "name": "Alandur", "city": "CHENNAI"}, "geometry": {"type": "Point", "coordinates": [80.18862408163227, 12.995900343670742]}}, {"type": "Feature", "properties": {"route_name": "70C", "stop_id": "ntDOQspU", "name": "St Thomas Mount Head Post Office", "city": "CHENNAI"}, "geometry": {"type": "Point", "coordinates": [80.19613333882285, 13.001852214423991]}}, {"type": "Feature", "properties": {"route_name": "70C", "stop_id": "OpgRCgWV", "name": "Alandur Metro", "city": "CHENNAI"}, "geometry": {"type": "Point", "coordinates": [80.20073526, 13.0039722]}}, {"type": "Feature", "properties": {"route_name": "70C", "stop_id": "GYfZYaJh", "name": "CIPET", "city": "CHENNAI"}, "geometry": {"type": "Point", "coordinates": [80.20444026800283, 13.014706135862825]}}, {"type": "Feature", "properties": {"route_name": "70C", "stop_id": "EVAUYvVR", "name": "Ekkattuthangal Or Ambal Nagar", "city": "CHENNAI"}, "geometry": {"type": "Point", "coordinates": [80.20582408216478, 13.018424752637664]}}, {"type": "Feature", "properties": {"route_name": "70C", "stop_id": "JKFFGKvY", "name": "Kalaimagal Nagar", "city": "CHENNAI"}, "geometry": {"type": "Point", "coordinates": [80.20665301393319, 13.024289041078701]}}, {"type": "Feature", "properties": {"route_name": "70C", "stop_id": "zgCGmKZn", "name": "Kasi Theatre", "city": "CHENNAI"}, "geometry": {"type": "Point", "coordinates": [80.20868105992781, 13.029258560951842]}}, {"type": "Feature", "properties": {"route_name": "70C", "stop_id": "aYSqaQmJ", "name": "KK Nagar Telephone Exchange Jaffarkhanpet", "city": "CHENNAI"}, "geometry": {"type": "Point", "coordinates": [80.20930784702523, 13.031641364014488]}}, {"type": "Feature", "properties": {"route_name": "70C", "stop_id": "oBjbzljy", "name": "ESI Hospital K K Nagar", "city": "CHENNAI"}, "geometry": {"type": "Point", "coordinates": [80.20863011462302, 13.035219731420664]}}, {"type": "Feature", "properties": {"route_name": "70C", "stop_id": "sZwmfbNt", "name": "K K Nagar", "city": "CHENNAI"}, "geometry": {"type": "Point", "coordinates": [80.20558811091587, 13.035679009879493]}}, {"type": "Feature", "properties": {"route_name": "70C", "stop_id": "BeiMHrtx", "name": "M G R Nagar Market", "city": "CHENNAI"}, "geometry": {"type": "Point", "coordinates": [80.20159352478572, 13.036295261548064]}}, {"type": "Feature", "properties": {"route_name": "70C", "stop_id": "hhrNEaMZ", "name": "Data Udupi Hotel", "city": "CHENNAI"}, "geometry": {"type": "Point", "coordinates": [80.19843000687092, 13.036731714994842]}}, {"type": "Feature", "properties": {"route_name": "70C", "stop_id": "tpTDqbZI", "name": "M G R Nagar", "city": "CHENNAI"}, "geometry": {"type": "Point", "coordinates": [80.19602489857266, 13.037087340738266]}}, {"type": "Feature", "properties": {"route_name": "70C", "stop_id": "SgGmeaHk", "name": "Munusamy Salai", "city": "CHENNAI"}, "geometry": {"type": "Point", "coordinates": [80.19279563690316, 13.03853813085209]}}, {"type": "Feature", "properties": {"route_name": "70C", "stop_id": "EGZEcfNZ", "name": "West Depot K K Nagar", "city": "CHENNAI"}, "geometry": {"type": "Point", "coordinates": [80.19361550181634, 13.044187646031068]}}, {"type": "Feature", "properties": {"route_name": "70C", "stop_id": "NfHwMQdR", "name": "Virugambakkam Saradha Nagar", "city": "CHENNAI"}, "geometry": {"type": "Point", "coordinates": [80.19581012003505, 13.047702791418072]}}, {"type": "Feature", "properties": {"route_name": "70C", "stop_id": "dLUoTBAU", "name": "Kaliyamman Kovil", "city": "CHENNAI"}, "geometry": {"type": "Point", "coordinates": [80.19216691987754, 13.048993440002924]}}, {"type": "Feature", "properties": {"route_name": "70C", "stop_id": "QNScHwgR", "name": "Elango Nagar", "city": "CHENNAI"}, "geometry": {"type": "Point", "coordinates": [80.19207820035422, 13.052747745602574]}}, {"type": "Feature", "properties": {"route_name": "70C", "stop_id": "qnxnYECs", "name": "Natesan Nagar", "city": "CHENNAI"}, "geometry": {"type": "Point", "coordinates": [80.19415542440504, 13.05736161793642]}}, {"type": "Feature", "properties": {"route_name": "70C", "stop_id": "cdpcgPuX", "name": "Sai Nagar", "city": "CHENNAI"}, "geometry": {"type": "Point", "coordinates": [80.19531782791853, 13.059721915643799]}}, {"type": "Feature", "properties": {"route_name": "70C", "stop_id": "RufmISTr", "name": "Chinmaya Nagar", "city": "CHENNAI"}, "geometry": {"type": "Point", "coordinates": [80.19710398, 13.06294068]}}, {"type": "Feature", "properties": {"route_name": "70C", "stop_id": "PywYzQHY", "name": "Koyambedu Market", "city": "CHENNAI"}, "geometry": {"type": "Point", "coordinates": [80.19873037369086, 13.066147066148611]}}, {"type": "Feature", "properties": {"route_name": "70C", "stop_id": "zijvldJJ", "name": "Koyambedu Market Or Police Station", "city": "CHENNAI"}, "geometry": {"type": "Point", "coordinates": [80.20046297, 13.06951082]}}, {"type": "Feature", "properties": {"name": "70C"}, "geometry": {"type": "LineString", "coordinates": [[80.11867, 12.92761], [80.11904, 12.92801], [80.11957, 12.92853], [80.12033, 12.92931], [80.12111, 12.93006], [80.12135, 12.9303], [80.12214, 12.93113], [80.12285, 12.93182], [80.12337, 12.93233], [80.12412, 12.93304], [80.12551, 12.93443], [80.12584, 12.93478], [80.1265, 12.93554], [80.12704, 12.93615], [80.12745, 12.93661], [80.12722, 12.93679], [80.12752, 12.93719], [80.12773, 12.93749], [80.12778, 12.93746], [80.12791, 12.9374], [80.12798, 12.93745], [80.1281, 12.93761], [80.12817, 12.93769], [80.12825, 12.93772], [80.12839, 12.93775], [80.12931, 12.93876], [80.13055, 12.94023], [80.1321, 12.94169], [80.1335, 12.94304], [80.134, 12.94353], [80.13444, 12.944], [80.13451, 12.94409], [80.13475, 12.94441], [80.13629, 12.94636], [80.13672, 12.94694], [80.13744, 12.94796], [80.13828, 12.94912], [80.13877, 12.94976], [80.13942, 12.95054], [80.13964, 12.9508], [80.14014, 12.95145], [80.14063, 12.95207], [80.14072, 12.95216], [80.14124, 12.95282], [80.1415, 12.95323], [80.14169, 12.9536], [80.14217, 12.95452], [80.14316, 12.95644], [80.14339, 12.95686], [80.14381, 12.95761], [80.14407, 12.95813], [80.14455, 12.95899], [80.14528, 12.9604], [80.14561, 12.96102], [80.14579, 12.96134], [80.1457, 12.96134], [80.14566, 12.96134], [80.14565, 12.96134], [80.14561, 12.96134], [80.14565, 12.96143], [80.14561, 12.96134], [80.14564, 12.96134], [80.14566, 12.96134], [80.14579, 12.96134], [80.14703, 12.96359], [80.14747, 12.96433], [80.14767, 12.96477], [80.14788, 12.96513], [80.14799, 12.96522], [80.14815, 12.96552], [80.14857, 12.96633], [80.14937, 12.96808], [80.14965, 12.96869], [80.15081, 12.97115], [80.15106, 12.97167], [80.15134, 12.97208], [80.15153, 12.97229], [80.15205, 12.97269], [80.15289, 12.97325], [80.15489, 12.97458], [80.15572, 12.97517], [80.15588, 12.97536], [80.15768, 12.97653], [80.15819, 12.97686], [80.15844, 12.97703], [80.15848, 12.9771], [80.15857, 12.97719], [80.15867, 12.97727], [80.15995, 12.97815], [80.16124, 12.9791], [80.16226, 12.9798], [80.16261, 12.97998], [80.16279, 12.98005], [80.164, 12.98034], [80.16457, 12.98052], [80.16528, 12.98083], [80.16589, 12.98116], [80.16658, 12.98156], [80.16644, 12.9817], [80.16584, 12.98136], [80.16556, 12.98122], [80.16503, 12.981], [80.16485, 12.98089], [80.16472, 12.98081], [80.16444, 12.98069], [80.16348, 12.98045], [80.16328, 12.98039], [80.16273, 12.98016], [80.16288, 12.97983], [80.16254, 12.97968], [80.16211, 12.9794], [80.15985, 12.97783], [80.15854, 12.97695], [80.15738, 12.97622], [80.15688, 12.97587], [80.15592, 12.9752], [80.15327, 12.97339], [80.15219, 12.97267], [80.15183, 12.97241], [80.15154, 12.97214], [80.15142, 12.972], [80.1513, 12.97185], [80.15124, 12.97174], [80.15086, 12.97098], [80.15026, 12.96972], [80.15021, 12.96962], [80.15005, 12.96968], [80.15009, 12.96976], [80.15023, 12.97011], [80.15035, 12.97032], [80.15068, 12.97107], [80.15092, 12.97157], [80.15123, 12.97208], [80.15131, 12.97222], [80.15139, 12.97232], [80.15164, 12.97252], [80.15286, 12.97333], [80.15297, 12.9734], [80.15296, 12.97342], [80.15297, 12.9734], [80.15421, 12.97422], [80.15565, 12.9752], [80.15711, 12.97617], [80.15787, 12.97667], [80.15844, 12.97703], [80.15851, 12.97713], [80.1586, 12.97723], [80.15993, 12.97813], [80.16021, 12.97833], [80.16124, 12.9791], [80.16209, 12.9797], [80.16246, 12.97992], [80.16278, 12.98005], [80.16344, 12.98021], [80.164, 12.98034], [80.16443, 12.98046], [80.16484, 12.98062], [80.16541, 12.98089], [80.16626, 12.98138], [80.16729, 12.98195], [80.16804, 12.98241], [80.16861, 12.98281], [80.17062, 12.98401], [80.17128, 12.98434], [80.17141, 12.98438], [80.17152, 12.98438], [80.17255, 12.98514], [80.17308, 12.98542], [80.17433, 12.98631], [80.17557, 12.98713], [80.17598, 12.98743], [80.17601, 12.98745], [80.17722, 12.98833], [80.17783, 12.98875], [80.17885, 12.98958], [80.18036, 12.99073], [80.18095, 12.99121], [80.18205, 12.99205], [80.18233, 12.99228], [80.18296, 12.9927], [80.1854, 12.99404], [80.18692, 12.99485], [80.18854, 12.99567], [80.1887, 12.99577], [80.18941, 12.99626], [80.18957, 12.99638], [80.18982, 12.99662], [80.19034, 12.99712], [80.19097, 12.99759], [80.19139, 12.99794], [80.19198, 12.99844], [80.19244, 12.99879], [80.19422, 13.00017], [80.19505, 13.00082], [80.19579, 13.00144], [80.19619, 13.00178], [80.19649, 13.00199], [80.19671, 13.00212], [80.19706, 13.00219], [80.19743, 13.00217], [80.19825, 13.00203], [80.19894, 13.00188], [80.19929, 13.00183], [80.19963, 13.00187], [80.19992, 13.00197], [80.20014, 13.0021], [80.20033, 13.00229], [80.20046, 13.00248], [80.20052, 13.00261], [80.20071, 13.00325], [80.20087, 13.00394], [80.20097, 13.00432], [80.20112, 13.00476], [80.20124, 13.00502], [80.20147, 13.00527], [80.20169, 13.00552], [80.20192, 13.0057], [80.20216, 13.00585], [80.20245, 13.00599], [80.20269, 13.00613], [80.2029, 13.00633], [80.20313, 13.0066], [80.20334, 13.00692], [80.20347, 13.00718], [80.20357, 13.00749], [80.20365, 13.00786], [80.20366, 13.00816], [80.20361, 13.00888], [80.20356, 13.00987], [80.20356, 13.01038], [80.20358, 13.01085], [80.20368, 13.01174], [80.20387, 13.01259], [80.20391, 13.01289], [80.20395, 13.01304], [80.2042, 13.01379], [80.2045, 13.01456], [80.20442, 13.01462], [80.20438, 13.01466], [80.20452, 13.01464], [80.2046, 13.01498], [80.2058, 13.01835], [80.20583, 13.01842], [80.20606, 13.01908], [80.20609, 13.0192], [80.20618, 13.01958], [80.20622, 13.01987], [80.20625, 13.02166], [80.20634, 13.02252], [80.20657, 13.02375], [80.20669, 13.02428], [80.20692, 13.0252], [80.20702, 13.02559], [80.20708, 13.02574], [80.20722, 13.02604], [80.20761, 13.02672], [80.208, 13.02737], [80.20822, 13.02774], [80.20836, 13.02806], [80.20859, 13.02875], [80.20872, 13.02925], [80.2094, 13.03162], [80.20956, 13.03222], [80.20962, 13.03253], [80.20971, 13.03326], [80.20979, 13.03384], [80.20987, 13.03407], [80.20996, 13.0345], [80.21003, 13.03485], [80.20996, 13.03504], [80.20994, 13.03508], [80.20987, 13.03512], [80.2092, 13.03522], [80.20865, 13.03531], [80.2056, 13.03575], [80.20431, 13.03594], [80.20411, 13.03599], [80.20344, 13.03608], [80.20257, 13.0362], [80.2016, 13.03635], [80.19844, 13.03681], [80.19764, 13.03693], [80.19652, 13.0371], [80.19604, 13.03718], [80.19494, 13.03734], [80.19313, 13.03757], [80.19294, 13.03761], [80.19289, 13.03763], [80.19279, 13.03774], [80.19277, 13.03781], [80.19274, 13.03796], [80.19279, 13.03808], [80.19282, 13.03835], [80.19285, 13.03853], [80.19294, 13.03928], [80.19312, 13.04041], [80.1933, 13.04137], [80.19339, 13.04188], [80.19348, 13.04276], [80.19365, 13.04403], [80.19367, 13.04418], [80.19371, 13.04445], [80.19342, 13.04449], [80.19313, 13.04453], [80.19285, 13.04456], [80.19282, 13.0452], [80.19275, 13.04581], [80.19268, 13.04593], [80.19262, 13.04606], [80.19259, 13.0462], [80.19256, 13.0464], [80.19256, 13.04658], [80.1926, 13.04665], [80.19352, 13.04671], [80.19381, 13.04674], [80.19404, 13.04681], [80.19413, 13.04686], [80.19438, 13.04703], [80.19484, 13.04736], [80.19494, 13.04742], [80.1951, 13.04746], [80.19522, 13.04748], [80.1956, 13.04746], [80.19588, 13.04747], [80.19585, 13.04771], [80.19574, 13.04867], [80.19557, 13.0487], [80.19522, 13.04876], [80.19447, 13.04894], [80.19389, 13.04907], [80.19322, 13.04909], [80.19216, 13.04903], [80.19214, 13.04899], [80.19213, 13.04919], [80.19206, 13.04968], [80.19205, 13.05063], [80.19202, 13.05075], [80.19204, 13.05202], [80.19207, 13.05241], [80.19208, 13.05258], [80.19212, 13.05264], [80.19213, 13.05275], [80.1922, 13.05322], [80.19314, 13.05521], [80.19342, 13.05577], [80.19342, 13.05583], [80.19391, 13.05684], [80.19416, 13.05736], [80.19417, 13.05738], [80.19534, 13.05971], [80.19603, 13.06099], [80.19703, 13.06302], [80.1971, 13.06292], [80.19704, 13.06294], [80.19708, 13.06302], [80.19712, 13.06311], [80.19724, 13.06335], [80.19772, 13.06426], [80.19804, 13.06485], [80.19862, 13.06596], [80.19871, 13.06616], [80.19958, 13.06782], [80.20026, 13.0691], [80.20047, 13.0695]]}}]}