{"type": "FeatureCollection", "features": [{"type": "Feature", "properties": {"route_name": "147CCT", "stop_id": "BMprcpdo", "name": "Ambattur Industrial Estate", "city": "CHENNAI"}, "geometry": {"type": "Point", "coordinates": [80.170222271586, 13.09947785467876]}}, {"type": "Feature", "properties": {"route_name": "147CCT", "stop_id": "OVaoEscJ", "name": "Mogaipair Road Junction", "city": "CHENNAI"}, "geometry": {"type": "Point", "coordinates": [80.16959482134996, 13.089171791638119]}}, {"type": "Feature", "properties": {"route_name": "147CCT", "stop_id": "pKTlpooZ", "name": "Wavin", "city": "CHENNAI"}, "geometry": {"type": "Point", "coordinates": [80.17188356687484, 13.088632157632475]}}, {"type": "Feature", "properties": {"route_name": "147CCT", "stop_id": "voXQjjKh", "name": "Golden Flats", "city": "CHENNAI"}, "geometry": {"type": "Point", "coordinates": [80.17839382, 13.08834394]}}, {"type": "Feature", "properties": {"route_name": "147CCT", "stop_id": "FYonLsVT", "name": "T S Krishna Nagar", "city": "CHENNAI"}, "geometry": {"type": "Point", "coordinates": [80.18378983, 13.08811083]}}, {"type": "Feature", "properties": {"route_name": "147CCT", "stop_id": "XCZfXGna", "name": "Collector Nagar", "city": "CHENNAI"}, "geometry": {"type": "Point", "coordinates": [80.18893033, 13.08788421]}}, {"type": "Feature", "properties": {"route_name": "147CCT", "stop_id": "PIUpvPaY", "name": "Thirumangalam EB Office", "city": "CHENNAI"}, "geometry": {"type": "Point", "coordinates": [80.19756840067225, 13.087322925887744]}}, {"type": "Feature", "properties": {"route_name": "147CCT", "stop_id": "GtaXwPrK", "name": "12th Main Road", "city": "CHENNAI"}, "geometry": {"type": "Point", "coordinates": [80.20464566132978, 13.085243349131467]}}, {"type": "Feature", "properties": {"route_name": "147CCT", "stop_id": "uSZbdBno", "name": "Blue Star", "city": "CHENNAI"}, "geometry": {"type": "Point", "coordinates": [80.21156534, 13.08502072]}}, {"type": "Feature", "properties": {"route_name": "147CCT", "stop_id": "VJibZvbS", "name": "Anna Nagar Roundtana", "city": "CHENNAI"}, "geometry": {"type": "Point", "coordinates": [80.21696497499067, 13.0847518506962]}}, {"type": "Feature", "properties": {"route_name": "147CCT", "stop_id": "udNzSSji", "name": "Aminjikarai Police Station", "city": "CHENNAI"}, "geometry": {"type": "Point", "coordinates": [80.2179693339283, 13.08180486086174]}}, {"type": "Feature", "properties": {"route_name": "147CCT", "stop_id": "DyPueDjA", "name": "Anna Arch", "city": "CHENNAI"}, "geometry": {"type": "Point", "coordinates": [80.2181895315091, 13.076340900866498]}}, {"type": "Feature", "properties": {"route_name": "147CCT", "stop_id": "JYrrjUtU", "name": "Ampa Skywalk Or Arun Hotel", "city": "CHENNAI"}, "geometry": {"type": "Point", "coordinates": [80.21935264284002, 13.074896691769649]}}, {"type": "Feature", "properties": {"route_name": "147CCT", "stop_id": "WSTcrrBn", "name": "Metha Nagar", "city": "CHENNAI"}, "geometry": {"type": "Point", "coordinates": [80.2268507257777, 13.067997313834523]}}, {"type": "Feature", "properties": {"route_name": "147CCT", "stop_id": "QsPOuThV", "name": "Choolaimedu", "city": "CHENNAI"}, "geometry": {"type": "Point", "coordinates": [80.23016317238876, 13.066836140169382]}}, {"type": "Feature", "properties": {"route_name": "147CCT", "stop_id": "fSmTHZJS", "name": "Nungambakkam Railway Station", "city": "CHENNAI"}, "geometry": {"type": "Point", "coordinates": [80.23147319811835, 13.066567447157277]}}, {"type": "Feature", "properties": {"route_name": "147CCT", "stop_id": "CpnDMnJS", "name": "Loyala College", "city": "CHENNAI"}, "geometry": {"type": "Point", "coordinates": [80.23502161030456, 13.064549871758997]}}, {"type": "Feature", "properties": {"route_name": "147CCT", "stop_id": "nrUfCQxz", "name": "Metrological Department Sterling Road", "city": "CHENNAI"}, "geometry": {"type": "Point", "coordinates": [80.24637379204353, 13.067777638778496]}}, {"type": "Feature", "properties": {"route_name": "147CCT", "stop_id": "KMDYeUKg", "name": "Valluvar Kottam", "city": "CHENNAI"}, "geometry": {"type": "Point", "coordinates": [80.24229208102042, 13.053804536042284]}}, {"type": "Feature", "properties": {"route_name": "147CCT", "stop_id": "ZHaurlhr", "name": "Vidyodaya School", "city": "CHENNAI"}, "geometry": {"type": "Point", "coordinates": [80.24124338917619, 13.052220330015716]}}, {"type": "Feature", "properties": {"route_name": "147CCT", "stop_id": "aIerxCRO", "name": "Vidyodaya School Valluvar Kottam", "city": "CHENNAI"}, "geometry": {"type": "Point", "coordinates": [80.24058303355923, 13.050953405529862]}}, {"type": "Feature", "properties": {"route_name": "147CCT", "stop_id": "lxSUNwOi", "name": "Kamarajar Illam", "city": "CHENNAI"}, "geometry": {"type": "Point", "coordinates": [80.23995993832978, 13.047744139310751]}}, {"type": "Feature", "properties": {"route_name": "147CCT", "stop_id": "vrgENeuF", "name": "Viveks And Company", "city": "CHENNAI"}, "geometry": {"type": "Point", "coordinates": [80.23308164, 13.04724859]}}, {"type": "Feature", "properties": {"route_name": "147CCT", "stop_id": "eTJQHplR", "name": "Thiyagaraya Nagar Bus Depot", "city": "CHENNAI"}, "geometry": {"type": "Point", "coordinates": [80.23005108, 13.03449501]}}, {"type": "Feature", "properties": {"name": "147CCT"}, "geometry": {"type": "LineString", "coordinates": [[80.17019, 13.09948], [80.16993, 13.09478], [80.16989, 13.09469], [80.16986, 13.09424], [80.16975, 13.09269], [80.16964, 13.09095], [80.16955, 13.08917], [80.16953, 13.08873], [80.17037, 13.08867], [80.17153, 13.08858], [80.17188, 13.08857], [80.17379, 13.08846], [80.17415, 13.08846], [80.17432, 13.08848], [80.17586, 13.08839], [80.17722, 13.0883], [80.17839, 13.08828], [80.18052, 13.08825], [80.18244, 13.08815], [80.18379, 13.08809], [80.18487, 13.08806], [80.18531, 13.08803], [80.18633, 13.08801], [80.18756, 13.08792], [80.18893, 13.08786], [80.18933, 13.08783], [80.19027, 13.08773], [80.19112, 13.08761], [80.19281, 13.08743], [80.19408, 13.08738], [80.19669, 13.08732], [80.19757, 13.08729], [80.19845, 13.08727], [80.19868, 13.08726], [80.19867, 13.08712], [80.19864, 13.08582], [80.19865, 13.08543], [80.19888, 13.08542], [80.19946, 13.08541], [80.2013, 13.08534], [80.20464, 13.08521], [80.20684, 13.08513], [80.20834, 13.08508], [80.21156, 13.08495], [80.21696, 13.08474], [80.21765, 13.08471], [80.21777, 13.08472], [80.2178, 13.08475], [80.21787, 13.08478], [80.21795, 13.08478], [80.21803, 13.08473], [80.21806, 13.08466], [80.21805, 13.08457], [80.218, 13.0845], [80.2179, 13.08225], [80.21788, 13.08181], [80.21781, 13.08048], [80.2178, 13.07988], [80.21781, 13.0785], [80.21783, 13.07833], [80.21798, 13.07761], [80.21806, 13.07729], [80.2181, 13.07698], [80.21811, 13.07651], [80.21809, 13.07635], [80.21807, 13.07581], [80.21807, 13.0754], [80.21811, 13.07529], [80.21819, 13.07519], [80.21836, 13.0751], [80.21849, 13.07505], [80.21935, 13.0749], [80.22021, 13.07475], [80.22068, 13.07465], [80.2212, 13.0746], [80.22228, 13.07443], [80.22256, 13.07438], [80.22265, 13.07432], [80.22271, 13.07427], [80.22348, 13.07419], [80.22479, 13.07407], [80.22562, 13.07398], [80.226, 13.07396], [80.2263, 13.07396], [80.22695, 13.07401], [80.22726, 13.07404], [80.22751, 13.07406], [80.22752, 13.07399], [80.22668, 13.07391], [80.2263, 13.07389], [80.22601, 13.07388], [80.22551, 13.0739], [80.2245, 13.074], [80.22328, 13.07411], [80.22255, 13.07414], [80.22186, 13.07422], [80.22142, 13.07431], [80.22114, 13.07436], [80.22099, 13.07439], [80.22099, 13.07404], [80.22101, 13.0735], [80.22102, 13.07312], [80.22106, 13.07295], [80.22109, 13.07286], [80.22128, 13.07264], [80.2225, 13.07157], [80.22292, 13.07122], [80.2239, 13.07042], [80.22444, 13.06992], [80.22542, 13.06908], [80.22605, 13.06858], [80.22652, 13.06822], [80.22681, 13.06796], [80.22758, 13.06732], [80.22775, 13.06719], [80.22787, 13.06713], [80.2286, 13.06682], [80.22873, 13.06677], [80.22893, 13.06675], [80.22924, 13.06676], [80.23015, 13.06681], [80.23146, 13.06651], [80.23219, 13.0663], [80.23282, 13.0661], [80.23335, 13.06593], [80.23403, 13.06567], [80.23424, 13.06556], [80.2344, 13.06543], [80.2347, 13.06494], [80.23495, 13.06451], [80.23518, 13.06411], [80.23527, 13.064], [80.23532, 13.06397], [80.23548, 13.06395], [80.2357, 13.06406], [80.23619, 13.06431], [80.23657, 13.0645], [80.23715, 13.06476], [80.2377, 13.0649], [80.23797, 13.06495], [80.23876, 13.06508], [80.23995, 13.06525], [80.24184, 13.06557], [80.24284, 13.06572], [80.24302, 13.06576], [80.24321, 13.06582], [80.24356, 13.06597], [80.24368, 13.06607], [80.24387, 13.06614], [80.24451, 13.06624], [80.2448, 13.06631], [80.24523, 13.06637], [80.24547, 13.06639], [80.24565, 13.06645], [80.24582, 13.06655], [80.246, 13.06683], [80.24622, 13.06736], [80.24636, 13.0676], [80.24639, 13.06765], [80.24632, 13.06773], [80.24639, 13.06765], [80.24651, 13.06779], [80.24662, 13.06787], [80.24675, 13.06791], [80.24709, 13.06795], [80.24744, 13.06798], [80.24775, 13.06794], [80.24782, 13.06786], [80.2479, 13.06771], [80.24794, 13.06761], [80.24793, 13.06739], [80.2479, 13.06675], [80.24783, 13.0661], [80.24781, 13.06574], [80.24776, 13.06513], [80.24775, 13.0646], [80.24769, 13.06367], [80.24764, 13.06334], [80.24762, 13.06196], [80.24759, 13.06178], [80.24712, 13.06133], [80.24701, 13.06125], [80.24692, 13.06124], [80.24662, 13.06162], [80.2465, 13.06173], [80.24625, 13.06184], [80.24582, 13.06194], [80.24544, 13.06203], [80.24525, 13.0621], [80.24514, 13.06217], [80.24501, 13.0623], [80.24475, 13.06275], [80.24465, 13.06289], [80.24455, 13.063], [80.24431, 13.0632], [80.24398, 13.06337], [80.24365, 13.06349], [80.24353, 13.0635], [80.24346, 13.06348], [80.24345, 13.06335], [80.24341, 13.06314], [80.24323, 13.0621], [80.24315, 13.06162], [80.24309, 13.0613], [80.24281, 13.06047], [80.24254, 13.05977], [80.24246, 13.05949], [80.24247, 13.05937], [80.2425, 13.05929], [80.2426, 13.05881], [80.24266, 13.05849], [80.24281, 13.05787], [80.24283, 13.05733], [80.24281, 13.05715], [80.24274, 13.05691], [80.24275, 13.05689], [80.24275, 13.05686], [80.24272, 13.05681], [80.24269, 13.0568], [80.24264, 13.05654], [80.24257, 13.05637], [80.24249, 13.05624], [80.24243, 13.05611], [80.24233, 13.05582], [80.24227, 13.05552], [80.2423, 13.05523], [80.24237, 13.05497], [80.24241, 13.05473], [80.24241, 13.05459], [80.24238, 13.05432], [80.24232, 13.05399], [80.24225, 13.05382], [80.24185, 13.05289], [80.24175, 13.05264], [80.24177, 13.05253], [80.24153, 13.05248], [80.24142, 13.05234], [80.24123, 13.05225], [80.24079, 13.05202], [80.24054, 13.05096], [80.24018, 13.04922], [80.2399, 13.04776], [80.23974, 13.04708], [80.23967, 13.04675], [80.23959, 13.04626], [80.23825, 13.04651], [80.23689, 13.04681], [80.23601, 13.04697], [80.23571, 13.04703], [80.23504, 13.04714], [80.23368, 13.0473], [80.23306, 13.04741], [80.23303, 13.04726], [80.23284, 13.04613], [80.2327, 13.04541], [80.23249, 13.04436], [80.23243, 13.04419], [80.23242, 13.0441], [80.23237, 13.04365], [80.23234, 13.04271], [80.23234, 13.0423], [80.23232, 13.04205], [80.23214, 13.04131], [80.23209, 13.04111], [80.23198, 13.04085], [80.23192, 13.04075], [80.23183, 13.04054], [80.2316, 13.03974], [80.23134, 13.03875], [80.23109, 13.03791], [80.23089, 13.03724], [80.23083, 13.03711], [80.23079, 13.03702], [80.23078, 13.03693], [80.23073, 13.03677], [80.23064, 13.03647], [80.23049, 13.0359], [80.23032, 13.03537], [80.23028, 13.03514], [80.2303, 13.03513], [80.23031, 13.03512], [80.23032, 13.0351], [80.23033, 13.03508], [80.23033, 13.03505], [80.23063, 13.03499], [80.23121, 13.0349], [80.23312, 13.03464], [80.23308, 13.03435], [80.23307, 13.03415], [80.23202, 13.0342], [80.23148, 13.03425], [80.23093, 13.03427], [80.23043, 13.03436], [80.23033, 13.03436], [80.23031, 13.03453]]}}]}