{"type": "FeatureCollection", "features": [{"type": "Feature", "properties": {"route_name": "S17", "stop_id": "QbtiOTIB", "name": "Adyar Gandhi Nagar", "city": "CHENNAI"}, "geometry": {"type": "Point", "coordinates": [80.25515718266682, 13.0094515132286]}}, {"type": "Feature", "properties": {"route_name": "S17", "stop_id": "qyTnLtfJ", "name": "B Ramachandra Adithanar Road", "city": "CHENNAI"}, "geometry": {"type": "Point", "coordinates": [80.2489696144316, 13.00973363921641]}}, {"type": "Feature", "properties": {"route_name": "S17", "stop_id": "DQEyXWxf", "name": "Cancer Hospital", "city": "CHENNAI"}, "geometry": {"type": "Point", "coordinates": [80.24887784691234, 13.010846542527458]}}, {"type": "Feature", "properties": {"route_name": "S17", "stop_id": "ixYnhalc", "name": "Canal Bank Road", "city": "CHENNAI"}, "geometry": {"type": "Point", "coordinates": [80.24862336150719, 13.015223712219061]}}, {"type": "Feature", "properties": {"route_name": "S17", "stop_id": "xocvboNo", "name": "Ponniamman Koil Street", "city": "CHENNAI"}, "geometry": {"type": "Point", "coordinates": [80.24124176199328, 13.017994892434102]}}, {"type": "Feature", "properties": {"route_name": "S17", "stop_id": "NmoBNBiw", "name": "Nandanam Park", "city": "CHENNAI"}, "geometry": {"type": "Point", "coordinates": [80.24484877704003, 13.027617313459015]}}, {"type": "Feature", "properties": {"route_name": "S17", "stop_id": "nZODHKRR", "name": "Fern Hill Apartment", "city": "CHENNAI"}, "geometry": {"type": "Point", "coordinates": [80.24563339519565, 13.029203056133833]}}, {"type": "Feature", "properties": {"route_name": "S17", "stop_id": "HzpUPWzy", "name": "Adyar Gate", "city": "CHENNAI"}, "geometry": {"type": "Point", "coordinates": [80.2493209358878, 13.029064983230814]}}, {"type": "Feature", "properties": {"route_name": "S17", "stop_id": "zMqQmqfw", "name": "Pasumpon Muthuramalingam Devar Road", "city": "CHENNAI"}, "geometry": {"type": "Point", "coordinates": [80.25351129582653, 13.027323193308112]}}, {"type": "Feature", "properties": {"route_name": "S17", "stop_id": "hJykIjrj", "name": "Greenways Road", "city": "CHENNAI"}, "geometry": {"type": "Point", "coordinates": [80.25283462046862, 13.02279252498719]}}, {"type": "Feature", "properties": {"route_name": "S17", "stop_id": "dYDYgVqO", "name": "Kamaraj Salai Bishop Garden", "city": "CHENNAI"}, "geometry": {"type": "Point", "coordinates": [80.2597087610525, 13.019741939024915]}}, {"type": "Feature", "properties": {"route_name": "S17", "stop_id": "ciPtfuOr", "name": "Government Gym", "city": "CHENNAI"}, "geometry": {"type": "Point", "coordinates": [80.25887467976226, 13.023779208406658]}}, {"type": "Feature", "properties": {"route_name": "S17", "stop_id": "yOcANiWG", "name": "Ramakrishna Nagar Thiruvengadam Street", "city": "CHENNAI"}, "geometry": {"type": "Point", "coordinates": [80.2623092981823, 13.023646635887603]}}, {"type": "Feature", "properties": {"route_name": "S17", "stop_id": "WKjBruGN", "name": "Ramakrishna Nagar Mutt Road", "city": "CHENNAI"}, "geometry": {"type": "Point", "coordinates": [80.26546801879537, 13.02562270396734]}}, {"type": "Feature", "properties": {"route_name": "S17", "stop_id": "YmDpkIHQ", "name": "Mandaveli Bus Terminus", "city": "CHENNAI"}, "geometry": {"type": "Point", "coordinates": [80.26575955855947, 13.026600025821914]}}, {"type": "Feature", "properties": {"name": "S17"}, "geometry": {"type": "LineString", "coordinates": [[80.25516, 13.00946], [80.25218, 13.00957], [80.2508, 13.00963], [80.24897, 13.00975], [80.24879, 13.00976], [80.24888, 13.01048], [80.24889, 13.01085], [80.24892, 13.01135], [80.24903, 13.01204], [80.24917, 13.01283], [80.24922, 13.01324], [80.24923, 13.01332], [80.24922, 13.0134], [80.24892, 13.01397], [80.24891, 13.01406], [80.24893, 13.01429], [80.24902, 13.01475], [80.24901, 13.0149], [80.24895, 13.01507], [80.24885, 13.01516], [80.24863, 13.01524], [80.24842, 13.01527], [80.24799, 13.01531], [80.24693, 13.01559], [80.24612, 13.0158], [80.24604, 13.01583], [80.24559, 13.0159], [80.24485, 13.01601], [80.24444, 13.01609], [80.24418, 13.01621], [80.24376, 13.01648], [80.24308, 13.01683], [80.24256, 13.01707], [80.24246, 13.01714], [80.24238, 13.01721], [80.24182, 13.01769], [80.24125, 13.01801], [80.24105, 13.01812], [80.24132, 13.01892], [80.24168, 13.02008], [80.24253, 13.02262], [80.24274, 13.02334], [80.24293, 13.02387], [80.24324, 13.02482], [80.24368, 13.02616], [80.24406, 13.02715], [80.24416, 13.02728], [80.24428, 13.02737], [80.24445, 13.02745], [80.24487, 13.02757], [80.24521, 13.02766], [80.24536, 13.02774], [80.24545, 13.02785], [80.24551, 13.02796], [80.24561, 13.02871], [80.24565, 13.0292], [80.24567, 13.02953], [80.24567, 13.02962], [80.24571, 13.02961], [80.24592, 13.0296], [80.24619, 13.02958], [80.24758, 13.02936], [80.24779, 13.02934], [80.24837, 13.02924], [80.24903, 13.02908], [80.24931, 13.02901], [80.24961, 13.02892], [80.24978, 13.02884], [80.25012, 13.02925], [80.25029, 13.0292], [80.2509, 13.02909], [80.25107, 13.02907], [80.25141, 13.02905], [80.25163, 13.02904], [80.2522, 13.02907], [80.25287, 13.0291], [80.25356, 13.02912], [80.25398, 13.02912], [80.25392, 13.02858], [80.25382, 13.02758], [80.25379, 13.02726], [80.25351, 13.02731], [80.25378, 13.02725], [80.25358, 13.02664], [80.25317, 13.02573], [80.25277, 13.02487], [80.25276, 13.02396], [80.25282, 13.02289], [80.25282, 13.02279], [80.25283, 13.02226], [80.25292, 13.02162], [80.25298, 13.02101], [80.25302, 13.0208], [80.25309, 13.02062], [80.25324, 13.02048], [80.25335, 13.02043], [80.25368, 13.02034], [80.25423, 13.02021], [80.25476, 13.02004], [80.25521, 13.01983], [80.2556, 13.01966], [80.25647, 13.01922], [80.2571, 13.01891], [80.25754, 13.01872], [80.25775, 13.01867], [80.25814, 13.01862], [80.25843, 13.01864], [80.25945, 13.01864], [80.25992, 13.01866], [80.25976, 13.01969], [80.25974, 13.01975], [80.25963, 13.02021], [80.2595, 13.02091], [80.25934, 13.02173], [80.2592, 13.02231], [80.2587, 13.02351], [80.25883, 13.02359], [80.2589, 13.02377], [80.25883, 13.02359], [80.25885, 13.02358], [80.26019, 13.02317], [80.26115, 13.02292], [80.26222, 13.02265], [80.26238, 13.02313], [80.2625, 13.02356], [80.26248, 13.02356], [80.2623, 13.02362], [80.2625, 13.02356], [80.26273, 13.02431], [80.26278, 13.02447], [80.26397, 13.02424], [80.2644, 13.02418], [80.26445, 13.02425], [80.26479, 13.02471], [80.26493, 13.0249], [80.26537, 13.02543], [80.26549, 13.02561], [80.26585, 13.0263], [80.26584, 13.02631], [80.26509, 13.02642], [80.26448, 13.02652], [80.26336, 13.02666], [80.26359, 13.02774], [80.26375, 13.02842], [80.26395, 13.02892], [80.26407, 13.02941], [80.26441, 13.0294], [80.26468, 13.02935], [80.26503, 13.02935], [80.26564, 13.0293], [80.26641, 13.02922], [80.26622, 13.02808], [80.26608, 13.0271], [80.26597, 13.02655]]}}]}