{"type": "FeatureCollection", "features": [{"type": "Feature", "properties": {"route_name": "6D", "stop_id": "CLjYTiBy", "name": "Thangal Toll Gate", "city": "CHENNAI"}, "geometry": {"type": "Point", "coordinates": [80.29689126927576, 13.144352706302309]}}, {"type": "Feature", "properties": {"route_name": "6D", "stop_id": "fumBmOZX", "name": "Cross Road Toll Gate", "city": "CHENNAI"}, "geometry": {"type": "Point", "coordinates": [80.29482550646571, 13.139217181363312]}}, {"type": "Feature", "properties": {"route_name": "6D", "stop_id": "ogrZorIF", "name": "Lakshmi Amman Koil", "city": "CHENNAI"}, "geometry": {"type": "Point", "coordinates": [80.29343126795857, 13.135340086182275]}}, {"type": "Feature", "properties": {"route_name": "6D", "stop_id": "CEyhPnMH", "name": "Tondiarpet Bus Depot", "city": "CHENNAI"}, "geometry": {"type": "Point", "coordinates": [80.29208738102113, 13.131910327030617]}}, {"type": "Feature", "properties": {"route_name": "6D", "stop_id": "OQRQrPoA", "name": "Apollo Or Cholera Hospital", "city": "CHENNAI"}, "geometry": {"type": "Point", "coordinates": [80.29087730573065, 13.128661388412247]}}, {"type": "Feature", "properties": {"route_name": "6D", "stop_id": "RVyaKvKa", "name": "Agasthiya Theatre", "city": "CHENNAI"}, "geometry": {"type": "Point", "coordinates": [80.28836205739924, 13.123927381720813]}}, {"type": "Feature", "properties": {"route_name": "6D", "stop_id": "CmbQeSBI", "name": "Mani Koondu", "city": "CHENNAI"}, "geometry": {"type": "Point", "coordinates": [80.28702919787645, 13.122259349241517]}}, {"type": "Feature", "properties": {"route_name": "6D", "stop_id": "LmhVzFNJ", "name": "Maharani Post Office", "city": "CHENNAI"}, "geometry": {"type": "Point", "coordinates": [80.28580510489724, 13.11974551696598]}}, {"type": "Feature", "properties": {"route_name": "6D", "stop_id": "gVtshwcF", "name": "Theagaraya College", "city": "CHENNAI"}, "geometry": {"type": "Point", "coordinates": [80.28435272991555, 13.117359913003527]}}, {"type": "Feature", "properties": {"route_name": "6D", "stop_id": "FVWAEAei", "name": "Pandian Theatre", "city": "CHENNAI"}, "geometry": {"type": "Point", "coordinates": [80.28174422310758, 13.11266090372307]}}, {"type": "Feature", "properties": {"route_name": "6D", "stop_id": "HzfEGNJu", "name": "R S R M Hospital", "city": "CHENNAI"}, "geometry": {"type": "Point", "coordinates": [80.28798887737162, 13.108748261927161]}}, {"type": "Feature", "properties": {"route_name": "6D", "stop_id": "NrpQUbAl", "name": "Royapuram", "city": "CHENNAI"}, "geometry": {"type": "Point", "coordinates": [80.29275892010526, 13.10616748895192]}}, {"type": "Feature", "properties": {"route_name": "6D", "stop_id": "udlIzhJE", "name": "Clive Battery", "city": "CHENNAI"}, "geometry": {"type": "Point", "coordinates": [80.29398430861647, 13.099302796304345]}}, {"type": "Feature", "properties": {"route_name": "6D", "stop_id": "OsBkWRQx", "name": "Beach Station", "city": "CHENNAI"}, "geometry": {"type": "Point", "coordinates": [80.29227074, 13.09407689]}}, {"type": "Feature", "properties": {"route_name": "6D", "stop_id": "TsaeiIGv", "name": "Parrys Corner", "city": "CHENNAI"}, "geometry": {"type": "Point", "coordinates": [80.29078394, 13.08959104]}}, {"type": "Feature", "properties": {"route_name": "6D", "stop_id": "mgTKojDA", "name": "R B I Parrys", "city": "CHENNAI"}, "geometry": {"type": "Point", "coordinates": [80.28905157224426, 13.082350645378275]}}, {"type": "Feature", "properties": {"route_name": "6D", "stop_id": "drmArhka", "name": "Secretariat", "city": "CHENNAI"}, "geometry": {"type": "Point", "coordinates": [80.2882536161967, 13.080017061759227]}}, {"type": "Feature", "properties": {"route_name": "6D", "stop_id": "XypZkLUe", "name": "War Memorial", "city": "CHENNAI"}, "geometry": {"type": "Point", "coordinates": [80.28624846239313, 13.07420323763123]}}, {"type": "Feature", "properties": {"route_name": "6D", "stop_id": "gaLZwYvS", "name": "Anna Square", "city": "CHENNAI"}, "geometry": {"type": "Point", "coordinates": [80.2844001598744, 13.066389593658073]}}, {"type": "Feature", "properties": {"route_name": "6D", "stop_id": "qFzqwYZZ", "name": "Marina Beach", "city": "CHENNAI"}, "geometry": {"type": "Point", "coordinates": [80.28288684342965, 13.061290568408975]}}, {"type": "Feature", "properties": {"route_name": "6D", "stop_id": "MBTcSIip", "name": "Kannagi Statue Or Presidency College", "city": "CHENNAI"}, "geometry": {"type": "Point", "coordinates": [80.28195436114925, 13.056792205024193]}}, {"type": "Feature", "properties": {"route_name": "6D", "stop_id": "ppabfQGz", "name": "Swami Vivekananda House", "city": "CHENNAI"}, "geometry": {"type": "Point", "coordinates": [80.28088296237695, 13.050370120124452]}}, {"type": "Feature", "properties": {"route_name": "6D", "stop_id": "dwUntJQR", "name": "All India Radio Light House", "city": "CHENNAI"}, "geometry": {"type": "Point", "coordinates": [80.27894131876349, 13.039154522580086]}}, {"type": "Feature", "properties": {"route_name": "6D", "stop_id": "TiulEaYs", "name": "Santhome Church", "city": "CHENNAI"}, "geometry": {"type": "Point", "coordinates": [80.2774624579256, 13.032885837058279]}}, {"type": "Feature", "properties": {"route_name": "6D", "stop_id": "FliRNcXy", "name": "Foreshore Estate MTC Bus Stop", "city": "CHENNAI"}, "geometry": {"type": "Point", "coordinates": [80.27514893471368, 13.025729489284215]}}, {"type": "Feature", "properties": {"route_name": "6D", "stop_id": "LfENZYTF", "name": "MRC Nagar", "city": "CHENNAI"}, "geometry": {"type": "Point", "coordinates": [80.27014953609182, 13.021067011511494]}}, {"type": "Feature", "properties": {"route_name": "6D", "stop_id": "TNZDhyQb", "name": "Music College Annamalai Puram", "city": "CHENNAI"}, "geometry": {"type": "Point", "coordinates": [80.26311582111498, 13.018887145534313]}}, {"type": "Feature", "properties": {"route_name": "6D", "stop_id": "aFlzccOO", "name": "M G R Janaki College Or Sathya Studio", "city": "CHENNAI"}, "geometry": {"type": "Point", "coordinates": [80.25973426091605, 13.015961227103665]}}, {"type": "Feature", "properties": {"route_name": "6D", "stop_id": "yHDouIXe", "name": "Arunachalapuram", "city": "CHENNAI"}, "geometry": {"type": "Point", "coordinates": [80.25921690253733, 13.008766071839046]}}, {"type": "Feature", "properties": {"route_name": "6D", "stop_id": "ZBegLuFw", "name": "Avvai Home", "city": "CHENNAI"}, "geometry": {"type": "Point", "coordinates": [80.26167830785198, 13.007591200125432]}}, {"type": "Feature", "properties": {"route_name": "6D", "stop_id": "fQIJDuOA", "name": "Olcott Memorial Higher Secondary School", "city": "CHENNAI"}, "geometry": {"type": "Point", "coordinates": [80.2687897434522, 13.003227752465568]}}, {"type": "Feature", "properties": {"route_name": "6D", "stop_id": "OajDKDnO", "name": "Besant Nagar Water Tank", "city": "CHENNAI"}, "geometry": {"type": "Point", "coordinates": [80.26683877802452, 13.000268068759492]}}, {"type": "Feature", "properties": {"route_name": "6D", "stop_id": "jIFrASnh", "name": "Besant Nagar", "city": "CHENNAI"}, "geometry": {"type": "Point", "coordinates": [80.26740719837755, 12.995712618141628]}}, {"type": "Feature", "properties": {"route_name": "6D", "stop_id": "LoadLeSC", "name": "Vannandurai", "city": "CHENNAI"}, "geometry": {"type": "Point", "coordinates": [80.26273537788802, 12.99620724839615]}}, {"type": "Feature", "properties": {"route_name": "6D", "stop_id": "VnwdBPma", "name": "Adyar Depot", "city": "CHENNAI"}, "geometry": {"type": "Point", "coordinates": [80.25607183862542, 12.99690971560499]}}, {"type": "Feature", "properties": {"route_name": "6D", "stop_id": "jQaLNViL", "name": "Jayanthi Theatre", "city": "CHENNAI"}, "geometry": {"type": "Point", "coordinates": [80.25601093652699, 12.988915432282013]}}, {"type": "Feature", "properties": {"route_name": "6D", "stop_id": "gyQqEnFq", "name": "Thiruvanmiyur Depot", "city": "CHENNAI"}, "geometry": {"type": "Point", "coordinates": [80.2592892551454, 12.98684992620367]}}, {"type": "Feature", "properties": {"name": "6D"}, "geometry": {"type": "LineString", "coordinates": [[80.29687, 13.14436], [80.2967, 13.14391], [80.29643, 13.14334], [80.29622, 13.14281], [80.29598, 13.14221], [80.29557, 13.14121], [80.29544, 13.14087], [80.29484, 13.1393], [80.29481, 13.13922], [80.29446, 13.13834], [80.29407, 13.13719], [80.29379, 13.13655], [80.29364, 13.13617], [80.29355, 13.13577], [80.2934, 13.13535], [80.29286, 13.13391], [80.29276, 13.13374], [80.29273, 13.13359], [80.29208, 13.13191], [80.29161, 13.13067], [80.29112, 13.12946], [80.2908, 13.12869], [80.29047, 13.12796], [80.28951, 13.12605], [80.28889, 13.12486], [80.28873, 13.12457], [80.28856, 13.12436], [80.2885, 13.12426], [80.28843, 13.12406], [80.28834, 13.12395], [80.28856, 13.12422], [80.28851, 13.12392], [80.2885, 13.12387], [80.28834, 13.12346], [80.28829, 13.12335], [80.28787, 13.12347], [80.28779, 13.1234], [80.28761, 13.12334], [80.28755, 13.12327], [80.28742, 13.12305], [80.2871, 13.12248], [80.287, 13.12227], [80.28648, 13.12123], [80.28645, 13.12118], [80.28639, 13.12113], [80.28624, 13.12069], [80.28588, 13.11995], [80.28577, 13.11976], [80.28503, 13.11846], [80.28461, 13.11788], [80.28431, 13.11739], [80.28392, 13.11675], [80.28342, 13.11604], [80.28278, 13.11511], [80.28253, 13.11477], [80.28235, 13.11432], [80.28201, 13.11347], [80.28172, 13.11269], [80.28171, 13.11267], [80.28154, 13.11211], [80.28148, 13.11174], [80.28148, 13.11152], [80.28146, 13.11129], [80.28138, 13.11093], [80.28134, 13.11079], [80.28127, 13.11058], [80.28126, 13.11048], [80.28193, 13.11032], [80.28301, 13.11004], [80.28376, 13.10982], [80.28403, 13.10976], [80.2843, 13.10967], [80.28468, 13.10957], [80.28562, 13.10934], [80.28675, 13.10904], [80.28779, 13.10873], [80.28797, 13.10868], [80.28868, 13.10848], [80.28956, 13.10825], [80.28992, 13.10821], [80.29039, 13.10809], [80.29139, 13.10796], [80.2915, 13.10794], [80.29144, 13.10767], [80.29133, 13.10705], [80.2912, 13.10639], [80.29121, 13.10633], [80.29127, 13.10618], [80.29138, 13.1061], [80.29159, 13.10605], [80.29206, 13.10601], [80.29257, 13.10612], [80.29276, 13.10612], [80.29298, 13.1061], [80.29309, 13.10605], [80.2942, 13.10568], [80.29463, 13.10553], [80.29491, 13.1054], [80.29508, 13.1053], [80.29519, 13.1052], [80.29526, 13.10511], [80.2953, 13.10502], [80.29533, 13.10487], [80.29534, 13.10476], [80.29531, 13.10456], [80.29518, 13.10417], [80.29492, 13.10341], [80.29479, 13.10292], [80.29467, 13.10236], [80.29439, 13.10122], [80.29418, 13.10013], [80.29405, 13.09966], [80.29394, 13.09931], [80.29373, 13.09859], [80.29332, 13.09735], [80.29285, 13.096], [80.29267, 13.09546], [80.29258, 13.0951], [80.29224, 13.09409], [80.29161, 13.09214], [80.29083, 13.08977], [80.29076, 13.0896], [80.29043, 13.08878], [80.28997, 13.08781], [80.2898, 13.08751], [80.28975, 13.08738], [80.28943, 13.08632], [80.2893, 13.08561], [80.28919, 13.08506], [80.28916, 13.08472], [80.2892, 13.08374], [80.2892, 13.08308], [80.28913, 13.08286], [80.28892, 13.08241], [80.28891, 13.0824], [80.28881, 13.08218], [80.28871, 13.08185], [80.28861, 13.08162], [80.2885, 13.08127], [80.28842, 13.081], [80.28835, 13.0808], [80.28824, 13.08045], [80.28816, 13.08019], [80.28822, 13.08008], [80.28828, 13.08001], [80.28843, 13.08057], [80.28847, 13.08062], [80.28859, 13.0806], [80.28869, 13.08057], [80.28869, 13.08059], [80.28865, 13.08067], [80.28861, 13.08072], [80.28835, 13.08078], [80.28819, 13.08026], [80.28812, 13.07992], [80.28804, 13.07941], [80.28788, 13.079], [80.28776, 13.07876], [80.28746, 13.07766], [80.28705, 13.07606], [80.28699, 13.07582], [80.28688, 13.07558], [80.2863, 13.07458], [80.28618, 13.07435], [80.28614, 13.07424], [80.28605, 13.07401], [80.28599, 13.07383], [80.28599, 13.07379], [80.28601, 13.0737], [80.28602, 13.07361], [80.28602, 13.07348], [80.28592, 13.07329], [80.28561, 13.07279], [80.2855, 13.07255], [80.28542, 13.07232], [80.28513, 13.07124], [80.28469, 13.0695], [80.28436, 13.06811], [80.28436, 13.06805], [80.28433, 13.06771], [80.28428, 13.06741], [80.2844, 13.06702], [80.2844, 13.06681], [80.28438, 13.06666], [80.28431, 13.06642], [80.28423, 13.06628], [80.28399, 13.06613], [80.28348, 13.06412], [80.2834, 13.06401], [80.28335, 13.06379], [80.28328, 13.06344], [80.28299, 13.06206], [80.28283, 13.0613], [80.28262, 13.06043], [80.28235, 13.05909], [80.28211, 13.05789], [80.2819, 13.0568], [80.28141, 13.05448], [80.28119, 13.05325], [80.28083, 13.05107], [80.28074, 13.05039], [80.27995, 13.04482], [80.27997, 13.04473], [80.27992, 13.04434], [80.27974, 13.04344], [80.27975, 13.04343], [80.27977, 13.04341], [80.27978, 13.04339], [80.27979, 13.04335], [80.27976, 13.04326], [80.27974, 13.04325], [80.27973, 13.04324], [80.27933, 13.04083], [80.27917, 13.04024], [80.27907, 13.03978], [80.2789, 13.03932], [80.27886, 13.03921], [80.27885, 13.03919], [80.27862, 13.03847], [80.27841, 13.03761], [80.27832, 13.03736], [80.27822, 13.03717], [80.27803, 13.03672], [80.27794, 13.03648], [80.2779, 13.03629], [80.27765, 13.03519], [80.27752, 13.03446], [80.27732, 13.03367], [80.27733, 13.03345], [80.27741, 13.03315], [80.27744, 13.03288], [80.27749, 13.03229], [80.27755, 13.03191], [80.27751, 13.0315], [80.27745, 13.03133], [80.27717, 13.03084], [80.27706, 13.03063], [80.27679, 13.03018], [80.27672, 13.02996], [80.27664, 13.02967], [80.2764, 13.02878], [80.27638, 13.02866], [80.27601, 13.02771], [80.27592, 13.02752], [80.27533, 13.02618], [80.27513, 13.02574], [80.27473, 13.0248], [80.27468, 13.0247], [80.27464, 13.02464], [80.27423, 13.02426], [80.27395, 13.02403], [80.27357, 13.02375], [80.27292, 13.02328], [80.27144, 13.02218], [80.27078, 13.02168], [80.2701, 13.02112], [80.27007, 13.0211], [80.26959, 13.02064], [80.26854, 13.01982], [80.26772, 13.01913], [80.26743, 13.01892], [80.26708, 13.01873], [80.26674, 13.01867], [80.26626, 13.01862], [80.26597, 13.01863], [80.26548, 13.01874], [80.26481, 13.01895], [80.26441, 13.01906], [80.26414, 13.01907], [80.26311, 13.01895], [80.26289, 13.01893], [80.26275, 13.01895], [80.26191, 13.01879], [80.2617, 13.01878], [80.26151, 13.01876], [80.26139, 13.01874], [80.26131, 13.0187], [80.2612, 13.01856], [80.261, 13.01826], [80.26044, 13.01741], [80.2599, 13.01656], [80.25962, 13.01609], [80.2596, 13.01605], [80.25951, 13.01587], [80.25936, 13.0154], [80.2593, 13.01493], [80.25928, 13.01438], [80.25923, 13.01277], [80.25921, 13.01163], [80.25918, 13.01079], [80.2592, 13.01075], [80.25924, 13.01066], [80.25926, 13.01059], [80.25928, 13.01042], [80.25925, 13.00967], [80.25919, 13.00877], [80.25914, 13.00828], [80.25924, 13.008], [80.25931, 13.00788], [80.2594, 13.00765], [80.2598, 13.00729], [80.25987, 13.00726], [80.26006, 13.00721], [80.26019, 13.0072], [80.26061, 13.00724], [80.26171, 13.00748], [80.26386, 13.00804], [80.26423, 13.00811], [80.26442, 13.0081], [80.26491, 13.00804], [80.26618, 13.00775], [80.26734, 13.00746], [80.26861, 13.0072], [80.26912, 13.00712], [80.26947, 13.00707], [80.26982, 13.00698], [80.27029, 13.00673], [80.27037, 13.00666], [80.27045, 13.00651], [80.27045, 13.00633], [80.27042, 13.00623], [80.27025, 13.00592], [80.26972, 13.00498], [80.26885, 13.00361], [80.26866, 13.0033], [80.26765, 13.00164], [80.26699, 13.00056], [80.26683, 13.00033], [80.26682, 13.00027], [80.26691, 12.99976], [80.2671, 12.99916], [80.26733, 12.99825], [80.26758, 12.99754], [80.26776, 12.99662], [80.26771, 12.9962], [80.26765, 12.99583], [80.26765, 12.99568], [80.26743, 12.99573], [80.26742, 12.99574], [80.26619, 12.99587], [80.265, 12.99597], [80.26337, 12.99616], [80.26274, 12.99623], [80.261, 12.99642], [80.2582, 12.9967], [80.25768, 12.99676], [80.25671, 12.99693], [80.25662, 12.99691], [80.25646, 12.99691], [80.25607, 12.99693], [80.25586, 12.9969], [80.25585, 12.99669], [80.25586, 12.99646], [80.25587, 12.99621], [80.25588, 12.99602], [80.2559, 12.99583], [80.25589, 12.99512], [80.25596, 12.99446], [80.25598, 12.99389], [80.25608, 12.99279], [80.25607, 12.99217], [80.25604, 12.99155], [80.25606, 12.99116], [80.25603, 12.99063], [80.256, 12.98978], [80.25599, 12.98942], [80.25594, 12.98902], [80.25597, 12.98872], [80.25592, 12.98841], [80.25585, 12.98801], [80.25583, 12.98775], [80.25587, 12.98767], [80.25604, 12.98766], [80.25655, 12.98756], [80.25701, 12.98754], [80.25796, 12.98745], [80.25851, 12.9874], [80.25902, 12.98743], [80.25926, 12.98742], [80.2593, 12.98721]]}}]}