{"type": "FeatureCollection", "features": [{"type": "Feature", "properties": {"route_name": "4", "stop_id": "EkWBPXmr", "name": "Broadway", "city": "CHENNAI"}, "geometry": {"type": "Point", "coordinates": [80.28388983, 13.08820568]}}, {"type": "Feature", "properties": {"route_name": "4", "stop_id": "cGoHBmgo", "name": "High Court", "city": "CHENNAI"}, "geometry": {"type": "Point", "coordinates": [80.28711089091621, 13.088636277043769]}}, {"type": "Feature", "properties": {"route_name": "4", "stop_id": "gBkmsEyR", "name": "Parrys Corner", "city": "CHENNAI"}, "geometry": {"type": "Point", "coordinates": [80.29099080584331, 13.090762751453648]}}, {"type": "Feature", "properties": {"route_name": "4", "stop_id": "ubZrQMid", "name": "Beach Station", "city": "CHENNAI"}, "geometry": {"type": "Point", "coordinates": [80.29223956369128, 13.094517419625104]}}, {"type": "Feature", "properties": {"route_name": "4", "stop_id": "vfdAIPGv", "name": "Clive Battery", "city": "CHENNAI"}, "geometry": {"type": "Point", "coordinates": [80.29406209, 13.10009011]}}, {"type": "Feature", "properties": {"route_name": "4", "stop_id": "nsjiKPCz", "name": "Thambu Chetty Street", "city": "CHENNAI"}, "geometry": {"type": "Point", "coordinates": [80.29076617193198, 13.102620751001288]}}, {"type": "Feature", "properties": {"route_name": "4", "stop_id": "AtcDBGpE", "name": "Royapuram Market", "city": "CHENNAI"}, "geometry": {"type": "Point", "coordinates": [80.29154386770256, 13.108789125032711]}}, {"type": "Feature", "properties": {"route_name": "4", "stop_id": "Oslgxmkx", "name": "Kalmandapam Police Station", "city": "CHENNAI"}, "geometry": {"type": "Point", "coordinates": [80.29257859694428, 13.115708596116924]}}, {"type": "Feature", "properties": {"route_name": "4", "stop_id": "lBopHXdD", "name": "Kasimedu", "city": "CHENNAI"}, "geometry": {"type": "Point", "coordinates": [80.29436694298897, 13.124597618773638]}}, {"type": "Feature", "properties": {"route_name": "4", "stop_id": "DKPrUpnj", "name": "N4 Police Station", "city": "CHENNAI"}, "geometry": {"type": "Point", "coordinates": [80.29714205217965, 13.134418178035466]}}, {"type": "Feature", "properties": {"route_name": "4", "stop_id": "NLDgVASg", "name": "Anna Nagar", "city": "CHENNAI"}, "geometry": {"type": "Point", "coordinates": [80.29846527468192, 13.139831263605902]}}, {"type": "Feature", "properties": {"route_name": "4", "stop_id": "QGNcLOop", "name": "Builders Industry", "city": "CHENNAI"}, "geometry": {"type": "Point", "coordinates": [80.30139877156785, 13.146776591105157]}}, {"type": "Feature", "properties": {"route_name": "4", "stop_id": "EwdOCOAF", "name": "Tiruchanankuppam", "city": "CHENNAI"}, "geometry": {"type": "Point", "coordinates": [80.30256134070862, 13.149247893867155]}}, {"type": "Feature", "properties": {"route_name": "4", "stop_id": "GZZaPhbw", "name": "Ondikuppam", "city": "CHENNAI"}, "geometry": {"type": "Point", "coordinates": [80.30421758218176, 13.154132614739973]}}, {"type": "Feature", "properties": {"route_name": "4", "stop_id": "uPlQduWZ", "name": "Fire Station", "city": "CHENNAI"}, "geometry": {"type": "Point", "coordinates": [80.30472935186708, 13.156217890810849]}}, {"type": "Feature", "properties": {"route_name": "4", "stop_id": "EtAJJbBW", "name": "Apparswamy Kovil", "city": "CHENNAI"}, "geometry": {"type": "Point", "coordinates": [80.30549593577746, 13.158393908761953]}}, {"type": "Feature", "properties": {"route_name": "4", "stop_id": "qezgFtTe", "name": "Theradi Beach Road", "city": "CHENNAI"}, "geometry": {"type": "Point", "coordinates": [80.30586016614507, 13.160229080427131]}}, {"type": "Feature", "properties": {"route_name": "4", "stop_id": "LUpTnILf", "name": "Thiruvottiyur Market Beach Road", "city": "CHENNAI"}, "geometry": {"type": "Point", "coordinates": [80.30628971155318, 13.16272502695802]}}, {"type": "Feature", "properties": {"route_name": "4", "stop_id": "zrJLwXnk", "name": "Masthan Kovil", "city": "CHENNAI"}, "geometry": {"type": "Point", "coordinates": [80.30853717913726, 13.167076287860883]}}, {"type": "Feature", "properties": {"route_name": "4", "stop_id": "xWKOjfGB", "name": "Carborundum Universal", "city": "CHENNAI"}, "geometry": {"type": "Point", "coordinates": [80.31165228525356, 13.172524840503494]}}, {"type": "Feature", "properties": {"route_name": "4", "stop_id": "JjkwBsaR", "name": "MRF Beach Road", "city": "CHENNAI"}, "geometry": {"type": "Point", "coordinates": [80.31331242102829, 13.176878596995765]}}, {"type": "Feature", "properties": {"route_name": "4", "stop_id": "cYHkZUeY", "name": "Ramakrishna Nagar", "city": "CHENNAI"}, "geometry": {"type": "Point", "coordinates": [80.31610779177106, 13.183244795942558]}}, {"type": "Feature", "properties": {"route_name": "4", "stop_id": "LjPncvCg", "name": "Barathiyar Nagar", "city": "CHENNAI"}, "geometry": {"type": "Point", "coordinates": [80.31692955833785, 13.185613639312102]}}, {"type": "Feature", "properties": {"route_name": "4", "stop_id": "ZkIfwknW", "name": "Netaji Nagar", "city": "CHENNAI"}, "geometry": {"type": "Point", "coordinates": [80.31441110331866, 13.188945704240396]}}, {"type": "Feature", "properties": {"route_name": "4", "stop_id": "XBhuaxff", "name": "Icici Bank Ennore", "city": "CHENNAI"}, "geometry": {"type": "Point", "coordinates": [80.31354772432883, 13.192621937298957]}}, {"type": "Feature", "properties": {"route_name": "4", "stop_id": "AwLiWVdI", "name": "Annai Sivakami Nagar Or Barma Nagar", "city": "CHENNAI"}, "geometry": {"type": "Point", "coordinates": [80.31560797521638, 13.198972726021628]}}, {"type": "Feature", "properties": {"route_name": "4", "stop_id": "vGqwislq", "name": "Ernavoor Kuppam", "city": "CHENNAI"}, "geometry": {"type": "Point", "coordinates": [80.31718859897403, 13.202772718185086]}}, {"type": "Feature", "properties": {"route_name": "4", "stop_id": "XNHVHmHa", "name": "EPTS Quarters Or Kathivakkam", "city": "CHENNAI"}, "geometry": {"type": "Point", "coordinates": [80.31915418470271, 13.20342411149513]}}, {"type": "Feature", "properties": {"route_name": "4", "stop_id": "apwTQKga", "name": "Chinna Kuppam Or Ashok Leyland Back Gate", "city": "CHENNAI"}, "geometry": {"type": "Point", "coordinates": [80.32137655392398, 13.20634937452256]}}, {"type": "Feature", "properties": {"route_name": "4", "stop_id": "lBjlyorh", "name": "Periya Kuppam", "city": "CHENNAI"}, "geometry": {"type": "Point", "coordinates": [80.3235450900288, 13.211950542379016]}}, {"type": "Feature", "properties": {"route_name": "4", "stop_id": "GBYHqHQO", "name": "Eid Parry Fertilizer Factory", "city": "CHENNAI"}, "geometry": {"type": "Point", "coordinates": [80.3258853469963, 13.215976222859224]}}, {"type": "Feature", "properties": {"route_name": "4", "stop_id": "dlQGbJav", "name": "Thalan Kuppam", "city": "CHENNAI"}, "geometry": {"type": "Point", "coordinates": [80.32713001, 13.22022356]}}, {"type": "Feature", "properties": {"route_name": "4", "stop_id": "ODNKqRCQ", "name": "kothari", "city": "CHENNAI"}, "geometry": {"type": "Point", "coordinates": [80.32785675826642, 13.222607165983055]}}, {"type": "Feature", "properties": {"route_name": "4", "stop_id": "iPzquFzR", "name": "Thalankuppam Beach Road", "city": "CHENNAI"}, "geometry": {"type": "Point", "coordinates": [80.32779902012112, 13.224840483399001]}}, {"type": "Feature", "properties": {"route_name": "4", "stop_id": "hygBouPP", "name": "Thazhan Kuppam", "city": "CHENNAI"}, "geometry": {"type": "Point", "coordinates": [80.32672787452361, 13.227120403617405]}}, {"type": "Feature", "properties": {"route_name": "4", "stop_id": "NcoWExwJ", "name": "Ulaganathapuram", "city": "CHENNAI"}, "geometry": {"type": "Point", "coordinates": [80.32426818688509, 13.22642300081348]}}, {"type": "Feature", "properties": {"route_name": "4", "stop_id": "jisQZBDs", "name": "V O C Nagar", "city": "CHENNAI"}, "geometry": {"type": "Point", "coordinates": [80.32181754869362, 13.225843292635895]}}, {"type": "Feature", "properties": {"route_name": "4", "stop_id": "exwEUcIO", "name": "Kamaraj Nagar", "city": "CHENNAI"}, "geometry": {"type": "Point", "coordinates": [80.32011889236298, 13.223509715093066]}}, {"type": "Feature", "properties": {"route_name": "4", "stop_id": "XwjzzvVV", "name": "Valluvar Nagar", "city": "CHENNAI"}, "geometry": {"type": "Point", "coordinates": [80.31976589807118, 13.220500846060023]}}, {"type": "Feature", "properties": {"route_name": "4", "stop_id": "WgelRheP", "name": "Ennore Bus Depot", "city": "CHENNAI"}, "geometry": {"type": "Point", "coordinates": [80.32080305787895, 13.214831387415297]}}, {"type": "Feature", "properties": {"name": "4"}, "geometry": {"type": "LineString", "coordinates": [[80.28388, 13.08833], [80.28309, 13.08829], [80.2825, 13.08831], [80.28213, 13.08825], [80.28186, 13.08817], [80.28167, 13.0881], [80.28159, 13.08806], [80.28144, 13.08809], [80.28143, 13.0882], [80.28145, 13.08836], [80.28151, 13.08864], [80.28168, 13.0886], [80.28199, 13.08853], [80.28247, 13.08844], [80.28284, 13.08839], [80.2834, 13.08839], [80.28428, 13.08843], [80.28524, 13.08847], [80.28565, 13.08848], [80.28628, 13.08852], [80.28712, 13.08858], [80.28838, 13.08868], [80.28943, 13.08879], [80.29006, 13.08885], [80.29013, 13.0889], [80.29034, 13.08893], [80.29044, 13.08892], [80.2906, 13.0893], [80.29109, 13.09073], [80.29233, 13.09449], [80.29253, 13.09512], [80.29269, 13.09557], [80.29313, 13.0969], [80.29349, 13.09795], [80.29371, 13.09859], [80.29403, 13.09966], [80.29413, 13.10007], [80.29434, 13.10115], [80.29433, 13.10121], [80.29429, 13.10131], [80.29418, 13.10143], [80.294, 13.10157], [80.29374, 13.1017], [80.29335, 13.10188], [80.292, 13.10226], [80.29162, 13.10234], [80.29115, 13.10249], [80.29078, 13.10266], [80.29066, 13.10271], [80.29068, 13.10289], [80.29078, 13.10331], [80.29087, 13.10384], [80.29094, 13.1044], [80.29093, 13.10488], [80.29097, 13.10528], [80.2911, 13.10586], [80.29132, 13.10704], [80.29147, 13.10797], [80.29159, 13.10858], [80.29163, 13.10877], [80.29194, 13.11079], [80.29208, 13.11183], [80.29222, 13.11269], [80.29234, 13.11339], [80.29247, 13.11423], [80.29252, 13.11446], [80.2926, 13.1151], [80.29265, 13.1157], [80.2927, 13.11607], [80.29283, 13.11679], [80.29298, 13.11758], [80.29339, 13.11968], [80.29361, 13.12076], [80.29371, 13.12117], [80.29411, 13.12293], [80.29447, 13.12458], [80.29454, 13.12496], [80.29461, 13.12518], [80.29477, 13.12582], [80.29493, 13.12641], [80.29542, 13.12805], [80.29599, 13.1301], [80.29625, 13.13099], [80.29653, 13.13203], [80.29681, 13.13309], [80.29705, 13.13378], [80.2972, 13.13438], [80.29714, 13.13439], [80.2972, 13.13438], [80.29724, 13.1345], [80.29736, 13.13484], [80.2975, 13.13535], [80.29767, 13.13607], [80.29807, 13.13782], [80.29802, 13.13784], [80.29826, 13.13869], [80.29821, 13.1387], [80.29821, 13.13875], [80.29825, 13.13892], [80.29845, 13.13983], [80.2985, 13.14001], [80.29864, 13.13999], [80.2989, 13.1409], [80.29927, 13.14226], [80.29958, 13.14324], [80.29979, 13.14393], [80.3, 13.14459], [80.30005, 13.1447], [80.30018, 13.14498], [80.30046, 13.14553], [80.30063, 13.14578], [80.301, 13.14619], [80.30147, 13.14672], [80.30184, 13.14723], [80.30203, 13.14752], [80.30221, 13.14789], [80.30249, 13.14875], [80.30269, 13.14927], [80.30258, 13.14931], [80.30275, 13.14926], [80.3031, 13.15033], [80.30349, 13.15148], [80.30362, 13.1519], [80.30405, 13.15321], [80.30417, 13.15361], [80.3041, 13.15364], [80.30425, 13.15412], [80.30445, 13.15475], [80.30455, 13.15517], [80.30472, 13.15586], [80.30482, 13.15618], [80.30519, 13.15714], [80.30557, 13.15837], [80.30569, 13.1588], [80.30583, 13.15947], [80.30595, 13.16022], [80.30619, 13.16166], [80.30638, 13.16271], [80.30658, 13.16391], [80.30679, 13.16463], [80.30705, 13.1652], [80.30733, 13.16568], [80.30788, 13.16638], [80.30859, 13.16702], [80.30914, 13.16744], [80.30944, 13.16763], [80.30984, 13.16797], [80.31, 13.16813], [80.31038, 13.16863], [80.31058, 13.16895], [80.31073, 13.16926], [80.31084, 13.16953], [80.31146, 13.17149], [80.31164, 13.17206], [80.31171, 13.17239], [80.31174, 13.1725], [80.31189, 13.17291], [80.3121, 13.17348], [80.31276, 13.17548], [80.31293, 13.17589], [80.31314, 13.17631], [80.31345, 13.17693], [80.31328, 13.17698], [80.31325, 13.17691], [80.31328, 13.17698], [80.31345, 13.17693], [80.31351, 13.17691], [80.31366, 13.17727], [80.31379, 13.17768], [80.31397, 13.17827], [80.31415, 13.17881], [80.3146, 13.17977], [80.3149, 13.18047], [80.31497, 13.18064], [80.31516, 13.18101], [80.31568, 13.18201], [80.31616, 13.18308], [80.3162, 13.18321], [80.31623, 13.18326], [80.31642, 13.18372], [80.3165, 13.18398], [80.31667, 13.18422], [80.31682, 13.18464], [80.31697, 13.18516], [80.31701, 13.18543], [80.31702, 13.18557], [80.31692, 13.18559], [80.31702, 13.18557], [80.31702, 13.18573], [80.31699, 13.18596], [80.31685, 13.18647], [80.31674, 13.18671], [80.31658, 13.18695], [80.31637, 13.1872], [80.31596, 13.18759], [80.31501, 13.1885], [80.31453, 13.18896], [80.31448, 13.18901], [80.31415, 13.18935], [80.31398, 13.18954], [80.31378, 13.18984], [80.31353, 13.19038], [80.31348, 13.1906], [80.31344, 13.19088], [80.31342, 13.19118], [80.31343, 13.19146], [80.31362, 13.19257], [80.31363, 13.19261], [80.31391, 13.19397], [80.31405, 13.1947], [80.31412, 13.19507], [80.31422, 13.19542], [80.31451, 13.19619], [80.31485, 13.19697], [80.31541, 13.19826], [80.31571, 13.19893], [80.31582, 13.1992], [80.31593, 13.19963], [80.31597, 13.19985], [80.31597, 13.20012], [80.31609, 13.20087], [80.3163, 13.20146], [80.31639, 13.20166], [80.31666, 13.20216], [80.31684, 13.20233], [80.317, 13.20252], [80.31723, 13.20272], [80.31739, 13.20284], [80.31773, 13.20302], [80.31803, 13.20314], [80.31831, 13.20324], [80.31909, 13.20337], [80.31916, 13.20338], [80.31964, 13.20353], [80.31996, 13.20369], [80.32024, 13.20388], [80.32047, 13.20407], [80.32077, 13.2044], [80.32093, 13.20462], [80.32114, 13.20499], [80.3212, 13.20519], [80.32143, 13.20618], [80.32146, 13.20633], [80.32159, 13.20704], [80.3217, 13.20758], [80.3219, 13.20838], [80.3222, 13.20923], [80.32236, 13.20962], [80.32277, 13.21056], [80.32312, 13.21118], [80.32328, 13.21142], [80.32351, 13.21173], [80.32363, 13.21188], [80.32387, 13.2122], [80.32457, 13.21305], [80.32487, 13.2135], [80.32525, 13.21412], [80.32558, 13.21461], [80.32566, 13.21477], [80.32577, 13.21515], [80.32591, 13.21569], [80.32598, 13.21595], [80.32618, 13.21675], [80.32631, 13.21728], [80.32643, 13.21767], [80.32698, 13.21952], [80.3272, 13.2202], [80.32768, 13.22162], [80.32786, 13.22224], [80.32797, 13.22255], [80.32798, 13.22258], [80.32806, 13.22287], [80.32811, 13.2232], [80.32813, 13.22362], [80.32813, 13.22363], [80.32813, 13.22384], [80.32809, 13.22413], [80.328, 13.22449], [80.32787, 13.22479], [80.32783, 13.22486], [80.32756, 13.22542], [80.32739, 13.22574], [80.32695, 13.22669], [80.32675, 13.22712], [80.32665, 13.22727], [80.32653, 13.22735], [80.32643, 13.22736], [80.32607, 13.22724], [80.32555, 13.22699], [80.3249, 13.22674], [80.32424, 13.22648], [80.32323, 13.2261], [80.32293, 13.22607], [80.3224, 13.22598], [80.32182, 13.22585], [80.32116, 13.22567], [80.32088, 13.22499], [80.32035, 13.22388], [80.32017, 13.22349], [80.32005, 13.22318], [80.31993, 13.22279], [80.31993, 13.22268], [80.31984, 13.22256], [80.31978, 13.22248], [80.31968, 13.22236], [80.31959, 13.22226], [80.31951, 13.22209], [80.31947, 13.22187], [80.31949, 13.22162], [80.31952, 13.22143], [80.3197, 13.22084], [80.31979, 13.2205], [80.31993, 13.2199], [80.31999, 13.21969], [80.32006, 13.2194], [80.32009, 13.21887], [80.3201, 13.21826], [80.32013, 13.21758], [80.32017, 13.21726], [80.32023, 13.21704], [80.32036, 13.21653], [80.32043, 13.2163], [80.32052, 13.21602], [80.32056, 13.21582], [80.32058, 13.21551], [80.32054, 13.21513], [80.32047, 13.21482], [80.32074, 13.21469]]}}]}