{"type": "FeatureCollection", "features": [{"type": "Feature", "properties": {"route_name": "61C", "stop_id": "tUdYLqkf", "name": "Ella Amman Nagar", "city": "CHENNAI"}, "geometry": {"type": "Point", "coordinates": [80.05775372082492, 13.141993677301908]}}, {"type": "Feature", "properties": {"route_name": "61C", "stop_id": "MYMMmWkN", "name": "Ellaiamman Kovil", "city": "CHENNAI"}, "geometry": {"type": "Point", "coordinates": [80.06281769977285, 13.145550018988542]}}, {"type": "Feature", "properties": {"route_name": "61C", "stop_id": "VXqnYnlT", "name": "Muthapudupet", "city": "CHENNAI"}, "geometry": {"type": "Point", "coordinates": [80.06383360205405, 13.145712753449105]}}, {"type": "Feature", "properties": {"route_name": "61C", "stop_id": "ATKbycui", "name": "Mittanamalli", "city": "CHENNAI"}, "geometry": {"type": "Point", "coordinates": [80.06989658760858, 13.146628365670695]}}, {"type": "Feature", "properties": {"route_name": "61C", "stop_id": "JoqesOWP", "name": "Avadi Air Force Main Gate", "city": "CHENNAI"}, "geometry": {"type": "Point", "coordinates": [80.07410109804346, 13.14706996445972]}}, {"type": "Feature", "properties": {"route_name": "61C", "stop_id": "VjSiMBzK", "name": "Mittanamalli Colony", "city": "CHENNAI"}, "geometry": {"type": "Point", "coordinates": [80.07934320786921, 13.150693561018231]}}, {"type": "Feature", "properties": {"route_name": "61C", "stop_id": "FyAVeoLb", "name": "CRPF School Or kuttavaili colony", "city": "CHENNAI"}, "geometry": {"type": "Point", "coordinates": [80.08068541877128, 13.15173799607013]}}, {"type": "Feature", "properties": {"route_name": "61C", "stop_id": "oEaRMYXq", "name": "CRP Cross Road", "city": "CHENNAI"}, "geometry": {"type": "Point", "coordinates": [80.08780468009729, 13.148893219298426]}}, {"type": "Feature", "properties": {"route_name": "61C", "stop_id": "Zysthhei", "name": "Brindavan Nagar", "city": "CHENNAI"}, "geometry": {"type": "Point", "coordinates": [80.08631417518563, 13.146355930655208]}}, {"type": "Feature", "properties": {"route_name": "61C", "stop_id": "TYAIdqeQ", "name": "Thangaya Gate", "city": "CHENNAI"}, "geometry": {"type": "Point", "coordinates": [80.08766420682105, 13.142169776910832]}}, {"type": "Feature", "properties": {"route_name": "61C", "stop_id": "IjFZQfFh", "name": "Adam Gate", "city": "CHENNAI"}, "geometry": {"type": "Point", "coordinates": [80.09094294870442, 13.14103738256461]}}, {"type": "Feature", "properties": {"route_name": "61C", "stop_id": "sCNvhPqY", "name": "Military Hospital Avadi", "city": "CHENNAI"}, "geometry": {"type": "Point", "coordinates": [80.09319416931783, 13.140577233484711]}}, {"type": "Feature", "properties": {"route_name": "61C", "stop_id": "odfRkvUj", "name": "Kalaignar Nagar", "city": "CHENNAI"}, "geometry": {"type": "Point", "coordinates": [80.09667499037027, 13.138095918712501]}}, {"type": "Feature", "properties": {"route_name": "61C", "stop_id": "LpjIkIID", "name": "HVF Main Gate", "city": "CHENNAI"}, "geometry": {"type": "Point", "coordinates": [80.09788583331135, 13.13574739892901]}}, {"type": "Feature", "properties": {"route_name": "61C", "stop_id": "uGkwFELU", "name": "Kovilpadagai Road Junction", "city": "CHENNAI"}, "geometry": {"type": "Point", "coordinates": [80.10317802461554, 13.133162265626716]}}, {"type": "Feature", "properties": {"route_name": "61C", "stop_id": "CVcknAiw", "name": "Bharathiyar Nagar", "city": "CHENNAI"}, "geometry": {"type": "Point", "coordinates": [80.10353704891918, 13.128493156333251]}}, {"type": "Feature", "properties": {"route_name": "61C", "stop_id": "aZaGhhAB", "name": "Post Office", "city": "CHENNAI"}, "geometry": {"type": "Point", "coordinates": [80.10328576083282, 13.125531140255731]}}, {"type": "Feature", "properties": {"route_name": "61C", "stop_id": "PNniCxAw", "name": "Avadi HVF Road", "city": "CHENNAI"}, "geometry": {"type": "Point", "coordinates": [80.10314181890726, 13.120193102328443]}}, {"type": "Feature", "properties": {"route_name": "61C", "stop_id": "ogOCBKAf", "name": "Avadi Terminal", "city": "CHENNAI"}, "geometry": {"type": "Point", "coordinates": [80.10204658205703, 13.120113061821396]}}, {"type": "Feature", "properties": {"name": "61C"}, "geometry": {"type": "LineString", "coordinates": [[80.05776, 13.14199], [80.05833, 13.14266], [80.05858, 13.14293], [80.05935, 13.14378], [80.05954, 13.144], [80.05998, 13.14438], [80.0603, 13.14458], [80.06059, 13.14478], [80.06109, 13.14504], [80.0617, 13.14535], [80.06191, 13.14543], [80.0628, 13.14552], [80.06282, 13.14553], [80.06384, 13.14568], [80.06754, 13.14623], [80.0699, 13.14659], [80.07082, 13.14673], [80.07166, 13.14683], [80.0729, 13.14695], [80.0741, 13.14701], [80.07476, 13.14709], [80.0757, 13.14729], [80.07596, 13.14737], [80.07635, 13.14756], [80.07731, 13.14816], [80.07757, 13.14823], [80.0778, 13.14835], [80.07803, 13.14856], [80.07834, 13.14889], [80.07865, 13.14928], [80.07886, 13.14963], [80.07918, 13.15027], [80.07937, 13.15068], [80.07962, 13.15107], [80.07982, 13.15129], [80.07998, 13.15143], [80.08044, 13.15162], [80.0807, 13.15168], [80.08108, 13.15172], [80.08165, 13.15172], [80.0833, 13.15169], [80.08432, 13.15166], [80.08504, 13.15161], [80.08561, 13.15154], [80.08595, 13.15146], [80.08643, 13.15127], [80.08662, 13.15115], [80.08679, 13.151], [80.08711, 13.15052], [80.08726, 13.15025], [80.08783, 13.149], [80.08777, 13.14891], [80.08741, 13.14839], [80.08722, 13.14803], [80.08661, 13.14708], [80.08644, 13.14678], [80.08635, 13.14656], [80.08628, 13.14637], [80.08627, 13.14637], [80.0861, 13.14569], [80.08605, 13.14528], [80.08606, 13.14499], [80.08617, 13.14437], [80.08636, 13.14379], [80.08646, 13.14356], [80.08665, 13.14323], [80.08686, 13.14292], [80.08735, 13.14237], [80.08763, 13.14213], [80.08781, 13.142], [80.08809, 13.14184], [80.08859, 13.1416], [80.08897, 13.14146], [80.08923, 13.14138], [80.09093, 13.141], [80.09097, 13.14099], [80.09318, 13.14053], [80.09409, 13.14034], [80.09436, 13.14023], [80.09495, 13.13993], [80.09524, 13.13976], [80.09558, 13.13947], [80.09597, 13.13907], [80.09618, 13.1388], [80.0964, 13.13846], [80.09661, 13.13806], [80.09764, 13.13598], [80.09773, 13.13582], [80.09778, 13.13579], [80.09782, 13.13571], [80.09798, 13.13548], [80.0982, 13.1352], [80.09837, 13.13511], [80.09857, 13.13507], [80.09932, 13.13499], [80.09971, 13.13496], [80.09975, 13.13493], [80.09998, 13.13487], [80.10022, 13.13481], [80.10124, 13.13442], [80.10257, 13.13395], [80.10296, 13.13382], [80.10298, 13.13385], [80.10303, 13.13388], [80.1031, 13.13386], [80.10313, 13.13383], [80.10314, 13.13378], [80.10314, 13.13377], [80.10313, 13.13374], [80.10311, 13.13372], [80.10305, 13.1337], [80.10309, 13.13318], [80.10308, 13.13315], [80.1032, 13.13186], [80.10345, 13.13014], [80.1035, 13.12975], [80.10352, 13.12924], [80.10345, 13.1285], [80.10338, 13.12787], [80.10325, 13.12647], [80.10322, 13.12553], [80.10323, 13.12553], [80.10313, 13.12416], [80.10313, 13.12355], [80.10313, 13.12336], [80.10315, 13.12304], [80.10325, 13.12222], [80.10332, 13.12152], [80.10332, 13.12132], [80.10327, 13.12086], [80.10316, 13.12039], [80.10311, 13.1202], [80.10311, 13.12017], [80.10308, 13.11997], [80.10307, 13.11964], [80.10189, 13.11967], [80.1018, 13.11968], [80.10177, 13.12012], [80.10203, 13.12012]]}}]}