{"type": "FeatureCollection", "features": [{"type": "Feature", "properties": {"route_name": "46G", "stop_id": "KHbKaRBy", "name": "Mullai Nagar Bus Stand", "city": "CHENNAI"}, "geometry": {"type": "Point", "coordinates": [80.26571895611676, 13.123415293992247]}}, {"type": "Feature", "properties": {"route_name": "46G", "stop_id": "EMzKPzug", "name": "MKB Nagar East", "city": "CHENNAI"}, "geometry": {"type": "Point", "coordinates": [80.25984388015752, 13.122963569151263]}}, {"type": "Feature", "properties": {"route_name": "46G", "stop_id": "WGGanwZU", "name": "Ambedkar College Vyasarpadi", "city": "CHENNAI"}, "geometry": {"type": "Point", "coordinates": [80.2597173979974, 13.11846860522692]}}, {"type": "Feature", "properties": {"route_name": "46G", "stop_id": "HRURJMPd", "name": "Vyasarpadi Market", "city": "CHENNAI"}, "geometry": {"type": "Point", "coordinates": [80.26155545319627, 13.114864491193346]}}, {"type": "Feature", "properties": {"route_name": "46G", "stop_id": "IzsieVnc", "name": "Ganeshapuram", "city": "CHENNAI"}, "geometry": {"type": "Point", "coordinates": [80.25974568444644, 13.109703118171074]}}, {"type": "Feature", "properties": {"route_name": "46G", "stop_id": "uHbImzAf", "name": "Kannigapuram", "city": "CHENNAI"}, "geometry": {"type": "Point", "coordinates": [80.26042337154911, 13.108232691731745]}}, {"type": "Feature", "properties": {"route_name": "46G", "stop_id": "JZGNdgml", "name": "Madhavaram Aaduthotti", "city": "CHENNAI"}, "geometry": {"type": "Point", "coordinates": [80.26110538554462, 13.104377399634359]}}, {"type": "Feature", "properties": {"route_name": "46G", "stop_id": "bvSKVAYv", "name": "Pulianthope Police station P1", "city": "CHENNAI"}, "geometry": {"type": "Point", "coordinates": [80.25981647631158, 13.099827871515545]}}, {"type": "Feature", "properties": {"route_name": "46G", "stop_id": "GigUVtty", "name": "Dasa Mahan", "city": "CHENNAI"}, "geometry": {"type": "Point", "coordinates": [80.25435198437754, 13.09760488649531]}}, {"type": "Feature", "properties": {"route_name": "46G", "stop_id": "aYvzRwqU", "name": "Podi Kadai", "city": "CHENNAI"}, "geometry": {"type": "Point", "coordinates": [80.24806586776992, 13.097233898647088]}}, {"type": "Feature", "properties": {"route_name": "46G", "stop_id": "IpBcScgC", "name": "TB Hospital Ayanavaram", "city": "CHENNAI"}, "geometry": {"type": "Point", "coordinates": [80.24562850757775, 13.096814007537885]}}, {"type": "Feature", "properties": {"route_name": "46G", "stop_id": "xbeOVhLE", "name": "Ayanavaram Signal", "city": "CHENNAI"}, "geometry": {"type": "Point", "coordinates": [80.24234291563266, 13.097303171398751]}}, {"type": "Feature", "properties": {"route_name": "46G", "stop_id": "zYpZYpOA", "name": "Sayani Theatre Aynavaram", "city": "CHENNAI"}, "geometry": {"type": "Point", "coordinates": [80.23975016274903, 13.09769311585696]}}, {"type": "Feature", "properties": {"route_name": "46G", "stop_id": "dKbqWpcD", "name": "Noor Hotel", "city": "CHENNAI"}, "geometry": {"type": "Point", "coordinates": [80.23432560367019, 13.098546647678157]}}, {"type": "Feature", "properties": {"route_name": "46G", "stop_id": "VhgapMoa", "name": "Joint Office", "city": "CHENNAI"}, "geometry": {"type": "Point", "coordinates": [80.22986422597933, 13.09970256155688]}}, {"type": "Feature", "properties": {"route_name": "46G", "stop_id": "CYSggHNR", "name": "Railway Quarters", "city": "CHENNAI"}, "geometry": {"type": "Point", "coordinates": [80.22522972543936, 13.099860588103587]}}, {"type": "Feature", "properties": {"route_name": "46G", "stop_id": "IkxLwyxa", "name": "Kambar Arangam", "city": "CHENNAI"}, "geometry": {"type": "Point", "coordinates": [80.21948079268168, 13.099117571234816]}}, {"type": "Feature", "properties": {"route_name": "46G", "stop_id": "nJRBvlcT", "name": "ICF", "city": "CHENNAI"}, "geometry": {"type": "Point", "coordinates": [80.21567758905667, 13.100091390873622]}}, {"type": "Feature", "properties": {"route_name": "46G", "stop_id": "gRVxNCAP", "name": "Gandhi Nagar", "city": "CHENNAI"}, "geometry": {"type": "Point", "coordinates": [80.21683425955644, 13.097367950818063]}}, {"type": "Feature", "properties": {"route_name": "46G", "stop_id": "KTHxRvtW", "name": "Gandhi Nagar Hospital", "city": "CHENNAI"}, "geometry": {"type": "Point", "coordinates": [80.21907150080233, 13.095908895482921]}}, {"type": "Feature", "properties": {"route_name": "46G", "stop_id": "GhNbXpjs", "name": "14 Shop Complex", "city": "CHENNAI"}, "geometry": {"type": "Point", "coordinates": [80.21829328585466, 13.09013696140708]}}, {"type": "Feature", "properties": {"route_name": "46G", "stop_id": "uKKyuZyC", "name": "Kandaswami Naidu College", "city": "CHENNAI"}, "geometry": {"type": "Point", "coordinates": [80.21814072874167, 13.085669205573994]}}, {"type": "Feature", "properties": {"route_name": "46G", "stop_id": "udNzSSji", "name": "Aminjikarai Police Station", "city": "CHENNAI"}, "geometry": {"type": "Point", "coordinates": [80.2179693339283, 13.08180486086174]}}, {"type": "Feature", "properties": {"route_name": "46G", "stop_id": "qMoZNsgo", "name": "Anna Siddha Hospital", "city": "CHENNAI"}, "geometry": {"type": "Point", "coordinates": [80.21805374250744, 13.07777488208467]}}, {"type": "Feature", "properties": {"route_name": "46G", "stop_id": "hCxxcqWU", "name": "NSK Nagar Arumbakkam", "city": "CHENNAI"}, "geometry": {"type": "Point", "coordinates": [80.21649536522591, 13.074972195801834]}}, {"type": "Feature", "properties": {"route_name": "46G", "stop_id": "IOcMwGKn", "name": "DG Vaishnava College", "city": "CHENNAI"}, "geometry": {"type": "Point", "coordinates": [80.21333032392567, 13.07591401273661]}}, {"type": "Feature", "properties": {"route_name": "46G", "stop_id": "ybjkPLXB", "name": "Arumbakkam Post Office", "city": "CHENNAI"}, "geometry": {"type": "Point", "coordinates": [80.21057855454819, 13.077063979110072]}}, {"type": "Feature", "properties": {"route_name": "46G", "stop_id": "AszcEtOu", "name": "Koyambedu Chathiram", "city": "CHENNAI"}, "geometry": {"type": "Point", "coordinates": [80.20035161971282, 13.073937556098661]}}, {"type": "Feature", "properties": {"route_name": "46G", "stop_id": "BpAiVnps", "name": "CMBT Koyembedu Bus Depot", "city": "CHENNAI"}, "geometry": {"type": "Point", "coordinates": [80.20518932458458, 13.068981607807045]}}, {"type": "Feature", "properties": {"name": "46G"}, "geometry": {"type": "LineString", "coordinates": [[80.2658, 13.12341], [80.26579, 13.12287], [80.26526, 13.12289], [80.26343, 13.12291], [80.25984, 13.12299], [80.25924, 13.12301], [80.2593, 13.12143], [80.25943, 13.11855], [80.25972, 13.11851], [80.26068, 13.11831], [80.26186, 13.11783], [80.26258, 13.11669], [80.26309, 13.11565], [80.26347, 13.11489], [80.26357, 13.11419], [80.26333, 13.11409], [80.26141, 13.11422], [80.26155, 13.11482], [80.26136, 13.11431], [80.26093, 13.11395], [80.25982, 13.11361], [80.25956, 13.11339], [80.25867, 13.11327], [80.2573, 13.11321], [80.25719, 13.1132], [80.25719, 13.1126], [80.2572, 13.11213], [80.2572, 13.11125], [80.25724, 13.1097], [80.25833, 13.10973], [80.25969, 13.10977], [80.25972, 13.1097], [80.25976, 13.10912], [80.25978, 13.1091], [80.25985, 13.10897], [80.26009, 13.10863], [80.26026, 13.10841], [80.26037, 13.10821], [80.26056, 13.10781], [80.26065, 13.10754], [80.26068, 13.10734], [80.26078, 13.10657], [80.26083, 13.10622], [80.26083, 13.10594], [80.26081, 13.10589], [80.26082, 13.10584], [80.26088, 13.10558], [80.26091, 13.10537], [80.261, 13.10518], [80.26106, 13.10475], [80.26105, 13.10438], [80.26103, 13.10425], [80.26078, 13.10352], [80.26065, 13.10315], [80.26045, 13.10244], [80.26041, 13.10223], [80.26042, 13.10214], [80.26008, 13.10102], [80.25994, 13.10057], [80.2598, 13.09986], [80.25979, 13.09983], [80.25972, 13.09953], [80.25972, 13.09945], [80.25977, 13.0991], [80.25996, 13.09862], [80.26011, 13.09814], [80.26049, 13.09719], [80.25994, 13.09729], [80.25927, 13.0974], [80.25846, 13.09739], [80.25801, 13.09742], [80.25746, 13.0975], [80.25682, 13.09755], [80.25612, 13.09759], [80.25565, 13.09759], [80.255, 13.09764], [80.2544, 13.09765], [80.25435, 13.09765], [80.25284, 13.09778], [80.25173, 13.09789], [80.25147, 13.09792], [80.25131, 13.09805], [80.25117, 13.09817], [80.25083, 13.09799], [80.25065, 13.09791], [80.25034, 13.09782], [80.24974, 13.0977], [80.24805, 13.0973], [80.2474, 13.09714], [80.24684, 13.09696], [80.24654, 13.09689], [80.24603, 13.09687], [80.24563, 13.09689], [80.24488, 13.09694], [80.24427, 13.09701], [80.2437, 13.09714], [80.24297, 13.09726], [80.24235, 13.09734], [80.24203, 13.09739], [80.24122, 13.09759], [80.24051, 13.09766], [80.23975, 13.09771], [80.23922, 13.09776], [80.23884, 13.09778], [80.23799, 13.09794], [80.23748, 13.09803], [80.23731, 13.09804], [80.23721, 13.09811], [80.23699, 13.09815], [80.23675, 13.0982], [80.23657, 13.09823], [80.23548, 13.09842], [80.23466, 13.09854], [80.23433, 13.09858], [80.23366, 13.09862], [80.23336, 13.09866], [80.2326, 13.0988], [80.23216, 13.0989], [80.23187, 13.099], [80.23079, 13.09946], [80.23053, 13.09955], [80.22987, 13.09974], [80.22912, 13.09987], [80.22799, 13.10007], [80.22785, 13.10005], [80.22757, 13.10008], [80.22703, 13.10006], [80.22678, 13.10006], [80.22616, 13.10001], [80.22527, 13.0999], [80.22522, 13.0999], [80.22458, 13.09974], [80.22411, 13.09961], [80.22393, 13.09952], [80.22368, 13.09934], [80.22353, 13.09916], [80.22345, 13.09909], [80.22308, 13.09884], [80.22284, 13.09873], [80.22275, 13.09872], [80.22215, 13.09874], [80.22132, 13.09886], [80.2195, 13.09919], [80.21862, 13.09932], [80.21717, 13.09955], [80.21682, 13.09966], [80.21621, 13.09989], [80.21569, 13.10012], [80.21507, 13.10041], [80.21501, 13.10039], [80.21489, 13.10034], [80.21479, 13.10031], [80.21464, 13.10029], [80.21455, 13.10028], [80.21444, 13.09992], [80.21424, 13.09914], [80.21415, 13.09891], [80.21405, 13.09873], [80.21398, 13.09858], [80.21425, 13.09843], [80.21493, 13.09813], [80.21682, 13.09734], [80.21793, 13.09693], [80.2188, 13.09665], [80.2192, 13.09652], [80.21916, 13.09643], [80.21901, 13.09618], [80.21889, 13.09584], [80.21883, 13.09567], [80.21893, 13.09562], [80.21901, 13.09559], [80.21909, 13.0958], [80.21908, 13.09578], [80.21901, 13.09559], [80.21898, 13.0956], [80.21883, 13.09567], [80.21851, 13.0948], [80.21836, 13.0943], [80.2183, 13.09234], [80.21833, 13.09231], [80.21834, 13.09227], [80.21831, 13.09218], [80.21823, 13.09014], [80.21809, 13.08712], [80.21804, 13.08567], [80.21801, 13.08474], [80.21804, 13.08471], [80.21806, 13.08464], [80.21804, 13.08455], [80.21801, 13.08452], [80.218, 13.0845], [80.218, 13.08395], [80.21796, 13.08263], [80.21794, 13.08215], [80.21792, 13.08181], [80.21783, 13.08024], [80.21781, 13.08003], [80.2178, 13.07896], [80.21782, 13.07834], [80.21796, 13.07775], [80.21808, 13.07724], [80.21811, 13.07695], [80.21811, 13.07667], [80.21811, 13.07648], [80.21807, 13.07605], [80.21807, 13.07581], [80.21814, 13.07535], [80.21802, 13.07521], [80.21788, 13.075], [80.21786, 13.07489], [80.21779, 13.0749], [80.2176, 13.07492], [80.21692, 13.07502], [80.21651, 13.07508], [80.21589, 13.07516], [80.21539, 13.07522], [80.21508, 13.07526], [80.21455, 13.07541], [80.21392, 13.07565], [80.21341, 13.07593], [80.21336, 13.07596], [80.21251, 13.07651], [80.21209, 13.0768], [80.21194, 13.07688], [80.21175, 13.07694], [80.21112, 13.07704], [80.21059, 13.07711], [80.2099, 13.07719], [80.20962, 13.0772], [80.2091, 13.07719], [80.20843, 13.07711], [80.2075, 13.07707], [80.20697, 13.07705], [80.20628, 13.07699], [80.20456, 13.0767], [80.20438, 13.07663], [80.2042, 13.0766], [80.20348, 13.07643], [80.20266, 13.07625], [80.20232, 13.07621], [80.20202, 13.07621], [80.20168, 13.07625], [80.20142, 13.07622], [80.20097, 13.07628], [80.20075, 13.07629], [80.20029, 13.07622], [80.20012, 13.07615], [80.20008, 13.07609], [80.20004, 13.07598], [80.20001, 13.07567], [80.19994, 13.07535], [80.19985, 13.07471], [80.19988, 13.0745], [80.2, 13.07417], [80.20029, 13.07388], [80.2011, 13.07318], [80.20328, 13.07145], [80.2039, 13.07083], [80.20558, 13.0697], [80.20583, 13.06951], [80.20557, 13.0692], [80.2054, 13.06895], [80.20523, 13.06901]]}}]}