{"type": "FeatureCollection", "features": [{"type": "Feature", "properties": {"route_name": "S26", "stop_id": "AmahvgQB", "name": "Udhayam Theatre Or Ashok Pillar", "city": "CHENNAI"}, "geometry": {"type": "Point", "coordinates": [80.21088471292683, 13.035133560218684]}}, {"type": "Feature", "properties": {"route_name": "S26", "stop_id": "vSdfqYeK", "name": "Ashok Pillar", "city": "CHENNAI"}, "geometry": {"type": "Point", "coordinates": [80.21208679, 13.03354348]}}, {"type": "Feature", "properties": {"route_name": "S26", "stop_id": "PjfwSZnl", "name": "Kasi Theatre", "city": "CHENNAI"}, "geometry": {"type": "Point", "coordinates": [80.20920231469609, 13.030140031639672]}}, {"type": "Feature", "properties": {"route_name": "S26", "stop_id": "aYSqaQmJ", "name": "KK Nagar Telephone Exchange Jaffarkhanpet", "city": "CHENNAI"}, "geometry": {"type": "Point", "coordinates": [80.20930784702523, 13.031641364014488]}}, {"type": "Feature", "properties": {"route_name": "S26", "stop_id": "BRTaWOYs", "name": "Bharathidasan Colony", "city": "CHENNAI"}, "geometry": {"type": "Point", "coordinates": [80.2053184199553, 13.032658877044433]}}, {"type": "Feature", "properties": {"route_name": "S26", "stop_id": "busLwOKM", "name": "Kailankadai", "city": "CHENNAI"}, "geometry": {"type": "Point", "coordinates": [80.20302495337297, 13.03292523157666]}}, {"type": "Feature", "properties": {"route_name": "S26", "stop_id": "apZtGMSe", "name": "Indra Colony", "city": "CHENNAI"}, "geometry": {"type": "Point", "coordinates": [80.20247918924385, 13.031421203459931]}}, {"type": "Feature", "properties": {"route_name": "S26", "stop_id": "OGOfNBpR", "name": "Saravana Electrical", "city": "CHENNAI"}, "geometry": {"type": "Point", "coordinates": [80.19923145218031, 13.031557495425298]}}, {"type": "Feature", "properties": {"route_name": "S26", "stop_id": "sHyVyxBf", "name": "Anjali Mahal", "city": "CHENNAI"}, "geometry": {"type": "Point", "coordinates": [80.19660267638064, 13.03099928649519]}}, {"type": "Feature", "properties": {"route_name": "S26", "stop_id": "YstCZidS", "name": "Anbu Woins", "city": "CHENNAI"}, "geometry": {"type": "Point", "coordinates": [80.19499181059068, 13.03109237373685]}}, {"type": "Feature", "properties": {"route_name": "S26", "stop_id": "qaJzTzwj", "name": "Sullaipallam", "city": "CHENNAI"}, "geometry": {"type": "Point", "coordinates": [80.19173402331353, 13.031358286491876]}}, {"type": "Feature", "properties": {"route_name": "S26", "stop_id": "lniHSWWA", "name": "Nesapakkam MGR Statue", "city": "CHENNAI"}, "geometry": {"type": "Point", "coordinates": [80.19130252092963, 13.031512091155388]}}, {"type": "Feature", "properties": {"route_name": "S26", "stop_id": "BzikVGUK", "name": "Nellai Stores", "city": "CHENNAI"}, "geometry": {"type": "Point", "coordinates": [80.18755103191184, 13.031616627780867]}}, {"type": "Feature", "properties": {"route_name": "S26", "stop_id": "ImyQzgIv", "name": "Balaji Hospital", "city": "CHENNAI"}, "geometry": {"type": "Point", "coordinates": [80.18675075214958, 13.031672870315305]}}, {"type": "Feature", "properties": {"route_name": "S26", "stop_id": "VDSTHuJo", "name": "Ramapuram Ashram", "city": "CHENNAI"}, "geometry": {"type": "Point", "coordinates": [80.18394860643751, 13.031750688560678]}}, {"type": "Feature", "properties": {"route_name": "S26", "stop_id": "zdgoUaFA", "name": "SRM University", "city": "CHENNAI"}, "geometry": {"type": "Point", "coordinates": [80.17864933900348, 13.031717782425432]}}, {"type": "Feature", "properties": {"route_name": "S26", "stop_id": "fTKGeENK", "name": "Ramapuram", "city": "CHENNAI"}, "geometry": {"type": "Point", "coordinates": [80.17583813656961, 13.032922134561247]}}, {"type": "Feature", "properties": {"route_name": "S26", "stop_id": "JleZjXmc", "name": "Ambedkar Salai", "city": "CHENNAI"}, "geometry": {"type": "Point", "coordinates": [80.1750521165676, 13.036102120562255]}}, {"type": "Feature", "properties": {"route_name": "S26", "stop_id": "TKRrUtKV", "name": "Venkatesawar Nagar", "city": "CHENNAI"}, "geometry": {"type": "Point", "coordinates": [80.17444604079867, 13.039806532610966]}}, {"type": "Feature", "properties": {"route_name": "S26", "stop_id": "jcExlqwL", "name": "Valasaravakkam", "city": "CHENNAI"}, "geometry": {"type": "Point", "coordinates": [80.17370076220504, 13.041051362245241]}}, {"type": "Feature", "properties": {"name": "S26"}, "geometry": {"type": "LineString", "coordinates": [[80.21092, 13.03507], [80.21099, 13.03509], [80.2111, 13.03509], [80.2112, 13.03507], [80.21133, 13.03498], [80.21139, 13.03493], [80.21144, 13.03493], [80.21181, 13.03491], [80.21185, 13.03486], [80.2119, 13.03482], [80.21202, 13.03478], [80.21208, 13.03471], [80.21209, 13.03466], [80.21206, 13.03444], [80.21206, 13.03419], [80.21204, 13.03388], [80.21198, 13.03355], [80.21176, 13.03199], [80.21174, 13.03189], [80.21119, 13.03198], [80.21018, 13.03211], [80.21002, 13.03105], [80.20975, 13.03002], [80.20968, 13.03004], [80.20921, 13.03017], [80.20899, 13.03024], [80.20921, 13.03101], [80.2094, 13.03162], [80.2095, 13.03201], [80.20913, 13.03208], [80.20874, 13.03214], [80.20676, 13.03245], [80.20532, 13.03268], [80.20393, 13.03288], [80.20301, 13.033], [80.203, 13.03293], [80.203, 13.0329], [80.20272, 13.03185], [80.2027, 13.03176], [80.20259, 13.03156], [80.20247, 13.03144], [80.20237, 13.0314], [80.20227, 13.03138], [80.20168, 13.03142], [80.20017, 13.03153], [80.19958, 13.03159], [80.19923, 13.03159], [80.19905, 13.03156], [80.19895, 13.03152], [80.19886, 13.03146], [80.19871, 13.0313], [80.19853, 13.03121], [80.1983, 13.03114], [80.19807, 13.0311], [80.19742, 13.03104], [80.1966, 13.03102], [80.19593, 13.03104], [80.19531, 13.03108], [80.19513, 13.03112], [80.19499, 13.03111], [80.19445, 13.03094], [80.19395, 13.03075], [80.19362, 13.03056], [80.19353, 13.03053], [80.19329, 13.0305], [80.19315, 13.03053], [80.19275, 13.0307], [80.19267, 13.03071], [80.19246, 13.03073], [80.19215, 13.03082], [80.19208, 13.03085], [80.192, 13.03091], [80.19194, 13.03106], [80.19187, 13.03129], [80.19179, 13.03138], [80.19174, 13.03139], [80.19167, 13.03139], [80.1914, 13.03138], [80.19132, 13.03152], [80.19131, 13.03154], [80.19132, 13.03152], [80.19131, 13.03154], [80.19085, 13.03148], [80.19056, 13.03147], [80.19028, 13.0315], [80.18956, 13.0316], [80.18883, 13.0316], [80.1884, 13.03161], [80.18777, 13.03162], [80.18755, 13.03164], [80.18675, 13.0317], [80.18586, 13.03175], [80.18553, 13.03176], [80.18474, 13.03182], [80.18395, 13.03177], [80.18378, 13.03176], [80.18348, 13.03177], [80.18309, 13.03174], [80.18237, 13.03176], [80.18172, 13.03173], [80.18156, 13.03176], [80.18123, 13.03174], [80.18086, 13.0317], [80.18055, 13.03164], [80.1803, 13.0316], [80.17981, 13.03162], [80.17953, 13.03165], [80.17869, 13.03173], [80.17866, 13.03174], [80.17715, 13.03208], [80.17679, 13.03223], [80.17651, 13.03239], [80.17626, 13.03257], [80.176, 13.0328], [80.17585, 13.03294], [80.17577, 13.03296], [80.17562, 13.03306], [80.17541, 13.03312], [80.17515, 13.03318], [80.17443, 13.03332], [80.17387, 13.03343], [80.17398, 13.0341], [80.17399, 13.03441], [80.17401, 13.03466], [80.17419, 13.03518], [80.17422, 13.03534], [80.17424, 13.0357], [80.17429, 13.03592], [80.17455, 13.03591], [80.17503, 13.03597], [80.17506, 13.03597], [80.17508, 13.03602], [80.17508, 13.0361], [80.17502, 13.03679], [80.17501, 13.03716], [80.17498, 13.03728], [80.17471, 13.03782], [80.17468, 13.03791], [80.1746, 13.03928], [80.17457, 13.03951], [80.17449, 13.03976], [80.17447, 13.03982], [80.1744, 13.03998], [80.17422, 13.04048], [80.17419, 13.04082], [80.17415, 13.04123], [80.17399, 13.04119], [80.17371, 13.04112]]}}]}