{"type": "FeatureCollection", "features": [{"type": "Feature", "properties": {"route_name": "557AET", "stop_id": "EkWBPXmr", "name": "Broadway", "city": "CHENNAI"}, "geometry": {"type": "Point", "coordinates": [80.28388983, 13.08820568]}}, {"type": "Feature", "properties": {"route_name": "557AET", "stop_id": "cGoHBmgo", "name": "High Court", "city": "CHENNAI"}, "geometry": {"type": "Point", "coordinates": [80.28711089091621, 13.088636277043769]}}, {"type": "Feature", "properties": {"route_name": "557AET", "stop_id": "gBkmsEyR", "name": "Parrys Corner", "city": "CHENNAI"}, "geometry": {"type": "Point", "coordinates": [80.29099080584331, 13.090762751453648]}}, {"type": "Feature", "properties": {"route_name": "557AET", "stop_id": "ubZrQMid", "name": "Beach Station", "city": "CHENNAI"}, "geometry": {"type": "Point", "coordinates": [80.29223956369128, 13.094517419625104]}}, {"type": "Feature", "properties": {"route_name": "557AET", "stop_id": "inJVXMtB", "name": "Collector Office", "city": "CHENNAI"}, "geometry": {"type": "Point", "coordinates": [80.29280498586172, 13.096287270506773]}}, {"type": "Feature", "properties": {"route_name": "557AET", "stop_id": "vfdAIPGv", "name": "Clive Battery", "city": "CHENNAI"}, "geometry": {"type": "Point", "coordinates": [80.29406209, 13.10009011]}}, {"type": "Feature", "properties": {"route_name": "557AET", "stop_id": "nsjiKPCz", "name": "Thambu Chetty Street", "city": "CHENNAI"}, "geometry": {"type": "Point", "coordinates": [80.29076617193198, 13.102620751001288]}}, {"type": "Feature", "properties": {"route_name": "557AET", "stop_id": "iVtHnErr", "name": "Bharathi Arts College", "city": "CHENNAI"}, "geometry": {"type": "Point", "coordinates": [80.28765226, 13.10403494]}}, {"type": "Feature", "properties": {"route_name": "557AET", "stop_id": "jiaBsTdI", "name": "Stanley Hospital", "city": "CHENNAI"}, "geometry": {"type": "Point", "coordinates": [80.28414444981661, 13.105035950674967]}}, {"type": "Feature", "properties": {"route_name": "557AET", "stop_id": "vspNPtqb", "name": "Stanley Hospital 2", "city": "CHENNAI"}, "geometry": {"type": "Point", "coordinates": [80.28316041438427, 13.10519367147766]}}, {"type": "Feature", "properties": {"route_name": "557AET", "stop_id": "wihERHzN", "name": "Mint Bus Terminal Or Vallalar Nagar", "city": "CHENNAI"}, "geometry": {"type": "Point", "coordinates": [80.28018969611571, 13.10547935181316]}}, {"type": "Feature", "properties": {"route_name": "557AET", "stop_id": "uiYVYPQX", "name": "Vallalar Nagar Bus Depot", "city": "CHENNAI"}, "geometry": {"type": "Point", "coordinates": [80.27614104416512, 13.103956594134822]}}, {"type": "Feature", "properties": {"route_name": "557AET", "stop_id": "FcOkCcps", "name": "Ramalingapuram Toll", "city": "CHENNAI"}, "geometry": {"type": "Point", "coordinates": [80.26712729733799, 13.109006355868484]}}, {"type": "Feature", "properties": {"route_name": "557AET", "stop_id": "MqGZxRIW", "name": "Vyasarpadi", "city": "CHENNAI"}, "geometry": {"type": "Point", "coordinates": [80.26491970055247, 13.111469490022124]}}, {"type": "Feature", "properties": {"route_name": "557AET", "stop_id": "OyJKKata", "name": "Vyasarpadi Market", "city": "CHENNAI"}, "geometry": {"type": "Point", "coordinates": [80.26357146854707, 13.113878365099895]}}, {"type": "Feature", "properties": {"route_name": "557AET", "stop_id": "twMezfOU", "name": "Ambedkar College Vyasarpadi", "city": "CHENNAI"}, "geometry": {"type": "Point", "coordinates": [80.259366110575, 13.118303758474488]}}, {"type": "Feature", "properties": {"route_name": "557AET", "stop_id": "lkujKSJT", "name": "Sharma Nagar", "city": "CHENNAI"}, "geometry": {"type": "Point", "coordinates": [80.25442998388917, 13.120477696307466]}}, {"type": "Feature", "properties": {"route_name": "557AET", "stop_id": "yaKWBgLg", "name": "Erukkancheri Toll Gate", "city": "CHENNAI"}, "geometry": {"type": "Point", "coordinates": [80.25099983132543, 13.122041110997099]}}, {"type": "Feature", "properties": {"route_name": "557AET", "stop_id": "IvQQZbJW", "name": "Erukancherry", "city": "CHENNAI"}, "geometry": {"type": "Point", "coordinates": [80.24706658663354, 13.124542243211769]}}, {"type": "Feature", "properties": {"route_name": "557AET", "stop_id": "ztLkgYlA", "name": "Moolakadai", "city": "CHENNAI"}, "geometry": {"type": "Point", "coordinates": [80.24111584548042, 13.128998271678444]}}, {"type": "Feature", "properties": {"route_name": "557AET", "stop_id": "vyQyYYqJ", "name": "Madhavaram Bus Depot", "city": "CHENNAI"}, "geometry": {"type": "Point", "coordinates": [80.23708376142258, 13.131995347649102]}}, {"type": "Feature", "properties": {"route_name": "557AET", "stop_id": "fjevhefZ", "name": "Kanagachathiram", "city": "CHENNAI"}, "geometry": {"type": "Point", "coordinates": [80.23098801167419, 13.136493081143314]}}, {"type": "Feature", "properties": {"route_name": "557AET", "stop_id": "AUBTKFbY", "name": "Kalpana Lamps", "city": "CHENNAI"}, "geometry": {"type": "Point", "coordinates": [80.22787715760091, 13.13880655986661]}}, {"type": "Feature", "properties": {"route_name": "557AET", "stop_id": "pzcCDVmZ", "name": "Madhavaram Rountana", "city": "CHENNAI"}, "geometry": {"type": "Point", "coordinates": [80.21932189565132, 13.145031360715578]}}, {"type": "Feature", "properties": {"route_name": "557AET", "stop_id": "TCBUGaZf", "name": "Kathirvedu Bypass", "city": "CHENNAI"}, "geometry": {"type": "Point", "coordinates": [80.20824812807405, 13.15314502790998]}}, {"type": "Feature", "properties": {"route_name": "557AET", "stop_id": "BlnSxBAr", "name": "Puzhal Camp", "city": "CHENNAI"}, "geometry": {"type": "Point", "coordinates": [80.20369329197862, 13.158264608508265]}}, {"type": "Feature", "properties": {"route_name": "557AET", "stop_id": "KcvPUxQg", "name": "Puzhal Jail", "city": "CHENNAI"}, "geometry": {"type": "Point", "coordinates": [80.20231012198508, 13.164298644421198]}}, {"type": "Feature", "properties": {"route_name": "557AET", "stop_id": "ePrpofUw", "name": "Kavangarai", "city": "CHENNAI"}, "geometry": {"type": "Point", "coordinates": [80.19922652488333, 13.17045830880621]}}, {"type": "Feature", "properties": {"route_name": "557AET", "stop_id": "VCQdmIoF", "name": "Thandal Kazhani", "city": "CHENNAI"}, "geometry": {"type": "Point", "coordinates": [80.19615803010544, 13.176000864407136]}}, {"type": "Feature", "properties": {"route_name": "557AET", "stop_id": "NFInfBeu", "name": "Sri Nallaghu Polytechnic College", "city": "CHENNAI"}, "geometry": {"type": "Point", "coordinates": [80.19478615461617, 13.17837926129572]}}, {"type": "Feature", "properties": {"route_name": "557AET", "stop_id": "kKKRBhFF", "name": "Ayurveda Ashramam", "city": "CHENNAI"}, "geometry": {"type": "Point", "coordinates": [80.19141192703125, 13.184649591138788]}}, {"type": "Feature", "properties": {"route_name": "557AET", "stop_id": "WdOwNGhj", "name": "Redhills Market", "city": "CHENNAI"}, "geometry": {"type": "Point", "coordinates": [80.18765184553399, 13.18925264696911]}}, {"type": "Feature", "properties": {"route_name": "557AET", "stop_id": "xfbmoJHP", "name": "Redhills Bus Terminus", "city": "CHENNAI"}, "geometry": {"type": "Point", "coordinates": [80.18435172804377, 13.192823904116457]}}, {"type": "Feature", "properties": {"route_name": "557AET", "stop_id": "NCSBLEus", "name": "Mondiyaman Nagar", "city": "CHENNAI"}, "geometry": {"type": "Point", "coordinates": [80.17901412594404, 13.198778307964428]}}, {"type": "Feature", "properties": {"route_name": "557AET", "stop_id": "AJLJQqsT", "name": "Padianallur", "city": "CHENNAI"}, "geometry": {"type": "Point", "coordinates": [80.17473004885483, 13.204504536655083]}}, {"type": "Feature", "properties": {"route_name": "557AET", "stop_id": "EYGEAZtD", "name": "Padianallur Check Post Or Vijaya Nallur", "city": "CHENNAI"}, "geometry": {"type": "Point", "coordinates": [80.17198755338325, 13.209594837174665]}}, {"type": "Feature", "properties": {"route_name": "557AET", "stop_id": "zqZasXpA", "name": "Redhills RTO Office", "city": "CHENNAI"}, "geometry": {"type": "Point", "coordinates": [80.17008864408778, 13.21460399271362]}}, {"type": "Feature", "properties": {"route_name": "557AET", "stop_id": "AUrIxxcC", "name": "Semilivaram Or Nallur Toll Plaza", "city": "CHENNAI"}, "geometry": {"type": "Point", "coordinates": [80.16907050148939, 13.217271625606102]}}, {"type": "Feature", "properties": {"route_name": "557AET", "stop_id": "illGQStO", "name": "Vijaya Nallur", "city": "CHENNAI"}, "geometry": {"type": "Point", "coordinates": [80.16753244267011, 13.221330232863748]}}, {"type": "Feature", "properties": {"route_name": "557AET", "stop_id": "sTaleXyI", "name": "Sembilivaram Or Nallur Road Junction", "city": "CHENNAI"}, "geometry": {"type": "Point", "coordinates": [80.16555271413688, 13.227161105736025]}}, {"type": "Feature", "properties": {"route_name": "557AET", "stop_id": "yTictHOU", "name": "Sengalamman Koil Or Sholavaram 4", "city": "CHENNAI"}, "geometry": {"type": "Point", "coordinates": [80.16460517831138, 13.229697217913404]}}, {"type": "Feature", "properties": {"route_name": "557AET", "stop_id": "TJDsQDoO", "name": "Sholavaram 3", "city": "CHENNAI"}, "geometry": {"type": "Point", "coordinates": [80.16234334772776, 13.235275509212642]}}, {"type": "Feature", "properties": {"route_name": "557AET", "stop_id": "UVDfwOgc", "name": "Sholavaram High School Or BDO Office", "city": "CHENNAI"}, "geometry": {"type": "Point", "coordinates": [80.15962456480474, 13.242802346903405]}}, {"type": "Feature", "properties": {"route_name": "557AET", "stop_id": "rxrORjnb", "name": "Karanodai", "city": "CHENNAI"}, "geometry": {"type": "Point", "coordinates": [80.15753891866461, 13.246990251356396]}}, {"type": "Feature", "properties": {"route_name": "557AET", "stop_id": "xunvufHj", "name": "Don Bosco Matriculation School Karanodai", "city": "CHENNAI"}, "geometry": {"type": "Point", "coordinates": [80.15531185640748, 13.252917300155165]}}, {"type": "Feature", "properties": {"route_name": "557AET", "stop_id": "nJRQzVZQ", "name": "Janapanchatram Koot Road Junction", "city": "CHENNAI"}, "geometry": {"type": "Point", "coordinates": [80.15486977608202, 13.262029986300082]}}, {"type": "Feature", "properties": {"route_name": "557AET", "stop_id": "vkWqgNph", "name": "Alinjivakkam", "city": "CHENNAI"}, "geometry": {"type": "Point", "coordinates": [80.15310641398924, 13.268324337818777]}}, {"type": "Feature", "properties": {"route_name": "557AET", "stop_id": "EonJeQKz", "name": "Athipedu", "city": "CHENNAI"}, "geometry": {"type": "Point", "coordinates": [80.15105700907407, 13.274533527856164]}}, {"type": "Feature", "properties": {"route_name": "557AET", "stop_id": "eymgjBxV", "name": "Panchetti", "city": "CHENNAI"}, "geometry": {"type": "Point", "coordinates": [80.14878290192974, 13.28648231519846]}}, {"type": "Feature", "properties": {"route_name": "557AET", "stop_id": "qqDoWQdv", "name": "Thachur Koot Road Junction", "city": "CHENNAI"}, "geometry": {"type": "Point", "coordinates": [80.14756970518795, 13.296605965000186]}}, {"type": "Feature", "properties": {"route_name": "557AET", "stop_id": "spmlaYUs", "name": "Peravallur", "city": "CHENNAI"}, "geometry": {"type": "Point", "coordinates": [80.14561342659681, 13.314626584331808]}}, {"type": "Feature", "properties": {"route_name": "557AET", "stop_id": "qIuTLVvj", "name": "Puduvoyal Road Or New Road", "city": "CHENNAI"}, "geometry": {"type": "Point", "coordinates": [80.14506559312258, 13.319586174322783]}}, {"type": "Feature", "properties": {"route_name": "557AET", "stop_id": "MgfOYJbA", "name": "Puduvayal", "city": "CHENNAI"}, "geometry": {"type": "Point", "coordinates": [80.14308653677836, 13.334785373838555]}}, {"type": "Feature", "properties": {"route_name": "557AET", "stop_id": "rilNZKmg", "name": "Peruvayal", "city": "CHENNAI"}, "geometry": {"type": "Point", "coordinates": [80.14406680884667, 13.34374813405512]}}, {"type": "Feature", "properties": {"route_name": "557AET", "stop_id": "QiaFfhxS", "name": "RMK College", "city": "CHENNAI"}, "geometry": {"type": "Point", "coordinates": [80.14104561035515, 13.355652923358805]}}, {"type": "Feature", "properties": {"route_name": "557AET", "stop_id": "dQOncjgh", "name": "T J S Engineering College Or Kavarapett", "city": "CHENNAI"}, "geometry": {"type": "Point", "coordinates": [80.13945460111086, 13.363694705315758]}}, {"type": "Feature", "properties": {"route_name": "557AET", "stop_id": "mgDGiHEE", "name": "Mambakkam Road and Atanoor Road Junction", "city": "CHENNAI"}, "geometry": {"type": "Point", "coordinates": [80.13908436437828, 13.366215513925187]}}, {"type": "Feature", "properties": {"route_name": "557AET", "stop_id": "FwvYcAgk", "name": "Panapakkam", "city": "CHENNAI"}, "geometry": {"type": "Point", "coordinates": [80.13717893009016, 13.377684121946535]}}, {"type": "Feature", "properties": {"route_name": "557AET", "stop_id": "ltPLChrK", "name": "Verkadu", "city": "CHENNAI"}, "geometry": {"type": "Point", "coordinates": [80.13538290945905, 13.38642836591871]}}, {"type": "Feature", "properties": {"route_name": "557AET", "stop_id": "KKHFrKGl", "name": "Gummidipoondi Terminal", "city": "CHENNAI"}, "geometry": {"type": "Point", "coordinates": [80.1271961344512, 13.408031911312214]}}, {"type": "Feature", "properties": {"route_name": "557AET", "stop_id": "WoPCDSeI", "name": "Rettempedu Road Junction", "city": "CHENNAI"}, "geometry": {"type": "Point", "coordinates": [80.12688312689897, 13.412859361823017]}}, {"type": "Feature", "properties": {"route_name": "557AET", "stop_id": "ehvgRqdw", "name": "Police Quarters", "city": "CHENNAI"}, "geometry": {"type": "Point", "coordinates": [80.13488683190974, 13.415935623267057]}}, {"type": "Feature", "properties": {"route_name": "557AET", "stop_id": "oGdoEyKI", "name": "Authupakkam", "city": "CHENNAI"}, "geometry": {"type": "Point", "coordinates": [80.14925025403556, 13.422235093778234]}}, {"type": "Feature", "properties": {"route_name": "557AET", "stop_id": "IKquIbHX", "name": "Vazhuthalambedu 2", "city": "CHENNAI"}, "geometry": {"type": "Point", "coordinates": [80.15572847045212, 13.425151754189821]}}, {"type": "Feature", "properties": {"route_name": "557AET", "stop_id": "hnwTnEQV", "name": "Vazhuthalambedu 1", "city": "CHENNAI"}, "geometry": {"type": "Point", "coordinates": [80.16360738648473, 13.42829805973142]}}, {"type": "Feature", "properties": {"route_name": "557AET", "stop_id": "wBOkqIeG", "name": "Rettambedu", "city": "CHENNAI"}, "geometry": {"type": "Point", "coordinates": [80.16986764113119, 13.429036312178079]}}, {"type": "Feature", "properties": {"route_name": "557AET", "stop_id": "IsszqyIy", "name": "kurivigaram Junction", "city": "CHENNAI"}, "geometry": {"type": "Point", "coordinates": [80.17978311250761, 13.428752307594515]}}, {"type": "Feature", "properties": {"route_name": "557AET", "stop_id": "GUgiDKEG", "name": "Kurivigaram", "city": "CHENNAI"}, "geometry": {"type": "Point", "coordinates": [80.18125862792203, 13.430867832016004]}}, {"type": "Feature", "properties": {"route_name": "557AET", "stop_id": "yrrrlzqi", "name": "Kurivigaram 2", "city": "CHENNAI"}, "geometry": {"type": "Point", "coordinates": [80.1812828711345, 13.434467300996662]}}, {"type": "Feature", "properties": {"route_name": "557AET", "stop_id": "smhnGuEj", "name": "Seganiyam 1", "city": "CHENNAI"}, "geometry": {"type": "Point", "coordinates": [80.18274204227578, 13.437873042409697]}}, {"type": "Feature", "properties": {"route_name": "557AET", "stop_id": "NbdCRqNf", "name": "Seganiyam 2", "city": "CHENNAI"}, "geometry": {"type": "Point", "coordinates": [80.18302034137605, 13.439488653359481]}}, {"type": "Feature", "properties": {"route_name": "557AET", "stop_id": "SteiLorf", "name": "Mettu Sekanyam", "city": "CHENNAI"}, "geometry": {"type": "Point", "coordinates": [80.18499569959135, 13.44047204385228]}}, {"type": "Feature", "properties": {"route_name": "557AET", "stop_id": "gOHjFflk", "name": "Pananjalai", "city": "CHENNAI"}, "geometry": {"type": "Point", "coordinates": [80.19459365484818, 13.453888393076568]}}, {"type": "Feature", "properties": {"route_name": "557AET", "stop_id": "BcAnDlhE", "name": "Devampattu 1", "city": "CHENNAI"}, "geometry": {"type": "Point", "coordinates": [80.19958755901621, 13.453070284536066]}}, {"type": "Feature", "properties": {"route_name": "557AET", "stop_id": "NKETZQBF", "name": "Devampattu 2", "city": "CHENNAI"}, "geometry": {"type": "Point", "coordinates": [80.20267399525926, 13.45266665060092]}}, {"type": "Feature", "properties": {"route_name": "557AET", "stop_id": "rnnOUpAJ", "name": "Agaram", "city": "CHENNAI"}, "geometry": {"type": "Point", "coordinates": [80.2075483729111, 13.453445667150097]}}, {"type": "Feature", "properties": {"route_name": "557AET", "stop_id": "DXDxufRt", "name": "Nelvaai", "city": "CHENNAI"}, "geometry": {"type": "Point", "coordinates": [80.21200238933284, 13.455744194300461]}}, {"type": "Feature", "properties": {"route_name": "557AET", "stop_id": "sqkVVOFh", "name": "Medur Or Amalaichery Junction", "city": "CHENNAI"}, "geometry": {"type": "Point", "coordinates": [80.21712864311519, 13.457471386924924]}}, {"type": "Feature", "properties": {"route_name": "557AET", "stop_id": "pNfwvVoI", "name": "Vepathur", "city": "CHENNAI"}, "geometry": {"type": "Point", "coordinates": [80.22418002186487, 13.455205371951518]}}, {"type": "Feature", "properties": {"route_name": "557AET", "stop_id": "mEqtlIiP", "name": "EB Transformer", "city": "CHENNAI"}, "geometry": {"type": "Point", "coordinates": [80.23622564038374, 13.45875395803496]}}, {"type": "Feature", "properties": {"route_name": "557AET", "stop_id": "jZLvbydT", "name": "Annamalaichery", "city": "CHENNAI"}, "geometry": {"type": "Point", "coordinates": [80.26167865075513, 13.457199306753923]}}, {"type": "Feature", "properties": {"name": "557AET"}, "geometry": {"type": "LineString", "coordinates": [[80.28388, 13.08667], [80.28473, 13.08648], [80.28517, 13.08852], [80.28707, 13.0886], [80.28711, 13.0886], [80.28836, 13.08871], [80.28938, 13.08886], [80.28993, 13.08888], [80.29001, 13.08891], [80.29006, 13.08893], [80.29036, 13.08897], [80.29053, 13.08932], [80.29106, 13.09074], [80.29152, 13.09219], [80.29202, 13.09368], [80.29227, 13.09451], [80.29286, 13.09627], [80.29343, 13.09797], [80.29365, 13.09862], [80.29397, 13.09968], [80.29408, 13.10008], [80.29429, 13.10116], [80.29427, 13.10126], [80.29421, 13.10135], [80.29402, 13.10153], [80.2937, 13.10172], [80.29346, 13.10183], [80.2928, 13.10206], [80.29195, 13.10226], [80.29111, 13.10249], [80.29078, 13.10266], [80.28996, 13.10303], [80.28983, 13.10307], [80.28893, 13.1035], [80.28798, 13.10395], [80.28767, 13.10407], [80.28715, 13.10428], [80.28692, 13.10434], [80.28689, 13.1043], [80.28683, 13.10428], [80.28679, 13.10428], [80.28672, 13.10432], [80.2867, 13.1044], [80.2867, 13.10442], [80.28643, 13.10454], [80.28613, 13.10461], [80.28571, 13.10477], [80.28552, 13.10486], [80.28526, 13.10492], [80.28462, 13.10503], [80.28415, 13.10507], [80.28412, 13.10507], [80.28395, 13.10511], [80.28377, 13.10513], [80.28316, 13.10521], [80.28215, 13.10537], [80.28214, 13.10535], [80.28189, 13.10532], [80.28148, 13.10538], [80.28064, 13.10545], [80.28019, 13.10549], [80.27974, 13.10548], [80.27958, 13.10544], [80.27851, 13.10499], [80.27785, 13.10473], [80.27709, 13.10438], [80.27629, 13.10407], [80.27592, 13.10394], [80.27597, 13.10363], [80.27599, 13.10351], [80.27607, 13.10314], [80.27612, 13.10236], [80.27615, 13.10214], [80.27555, 13.10206], [80.27445, 13.10192], [80.27436, 13.10189], [80.27392, 13.10285], [80.27347, 13.10392], [80.27332, 13.1039], [80.27314, 13.10387], [80.27254, 13.1038], [80.27239, 13.10386], [80.27224, 13.10399], [80.27205, 13.10417], [80.27189, 13.10429], [80.27173, 13.10435], [80.27144, 13.10443], [80.27132, 13.10443], [80.27124, 13.10456], [80.271, 13.10515], [80.27085, 13.10544], [80.27061, 13.10572], [80.26972, 13.10656], [80.26942, 13.10687], [80.26929, 13.10693], [80.26908, 13.10712], [80.26842, 13.10779], [80.26825, 13.10794], [80.26782, 13.10837], [80.26719, 13.10899], [80.26715, 13.10903], [80.26655, 13.10964], [80.26646, 13.10976], [80.26601, 13.11033], [80.26559, 13.11087], [80.26558, 13.11092], [80.26551, 13.11095], [80.26543, 13.11104], [80.26499, 13.11153], [80.26486, 13.11167], [80.26439, 13.1123], [80.26385, 13.11306], [80.26371, 13.1133], [80.26363, 13.11342], [80.26363, 13.11349], [80.26357, 13.11388], [80.26355, 13.11411], [80.26273, 13.11419], [80.2624, 13.11422], [80.26138, 13.11422], [80.26145, 13.11446], [80.2617, 13.11535], [80.26186, 13.11595], [80.26196, 13.11634], [80.26201, 13.11683], [80.26201, 13.11744], [80.26199, 13.1175], [80.26175, 13.11779], [80.26159, 13.1179], [80.26134, 13.11799], [80.26051, 13.11813], [80.25993, 13.11822], [80.25941, 13.11832], [80.25937, 13.11833], [80.25811, 13.11861], [80.25714, 13.11884], [80.25687, 13.11894], [80.2563, 13.1192], [80.25577, 13.11946], [80.2556, 13.11957], [80.25528, 13.11978], [80.25483, 13.12015], [80.25446, 13.12051], [80.25396, 13.121], [80.2537, 13.1212], [80.25335, 13.12136], [80.25311, 13.12144], [80.25257, 13.12158], [80.25146, 13.12188], [80.25101, 13.12207], [80.25004, 13.12249], [80.24922, 13.12283], [80.24892, 13.12302], [80.24822, 13.1236], [80.24709, 13.12457], [80.24676, 13.12487], [80.2463, 13.12534], [80.24583, 13.12574], [80.24512, 13.12628], [80.24448, 13.12676], [80.24391, 13.12716], [80.24385, 13.12715], [80.24359, 13.12734], [80.24328, 13.12756], [80.24286, 13.12784], [80.24252, 13.12809], [80.24205, 13.12842], [80.24155, 13.12876], [80.24115, 13.12904], [80.23916, 13.1305], [80.23905, 13.1306], [80.23901, 13.1307], [80.23841, 13.13118], [80.23712, 13.13205], [80.23516, 13.13344], [80.23471, 13.13377], [80.23383, 13.13441], [80.23186, 13.13588], [80.23101, 13.13652], [80.22813, 13.13864], [80.22789, 13.13882], [80.2247, 13.14118], [80.22247, 13.14279], [80.22191, 13.1432], [80.22159, 13.14341], [80.22083, 13.14395], [80.22066, 13.14403], [80.22048, 13.14408], [80.22022, 13.14409], [80.2201, 13.14408], [80.21999, 13.1441], [80.21988, 13.14414], [80.21978, 13.14421], [80.21971, 13.14429], [80.21965, 13.1444], [80.21962, 13.14452], [80.21941, 13.14497], [80.21934, 13.14505], [80.2181, 13.14593], [80.21532, 13.14795], [80.21444, 13.14859], [80.2132, 13.14952], [80.21123, 13.15102], [80.20981, 13.1521], [80.20965, 13.15221], [80.20961, 13.1522], [80.20953, 13.15224], [80.20917, 13.15245], [80.209, 13.15259], [80.20888, 13.15269], [80.20832, 13.15312], [80.20826, 13.15316], [80.20687, 13.15421], [80.20597, 13.15496], [80.20549, 13.15543], [80.20497, 13.156], [80.20506, 13.15606], [80.20491, 13.15623], [80.20475, 13.15641], [80.20456, 13.15668], [80.20434, 13.15702], [80.20412, 13.15742], [80.20399, 13.15767], [80.20371, 13.15827], [80.20361, 13.15852], [80.20334, 13.15943], [80.20288, 13.16199], [80.20267, 13.16308], [80.20233, 13.1643], [80.20197, 13.16551], [80.20184, 13.16583], [80.20154, 13.16648], [80.20096, 13.16752], [80.2009, 13.16754], [80.20067, 13.16788], [80.20041, 13.16834], [80.20019, 13.16867], [80.19981, 13.16941], [80.19924, 13.17046], [80.19901, 13.17087], [80.19861, 13.17161], [80.198, 13.17268], [80.19734, 13.17387], [80.1968, 13.17481], [80.19635, 13.17568], [80.19617, 13.17601], [80.19532, 13.17743], [80.19487, 13.17829], [80.19481, 13.17839], [80.19432, 13.17924], [80.1933, 13.18105], [80.19337, 13.18108], [80.1933, 13.1812], [80.19268, 13.1823], [80.19237, 13.18294], [80.19225, 13.18326], [80.19216, 13.18362], [80.19205, 13.18411], [80.1918, 13.18415], [80.1917, 13.18419], [80.19167, 13.18423], [80.19143, 13.18466], [80.1911, 13.18514], [80.19086, 13.18547], [80.19069, 13.18565], [80.19029, 13.18601], [80.19016, 13.18613], [80.19005, 13.18625], [80.18981, 13.18673], [80.18951, 13.18741], [80.18938, 13.18759], [80.18924, 13.18772], [80.18914, 13.18783], [80.18906, 13.18793], [80.18873, 13.18822], [80.18835, 13.18856], [80.18796, 13.18899], [80.1879, 13.18902], [80.18766, 13.18927], [80.18599, 13.19114], [80.18445, 13.19277], [80.18414, 13.19313], [80.18387, 13.19341], [80.18365, 13.19369], [80.18324, 13.19411], [80.18286, 13.19453], [80.18249, 13.19493], [80.18142, 13.19609], [80.18113, 13.19642], [80.18112, 13.19642], [80.18111, 13.19642], [80.1811, 13.19643], [80.18108, 13.19644], [80.18107, 13.19647], [80.18107, 13.19649], [80.18088, 13.19671], [80.18005, 13.19753], [80.17973, 13.19787], [80.17904, 13.1988], [80.17884, 13.19906], [80.17889, 13.19911], [80.1785, 13.19964], [80.17769, 13.20071], [80.1776, 13.20085], [80.17568, 13.20338], [80.17566, 13.20341], [80.17559, 13.20338], [80.17497, 13.20421], [80.17475, 13.20452], [80.1734, 13.20662], [80.17284, 13.20758], [80.1725, 13.20833], [80.17251, 13.20846], [80.17213, 13.2093], [80.17201, 13.2096], [80.17109, 13.21202], [80.17076, 13.2129], [80.17045, 13.21377], [80.17012, 13.21462], [80.16954, 13.21608], [80.1691, 13.21726], [80.16835, 13.21946], [80.16813, 13.22006], [80.16802, 13.22017], [80.16787, 13.22048], [80.16767, 13.22094], [80.16755, 13.22133], [80.16714, 13.22239], [80.16691, 13.22299], [80.167, 13.22306], [80.16657, 13.22425], [80.16638, 13.22472], [80.16613, 13.22525], [80.16592, 13.22561], [80.16566, 13.226], [80.1654, 13.2263], [80.16505, 13.22665], [80.16499, 13.22671], [80.16509, 13.22681], [80.1652, 13.22689], [80.16528, 13.22691], [80.16543, 13.22695], [80.16553, 13.22701], [80.16556, 13.22704], [80.16558, 13.22712], [80.16558, 13.22716], [80.16558, 13.22731], [80.16544, 13.22773], [80.16465, 13.22972], [80.16336, 13.2329], [80.16237, 13.23529], [80.16215, 13.23583], [80.16146, 13.23756], [80.16117, 13.2385], [80.16093, 13.23925], [80.16079, 13.23983], [80.16059, 13.24043], [80.16025, 13.24134], [80.16004, 13.24194], [80.15967, 13.24282], [80.15966, 13.24284], [80.15907, 13.24419], [80.15788, 13.24638], [80.15757, 13.247], [80.15638, 13.24933], [80.15579, 13.25052], [80.1555, 13.25134], [80.15541, 13.2521], [80.15534, 13.25292], [80.15524, 13.25346], [80.15504, 13.25392], [80.15491, 13.25394], [80.15442, 13.25291], [80.15409, 13.25306], [80.15455, 13.2538], [80.15486, 13.25455], [80.15497, 13.25502], [80.15511, 13.25646], [80.15532, 13.25811], [80.15543, 13.25925], [80.15526, 13.26061], [80.15514, 13.26107], [80.15486, 13.26198], [80.15488, 13.26204], [80.1547, 13.26239], [80.15466, 13.26261], [80.15464, 13.26297], [80.15459, 13.26321], [80.15446, 13.26367], [80.15421, 13.2645], [80.15371, 13.26641], [80.15316, 13.26834], [80.15263, 13.27013], [80.15235, 13.27093], [80.1518, 13.27254], [80.1517, 13.27278], [80.15129, 13.27398], [80.15109, 13.27455], [80.15059, 13.27596], [80.1504, 13.27646], [80.15022, 13.27706], [80.15007, 13.27786], [80.14996, 13.27793], [80.14991, 13.27828], [80.14984, 13.27858], [80.1498, 13.27891], [80.14972, 13.27954], [80.14961, 13.28027], [80.14938, 13.28186], [80.14922, 13.28305], [80.14895, 13.28478], [80.14885, 13.28556], [80.14876, 13.28611], [80.14872, 13.28648], [80.14846, 13.28863], [80.14831, 13.29031], [80.14817, 13.29126], [80.14814, 13.29176], [80.14813, 13.29202], [80.14804, 13.2926], [80.14793, 13.29351], [80.1478, 13.29496], [80.14765, 13.29618], [80.1476, 13.29661], [80.14749, 13.29722], [80.14729, 13.2993], [80.14708, 13.30129], [80.1467, 13.30456], [80.1468, 13.30457], [80.14668, 13.306], [80.14651, 13.30747], [80.14624, 13.30998], [80.146, 13.31213], [80.14589, 13.31319], [80.14579, 13.31313], [80.14563, 13.31463], [80.14525, 13.31816], [80.14508, 13.31959], [80.14484, 13.32174], [80.14474, 13.32253], [80.14468, 13.32321], [80.14442, 13.32546], [80.14437, 13.32621], [80.14436, 13.32649], [80.14433, 13.32666], [80.14423, 13.32737], [80.14417, 13.32829], [80.14411, 13.32884], [80.14411, 13.32893], [80.14417, 13.32903], [80.14411, 13.32951], [80.14404, 13.33025], [80.14399, 13.3307], [80.14394, 13.33137], [80.14388, 13.33142], [80.14382, 13.33154], [80.14379, 13.33172], [80.14356, 13.33287], [80.14318, 13.33439], [80.14312, 13.33479], [80.14306, 13.33515], [80.14306, 13.33573], [80.14309, 13.336], [80.14317, 13.33614], [80.14317, 13.33621], [80.14316, 13.33686], [80.14316, 13.33735], [80.14318, 13.33773], [80.14321, 13.33837], [80.14326, 13.33885], [80.14341, 13.33969], [80.14362, 13.34074], [80.14387, 13.34196], [80.14404, 13.34297], [80.14408, 13.34358], [80.14408, 13.34375], [80.14403, 13.34443], [80.14396, 13.34485], [80.14383, 13.34538], [80.14327, 13.34687], [80.14308, 13.34744], [80.14285, 13.34812], [80.1427, 13.34863], [80.1423, 13.35031], [80.14221, 13.3507], [80.14209, 13.35086], [80.14202, 13.35097], [80.14197, 13.35126], [80.14177, 13.35213], [80.14161, 13.35283], [80.14141, 13.35375], [80.14118, 13.35461], [80.14096, 13.35564], [80.14092, 13.3559], [80.14093, 13.35606], [80.14095, 13.35616], [80.14085, 13.35662], [80.14029, 13.35922], [80.14002, 13.36063], [80.13993, 13.36076], [80.13989, 13.36094], [80.13974, 13.36177], [80.13967, 13.3622], [80.13948, 13.36367], [80.13947, 13.3637], [80.1393, 13.3648], [80.13917, 13.36552], [80.13911, 13.36594], [80.13906, 13.36606], [80.13903, 13.36621], [80.13899, 13.36694], [80.139, 13.36701], [80.1389, 13.36761], [80.13847, 13.36999], [80.13842, 13.37025], [80.13825, 13.3712], [80.13818, 13.37135], [80.13802, 13.37208], [80.13768, 13.37409], [80.13764, 13.37431], [80.13754, 13.37528], [80.13742, 13.37618], [80.13729, 13.37725], [80.1372, 13.37769], [80.1367, 13.38003], [80.13656, 13.38068], [80.13665, 13.38073], [80.13627, 13.38254], [80.13541, 13.38643], [80.13528, 13.3871], [80.13492, 13.38859], [80.1343, 13.39054], [80.1342, 13.39062], [80.13415, 13.39068], [80.134, 13.39109], [80.1334, 13.39316], [80.13265, 13.39529], [80.13254, 13.39566], [80.13264, 13.3957], [80.13275, 13.39576], [80.13285, 13.39586], [80.13289, 13.3959], [80.13296, 13.3961], [80.13294, 13.39623], [80.13274, 13.39677], [80.13214, 13.39803], [80.13204, 13.39831], [80.13201, 13.39848], [80.13201, 13.39891], [80.13199, 13.39934], [80.13193, 13.39953], [80.13182, 13.39969], [80.13162, 13.39985], [80.13116, 13.40013], [80.13094, 13.40029], [80.13068, 13.4006], [80.13027, 13.40116], [80.12936, 13.40267], [80.12871, 13.40368], [80.12835, 13.40417], [80.12818, 13.40447], [80.12804, 13.40476], [80.12791, 13.40511], [80.12734, 13.40667], [80.12698, 13.40779], [80.12692, 13.408], [80.12719, 13.40799], [80.12692, 13.408], [80.12683, 13.40836], [80.1268, 13.40859], [80.12676, 13.40866], [80.12675, 13.40895], [80.12672, 13.40995], [80.1267, 13.41031], [80.12674, 13.41128], [80.12676, 13.41145], [80.12684, 13.41182], [80.12691, 13.41286], [80.12691, 13.41293], [80.12769, 13.41309], [80.12893, 13.41333], [80.13076, 13.41373], [80.13111, 13.41384], [80.13158, 13.41408], [80.13225, 13.41447], [80.13377, 13.41537], [80.13471, 13.41584], [80.13489, 13.41592], [80.13825, 13.41737], [80.13872, 13.41759], [80.13978, 13.41806], [80.14014, 13.41819], [80.14075, 13.41845], [80.14108, 13.41859], [80.14278, 13.41933], [80.14481, 13.42024], [80.14819, 13.42175], [80.14926, 13.42222], [80.15071, 13.42292], [80.15261, 13.42377], [80.15373, 13.42428], [80.15486, 13.42479], [80.15552, 13.42506], [80.15571, 13.42513], [80.15573, 13.42514], [80.15716, 13.42566], [80.15764, 13.42587], [80.15823, 13.42617], [80.15882, 13.42641], [80.15941, 13.42662], [80.16078, 13.42703], [80.16109, 13.42712], [80.1622, 13.42764], [80.16341, 13.4282], [80.16362, 13.42828], [80.16409, 13.42843], [80.16458, 13.42856], [80.16509, 13.42863], [80.16673, 13.42873], [80.16712, 13.42877], [80.16747, 13.42877], [80.16821, 13.42877], [80.16859, 13.42879], [80.16883, 13.42883], [80.16912, 13.42888], [80.16988, 13.429], [80.16988, 13.42904], [80.16988, 13.42906], [80.17004, 13.42909], [80.17056, 13.42925], [80.17105, 13.42942], [80.17227, 13.4295], [80.17374, 13.42962], [80.17417, 13.42963], [80.17498, 13.42948], [80.17549, 13.42936], [80.17563, 13.42936], [80.17716, 13.42912], [80.17823, 13.42886], [80.179, 13.42878], [80.17974, 13.42866], [80.1798, 13.42874], [80.17984, 13.4288], [80.17989, 13.42894], [80.17994, 13.42936], [80.18005, 13.42956], [80.18019, 13.4297], [80.18059, 13.43019], [80.18085, 13.4304], [80.1811, 13.43066], [80.18128, 13.43085], [80.18155, 13.43112], [80.18165, 13.43119], [80.18185, 13.43132], [80.18223, 13.4315], [80.18231, 13.43158], [80.18234, 13.43167], [80.18226, 13.43186], [80.18214, 13.43201], [80.18201, 13.43226], [80.18172, 13.43279], [80.18148, 13.43335], [80.18127, 13.43348], [80.18126, 13.43356], [80.18129, 13.43375], [80.18128, 13.43398], [80.1813, 13.43447], [80.18129, 13.435], [80.18132, 13.43531], [80.18136, 13.43536], [80.18146, 13.4354], [80.1823, 13.43538], [80.18236, 13.4354], [80.18242, 13.43551], [80.18269, 13.43745], [80.18268, 13.4377], [80.18273, 13.43775], [80.18276, 13.43785], [80.18276, 13.43787], [80.18278, 13.4389], [80.1828, 13.43922], [80.18286, 13.43932], [80.18295, 13.43941], [80.18303, 13.43947], [80.18335, 13.43969], [80.18362, 13.43982], [80.18429, 13.44013], [80.185, 13.44045], [80.18565, 13.44071], [80.18608, 13.44091], [80.18631, 13.44105], [80.18776, 13.44205], [80.18904, 13.44292], [80.18952, 13.44323], [80.19016, 13.44358], [80.19127, 13.44411], [80.19149, 13.44423], [80.19157, 13.44429], [80.19168, 13.44442], [80.19307, 13.44619], [80.19313, 13.44627], [80.19318, 13.44646], [80.19331, 13.44713], [80.19351, 13.44809], [80.19409, 13.45062], [80.19414, 13.45087], [80.19418, 13.45151], [80.19426, 13.45204], [80.19447, 13.45282], [80.19459, 13.45338], [80.19461, 13.45389], [80.19462, 13.45395], [80.19475, 13.45415], [80.19485, 13.45423], [80.19493, 13.45426], [80.19563, 13.45438], [80.19643, 13.45454], [80.1967, 13.4546], [80.19678, 13.45459], [80.19685, 13.45455], [80.19708, 13.45434], [80.19721, 13.45424], [80.19748, 13.45411], [80.19752, 13.45407], [80.19756, 13.454], [80.19761, 13.45369], [80.19766, 13.45359], [80.19774, 13.45352], [80.19794, 13.45338], [80.19843, 13.45314], [80.19857, 13.45309], [80.19879, 13.45306], [80.19959, 13.45305], [80.20038, 13.45302], [80.20143, 13.45302], [80.20173, 13.45296], [80.20187, 13.45293], [80.20226, 13.45279], [80.20267, 13.45265], [80.20431, 13.45212], [80.20448, 13.45212], [80.20487, 13.45218], [80.20514, 13.45224], [80.20536, 13.45231], [80.20614, 13.4527], [80.20672, 13.45289], [80.20703, 13.45303], [80.20756, 13.45343], [80.20808, 13.4537], [80.20861, 13.45395], [80.2088, 13.454], [80.20918, 13.45404], [80.20975, 13.45406], [80.20983, 13.45407], [80.21037, 13.45433], [80.21059, 13.45439], [80.21102, 13.45445], [80.21114, 13.4545], [80.21121, 13.45456], [80.21141, 13.45475], [80.21156, 13.45502], [80.21167, 13.45526], [80.21182, 13.45548], [80.21202, 13.45573], [80.21221, 13.45595], [80.21268, 13.45649], [80.21301, 13.45667], [80.21344, 13.45695], [80.21369, 13.45707], [80.21395, 13.45715], [80.21456, 13.45727], [80.21489, 13.45728], [80.21518, 13.45728], [80.21544, 13.45734], [80.21628, 13.45758], [80.21639, 13.45759], [80.21697, 13.45752], [80.21712, 13.45745], [80.21785, 13.45716], [80.21821, 13.45706], [80.2192, 13.45671], [80.22089, 13.45608], [80.22302, 13.45532], [80.22328, 13.45525], [80.22377, 13.4552], [80.22418, 13.45518], [80.22425, 13.45517], [80.22439, 13.45525], [80.2245, 13.45528], [80.22878, 13.45593], [80.23074, 13.45626], [80.23119, 13.45637], [80.23147, 13.45647], [80.2317, 13.45666], [80.23196, 13.45694], [80.23258, 13.45754], [80.23383, 13.45853], [80.23399, 13.45862], [80.23414, 13.45865], [80.23488, 13.45861], [80.23611, 13.45873], [80.23623, 13.45874], [80.23646, 13.45872], [80.23658, 13.45869], [80.23718, 13.45856], [80.2381, 13.45831], [80.23904, 13.45807], [80.23948, 13.45802], [80.23996, 13.45798], [80.24011, 13.458], [80.24016, 13.45803], [80.24057, 13.45833], [80.24072, 13.4584], [80.24087, 13.45844], [80.24152, 13.45845], [80.24179, 13.45843], [80.24198, 13.45845], [80.24269, 13.45863], [80.2434, 13.45882], [80.24361, 13.45888], [80.24396, 13.45907], [80.24425, 13.45936], [80.24475, 13.46013], [80.24513, 13.46072], [80.24538, 13.46099], [80.24568, 13.46127], [80.24608, 13.46146], [80.24674, 13.4616], [80.24719, 13.46168], [80.2476, 13.46161], [80.24792, 13.4615], [80.24814, 13.4614], [80.24839, 13.46131], [80.24864, 13.46126], [80.24875, 13.46129], [80.24883, 13.46134], [80.24904, 13.46158], [80.24929, 13.4618], [80.24949, 13.4619], [80.24974, 13.46199], [80.25007, 13.46207], [80.25024, 13.46207], [80.25035, 13.46207], [80.25093, 13.46181], [80.25129, 13.46155], [80.25156, 13.46128], [80.25243, 13.46042], [80.25346, 13.45945], [80.25425, 13.45874], [80.25525, 13.4579], [80.25576, 13.45755], [80.25616, 13.45731], [80.25672, 13.45715], [80.25743, 13.457], [80.25794, 13.45694], [80.2583, 13.45692], [80.25867, 13.45698], [80.25905, 13.45705], [80.2595, 13.45711], [80.25976, 13.4572], [80.25992, 13.45727], [80.26019, 13.45743], [80.26047, 13.45758], [80.2606, 13.4576], [80.26081, 13.45756], [80.26101, 13.45752], [80.26111, 13.45746], [80.26125, 13.45739], [80.26167, 13.45717]]}}]}