{"type": "FeatureCollection", "features": [{"type": "Feature", "properties": {"route_name": "S60", "stop_id": "oiYuCTCe", "name": "Maduravoyal Yerikarai", "city": "CHENNAI"}, "geometry": {"type": "Point", "coordinates": [80.16451631482187, 13.061180076950619]}}, {"type": "Feature", "properties": {"route_name": "S60", "stop_id": "HFPiIGml", "name": "Alapakkam Maduravoyal", "city": "CHENNAI"}, "geometry": {"type": "Point", "coordinates": [80.16388071412085, 13.061197748031185]}}, {"type": "Feature", "properties": {"route_name": "S60", "stop_id": "aVUzYSQO", "name": "Semathaman Koil Street", "city": "CHENNAI"}, "geometry": {"type": "Point", "coordinates": [80.1734592187085, 13.057372704853439]}}, {"type": "Feature", "properties": {"route_name": "S60", "stop_id": "milnYPMi", "name": "Mettukuppam", "city": "CHENNAI"}, "geometry": {"type": "Point", "coordinates": [80.17400801442669, 13.056672140086562]}}, {"type": "Feature", "properties": {"route_name": "S60", "stop_id": "fGXmItHd", "name": "Sudalai Madaswamy Koil", "city": "CHENNAI"}, "geometry": {"type": "Point", "coordinates": [80.17359367915061, 13.054998600544263]}}, {"type": "Feature", "properties": {"route_name": "S60", "stop_id": "ewsKrSMC", "name": "Ganga Nagar", "city": "CHENNAI"}, "geometry": {"type": "Point", "coordinates": [80.17589380460502, 13.054051508095267]}}, {"type": "Feature", "properties": {"route_name": "S60", "stop_id": "HpZFmOmf", "name": "Gandhi Street", "city": "CHENNAI"}, "geometry": {"type": "Point", "coordinates": [80.17793709048412, 13.055368556259964]}}, {"type": "Feature", "properties": {"route_name": "S60", "stop_id": "uLiZHQHT", "name": "Mr School", "city": "CHENNAI"}, "geometry": {"type": "Point", "coordinates": [80.18090532084942, 13.057621568755028]}}, {"type": "Feature", "properties": {"route_name": "S60", "stop_id": "dmXlVckI", "name": "Nesamal Nagar", "city": "CHENNAI"}, "geometry": {"type": "Point", "coordinates": [80.18130736470651, 13.060492970296194]}}, {"type": "Feature", "properties": {"route_name": "S60", "stop_id": "lBfCZmxi", "name": "Sakthi Nagar", "city": "CHENNAI"}, "geometry": {"type": "Point", "coordinates": [80.18203219787647, 13.06261623185674]}}, {"type": "Feature", "properties": {"route_name": "S60", "stop_id": "DiSZtaQb", "name": "Cdn Nagar", "city": "CHENNAI"}, "geometry": {"type": "Point", "coordinates": [80.17958705216692, 13.062803235583168]}}, {"type": "Feature", "properties": {"route_name": "S60", "stop_id": "ClVKwxYe", "name": "Mandhavelli Street", "city": "CHENNAI"}, "geometry": {"type": "Point", "coordinates": [80.1812596061516, 13.067481177277225]}}, {"type": "Feature", "properties": {"route_name": "S60", "stop_id": "nCsqpnJo", "name": "Vengaya Mandi", "city": "CHENNAI"}, "geometry": {"type": "Point", "coordinates": [80.18155052810914, 13.07003714330579]}}, {"type": "Feature", "properties": {"route_name": "S60", "stop_id": "owFNQNZv", "name": "Nerkundram", "city": "CHENNAI"}, "geometry": {"type": "Point", "coordinates": [80.18548770963264, 13.071513437160451]}}, {"type": "Feature", "properties": {"route_name": "S60", "stop_id": "RjtzWJgw", "name": "Mettukulam", "city": "CHENNAI"}, "geometry": {"type": "Point", "coordinates": [80.1924946938658, 13.074318754396097]}}, {"type": "Feature", "properties": {"route_name": "S60", "stop_id": "xiCfcAgb", "name": "Rohini Theatre", "city": "CHENNAI"}, "geometry": {"type": "Point", "coordinates": [80.19582407794906, 13.075332191278791]}}, {"type": "Feature", "properties": {"route_name": "S60", "stop_id": "AszcEtOu", "name": "Koyambedu Chathiram", "city": "CHENNAI"}, "geometry": {"type": "Point", "coordinates": [80.20035161971282, 13.073937556098661]}}, {"type": "Feature", "properties": {"route_name": "S60", "stop_id": "BpAiVnps", "name": "CMBT Koyembedu Bus Depot", "city": "CHENNAI"}, "geometry": {"type": "Point", "coordinates": [80.20518932458458, 13.068981607807045]}}, {"type": "Feature", "properties": {"name": "S60"}, "geometry": {"type": "LineString", "coordinates": [[80.1645, 13.06129], [80.16419, 13.06124], [80.16388, 13.06123], [80.16386, 13.0612], [80.1639, 13.06059], [80.16397, 13.06034], [80.16408, 13.0602], [80.1642, 13.06011], [80.16428, 13.06008], [80.16465, 13.05999], [80.1651, 13.0599], [80.16547, 13.05984], [80.1657, 13.05979], [80.16579, 13.05973], [80.16594, 13.05956], [80.16617, 13.05924], [80.16626, 13.05905], [80.16634, 13.05866], [80.16635, 13.05856], [80.16656, 13.05856], [80.16676, 13.05856], [80.16701, 13.05853], [80.16719, 13.05849], [80.1676, 13.05836], [80.16793, 13.0582], [80.16822, 13.05798], [80.16835, 13.05794], [80.16892, 13.05783], [80.16945, 13.05769], [80.1698, 13.05757], [80.17019, 13.05742], [80.17055, 13.05726], [80.17071, 13.05725], [80.171, 13.0572], [80.17125, 13.05718], [80.17147, 13.05721], [80.17152, 13.05725], [80.17155, 13.05732], [80.17161, 13.05738], [80.17175, 13.0574], [80.17236, 13.05738], [80.17337, 13.05736], [80.17346, 13.05736], [80.174, 13.05734], [80.17399, 13.05671], [80.17398, 13.05667], [80.17396, 13.05592], [80.17394, 13.05567], [80.17392, 13.05561], [80.17386, 13.05556], [80.17366, 13.05547], [80.1736, 13.05537], [80.17357, 13.05501], [80.17358, 13.05493], [80.17361, 13.05489], [80.17367, 13.05486], [80.17396, 13.0548], [80.17418, 13.05478], [80.1744, 13.05472], [80.17451, 13.05467], [80.17461, 13.05456], [80.17457, 13.05404], [80.1753, 13.05397], [80.17591, 13.05391], [80.17592, 13.05405], [80.17594, 13.0545], [80.17627, 13.05446], [80.17749, 13.0543], [80.17786, 13.05426], [80.17789, 13.05438], [80.17796, 13.05524], [80.17796, 13.05537], [80.17795, 13.05557], [80.17813, 13.05556], [80.17903, 13.05556], [80.18016, 13.05554], [80.18032, 13.05602], [80.18049, 13.05646], [80.18068, 13.05685], [80.1809, 13.05745], [80.18094, 13.05762], [80.18098, 13.05783], [80.18099, 13.05821], [80.18105, 13.05889], [80.18106, 13.05912], [80.1812, 13.06045], [80.18131, 13.06047], [80.18193, 13.06055], [80.18207, 13.0606], [80.18213, 13.06068], [80.18234, 13.06115], [80.18265, 13.06172], [80.18269, 13.06193], [80.1827, 13.06202], [80.18267, 13.06229], [80.18262, 13.0624], [80.18257, 13.06244], [80.18219, 13.06259], [80.18204, 13.06264], [80.18181, 13.06272], [80.18154, 13.06277], [80.18128, 13.0628], [80.18096, 13.0628], [80.18037, 13.06278], [80.17996, 13.06278], [80.17959, 13.06283], [80.17937, 13.06286], [80.17932, 13.06299], [80.17925, 13.0634], [80.17925, 13.06362], [80.17928, 13.06382], [80.17934, 13.06447], [80.17942, 13.06554], [80.17944, 13.06607], [80.17952, 13.06641], [80.17961, 13.06662], [80.17974, 13.06687], [80.17983, 13.06699], [80.17998, 13.06715], [80.18032, 13.0674], [80.18044, 13.06746], [80.18081, 13.06746], [80.18126, 13.06745], [80.18131, 13.06805], [80.1813, 13.06862], [80.18128, 13.06907], [80.1812, 13.06949], [80.181, 13.06939], [80.18035, 13.06893], [80.18002, 13.06872], [80.17943, 13.06831], [80.17885, 13.06794], [80.17848, 13.0677], [80.17828, 13.06758], [80.17823, 13.0677], [80.17872, 13.06801], [80.17918, 13.06828], [80.1797, 13.06866], [80.1804, 13.06912], [80.18113, 13.06963], [80.18157, 13.06996], [80.18158, 13.06996], [80.1823, 13.07036], [80.18252, 13.07049], [80.18274, 13.07058], [80.18318, 13.07078], [80.18367, 13.07097], [80.18551, 13.07144], [80.18633, 13.07167], [80.18657, 13.07175], [80.18743, 13.0721], [80.18904, 13.07282], [80.18946, 13.07305], [80.18963, 13.07316], [80.19, 13.07344], [80.1905, 13.07392], [80.19079, 13.07415], [80.19106, 13.07428], [80.1913, 13.07433], [80.19151, 13.07435], [80.19172, 13.07434], [80.19197, 13.07429], [80.19249, 13.07424], [80.19362, 13.0742], [80.19379, 13.07422], [80.19412, 13.07433], [80.19432, 13.07446], [80.1946, 13.07469], [80.19489, 13.07492], [80.19522, 13.07511], [80.19583, 13.07533], [80.19621, 13.07543], [80.19643, 13.07548], [80.19653, 13.07548], [80.19703, 13.07562], [80.19796, 13.07587], [80.19827, 13.07596], [80.19893, 13.07617], [80.19926, 13.07624], [80.19987, 13.07637], [80.19997, 13.07646], [80.20002, 13.07653], [80.20004, 13.07662], [80.20004, 13.07669], [80.20002, 13.07676], [80.19997, 13.07682], [80.19985, 13.07688], [80.19955, 13.07684], [80.19944, 13.0768], [80.19932, 13.07673], [80.19923, 13.07664], [80.19919, 13.07654], [80.19917, 13.07639], [80.19915, 13.07635], [80.19926, 13.07564], [80.19933, 13.07537], [80.19936, 13.07517], [80.19942, 13.07502], [80.19962, 13.07463], [80.19968, 13.07452], [80.19979, 13.07442], [80.20033, 13.07392], [80.20175, 13.07265], [80.20317, 13.07149], [80.20468, 13.0703], [80.20552, 13.06969], [80.20581, 13.06953], [80.20575, 13.06943], [80.20559, 13.06927], [80.2055, 13.06917], [80.20541, 13.06908], [80.2054, 13.06892], [80.20543, 13.06881], [80.20522, 13.06891], [80.20487, 13.06907]]}}]}