{"type": "FeatureCollection", "features": [{"type": "Feature", "properties": {"route_name": "88R", "stop_id": "MDITHsTH", "name": "Amarambedu", "city": "CHENNAI"}, "geometry": {"type": "Point", "coordinates": [80.0148713457269, 12.964918388041184]}}, {"type": "Feature", "properties": {"route_name": "88R", "stop_id": "ZuMtkZMj", "name": "Amarambedu Chatram", "city": "CHENNAI"}, "geometry": {"type": "Point", "coordinates": [80.01322721951783, 12.964466603812705]}}, {"type": "Feature", "properties": {"route_name": "88R", "stop_id": "PCoLzpeW", "name": "Amarambedu Road", "city": "CHENNAI"}, "geometry": {"type": "Point", "coordinates": [80.01374626900326, 12.970180654154039]}}, {"type": "Feature", "properties": {"route_name": "88R", "stop_id": "vVYNiaQm", "name": "Kattrambakkam", "city": "CHENNAI"}, "geometry": {"type": "Point", "coordinates": [80.01830910869103, 12.969427638984307]}}, {"type": "Feature", "properties": {"route_name": "88R", "stop_id": "vXHOZRfg", "name": "Nallur Check Post", "city": "CHENNAI"}, "geometry": {"type": "Point", "coordinates": [80.03244166132527, 12.969323500700083]}}, {"type": "Feature", "properties": {"route_name": "88R", "stop_id": "SLBRjSUI", "name": "Somangalam Road Or N V R D Junction", "city": "CHENNAI"}, "geometry": {"type": "Point", "coordinates": [80.04842066147262, 12.975259804198124]}}, {"type": "Feature", "properties": {"route_name": "88R", "stop_id": "fDeHEcoN", "name": "Annai Anjugam Nagar", "city": "CHENNAI"}, "geometry": {"type": "Point", "coordinates": [80.05285815179013, 12.978173551645042]}}, {"type": "Feature", "properties": {"route_name": "88R", "stop_id": "zttQgzJF", "name": "Nandambakkam.Kalaignar Nagar", "city": "CHENNAI"}, "geometry": {"type": "Point", "coordinates": [80.05696000569574, 12.981007738169957]}}, {"type": "Feature", "properties": {"route_name": "88R", "stop_id": "hasgHIpb", "name": "Azhagesa Nagar", "city": "CHENNAI"}, "geometry": {"type": "Point", "coordinates": [80.06006165921099, 12.98261562408067]}}, {"type": "Feature", "properties": {"route_name": "88R", "stop_id": "mZFKHZkN", "name": "Nandambakkam", "city": "CHENNAI"}, "geometry": {"type": "Point", "coordinates": [80.06256213433585, 12.983820078586923]}}, {"type": "Feature", "properties": {"route_name": "88R", "stop_id": "WcOcULlY", "name": "Kaladipet", "city": "CHENNAI"}, "geometry": {"type": "Point", "coordinates": [80.06414732910378, 12.987171622501549]}}, {"type": "Feature", "properties": {"route_name": "88R", "stop_id": "aIrbaHhk", "name": "Sirukalathur Kozhi Pannai", "city": "CHENNAI"}, "geometry": {"type": "Point", "coordinates": [80.0749863960724, 12.994448556123151]}}, {"type": "Feature", "properties": {"route_name": "88R", "stop_id": "dYlTtQAF", "name": "Sirukalathur", "city": "CHENNAI"}, "geometry": {"type": "Point", "coordinates": [80.07833534168708, 12.995010710250932]}}, {"type": "Feature", "properties": {"route_name": "88R", "stop_id": "rJvLUxkA", "name": "Madha Engineering College", "city": "CHENNAI"}, "geometry": {"type": "Point", "coordinates": [80.08552390819591, 12.994581481416025]}}, {"type": "Feature", "properties": {"route_name": "88R", "stop_id": "SDEQaVyD", "name": "Shri Nagathaman Temple", "city": "CHENNAI"}, "geometry": {"type": "Point", "coordinates": [80.09742008141711, 13.000098709548327]}}, {"type": "Feature", "properties": {"route_name": "88R", "stop_id": "JGAJXRSN", "name": "Kundrathur Nalu Road Or Kolachery Junction", "city": "CHENNAI"}, "geometry": {"type": "Point", "coordinates": [80.09981155582136, 13.00363872474123]}}, {"type": "Feature", "properties": {"route_name": "88R", "stop_id": "jappmlZc", "name": "Moondram Kattalai", "city": "CHENNAI"}, "geometry": {"type": "Point", "coordinates": [80.10941124506519, 13.005490888908582]}}, {"type": "Feature", "properties": {"route_name": "88R", "stop_id": "GznDzxNt", "name": "Madha Hospital And College", "city": "CHENNAI"}, "geometry": {"type": "Point", "coordinates": [80.1126539210203, 13.00722375632246]}}, {"type": "Feature", "properties": {"route_name": "88R", "stop_id": "nxFmOJAJ", "name": "Kovur E B Office", "city": "CHENNAI"}, "geometry": {"type": "Point", "coordinates": [80.11439986531661, 13.010243716811747]}}, {"type": "Feature", "properties": {"route_name": "88R", "stop_id": "fjFZwaYy", "name": "Chekkady", "city": "CHENNAI"}, "geometry": {"type": "Point", "coordinates": [80.12372300240713, 13.010993771805726]}}, {"type": "Feature", "properties": {"route_name": "88R", "stop_id": "TFSGEQcQ", "name": "Periyapanicherry Church", "city": "CHENNAI"}, "geometry": {"type": "Point", "coordinates": [80.13006814042512, 13.011935282404538]}}, {"type": "Feature", "properties": {"route_name": "88R", "stop_id": "cfrRCwNB", "name": "Periyapanicherr", "city": "CHENNAI"}, "geometry": {"type": "Point", "coordinates": [80.13165231805488, 13.012564102004552]}}, {"type": "Feature", "properties": {"route_name": "88R", "stop_id": "YcrsfAeA", "name": "Gerugambakkam", "city": "CHENNAI"}, "geometry": {"type": "Point", "coordinates": [80.13667016540785, 13.015551851261105]}}, {"type": "Feature", "properties": {"route_name": "88R", "stop_id": "KCvWJpxq", "name": "Moulivakkam L and T", "city": "CHENNAI"}, "geometry": {"type": "Point", "coordinates": [80.1425371283774, 13.019196146525859]}}, {"type": "Feature", "properties": {"route_name": "88R", "stop_id": "qOuhMtTj", "name": "Bai Kadai Moulivakkam", "city": "CHENNAI"}, "geometry": {"type": "Point", "coordinates": [80.14403752357771, 13.0206316544367]}}, {"type": "Feature", "properties": {"route_name": "88R", "stop_id": "xOhGqygU", "name": "Madhanandapuram", "city": "CHENNAI"}, "geometry": {"type": "Point", "coordinates": [80.14585500896362, 13.022501966016423]}}, {"type": "Feature", "properties": {"route_name": "88R", "stop_id": "aUZoPZMc", "name": "Vigneshwara Nagar Porur", "city": "CHENNAI"}, "geometry": {"type": "Point", "coordinates": [80.15126246743534, 13.028342403422254]}}, {"type": "Feature", "properties": {"route_name": "88R", "stop_id": "CSzsuVOH", "name": "Porur E B Office", "city": "CHENNAI"}, "geometry": {"type": "Point", "coordinates": [80.15300194855627, 13.030960671410204]}}, {"type": "Feature", "properties": {"route_name": "88R", "stop_id": "dCWftKsk", "name": "Porur Junction", "city": "CHENNAI"}, "geometry": {"type": "Point", "coordinates": [80.15654241104505, 13.034646101280735]}}, {"type": "Feature", "properties": {"route_name": "88R", "stop_id": "xOHMcnRu", "name": "Gopala Krishna Theatre", "city": "CHENNAI"}, "geometry": {"type": "Point", "coordinates": [80.16161910799815, 13.033486859486517]}}, {"type": "Feature", "properties": {"route_name": "88R", "stop_id": "eusqYKWT", "name": "Porur Shakthi Nagar", "city": "CHENNAI"}, "geometry": {"type": "Point", "coordinates": [80.1650727836444, 13.031577374573306]}}, {"type": "Feature", "properties": {"route_name": "88R", "stop_id": "HezLsNFQ", "name": "Mugalivakkam", "city": "CHENNAI"}, "geometry": {"type": "Point", "coordinates": [80.16929956796639, 13.02925019842238]}}, {"type": "Feature", "properties": {"route_name": "88R", "stop_id": "tyeyrnYi", "name": "DLF", "city": "CHENNAI"}, "geometry": {"type": "Point", "coordinates": [80.17675585408479, 13.024968724712862]}}, {"type": "Feature", "properties": {"route_name": "88R", "stop_id": "hpCuKAjH", "name": "DLF Or L and T", "city": "CHENNAI"}, "geometry": {"type": "Point", "coordinates": [80.1789075996196, 13.02382173708155]}}, {"type": "Feature", "properties": {"route_name": "88R", "stop_id": "olAnplnl", "name": "Miot Hospital", "city": "CHENNAI"}, "geometry": {"type": "Point", "coordinates": [80.18448334669654, 13.02083165140758]}}, {"type": "Feature", "properties": {"route_name": "88R", "stop_id": "rBCwdRqs", "name": "Trade Centre Nandambakkam", "city": "CHENNAI"}, "geometry": {"type": "Point", "coordinates": [80.18994637, 13.01661131]}}, {"type": "Feature", "properties": {"route_name": "88R", "stop_id": "yrlDljAC", "name": "Military Quarters", "city": "CHENNAI"}, "geometry": {"type": "Point", "coordinates": [80.1958400582838, 13.010958239931021]}}, {"type": "Feature", "properties": {"route_name": "88R", "stop_id": "IoxYvxeH", "name": "Butt Road", "city": "CHENNAI"}, "geometry": {"type": "Point", "coordinates": [80.19798216625304, 13.008673080685035]}}, {"type": "Feature", "properties": {"route_name": "88R", "stop_id": "kVhbTVuU", "name": "Kathipara", "city": "CHENNAI"}, "geometry": {"type": "Point", "coordinates": [80.20231561780963, 13.008643215585867]}}, {"type": "Feature", "properties": {"route_name": "88R", "stop_id": "mnkgCFDT", "name": "Guindy Bus Terminus", "city": "CHENNAI"}, "geometry": {"type": "Point", "coordinates": [80.21114278309233, 13.009411553087547]}}, {"type": "Feature", "properties": {"route_name": "88R", "stop_id": "WOOyqinT", "name": "Chellammal College", "city": "CHENNAI"}, "geometry": {"type": "Point", "coordinates": [80.22076239073908, 13.012293483983404]}}, {"type": "Feature", "properties": {"route_name": "88R", "stop_id": "FyoAuDvn", "name": "Little Mount ", "city": "CHENNAI"}, "geometry": {"type": "Point", "coordinates": [80.2250649963828, 13.015597546918361]}}, {"type": "Feature", "properties": {"route_name": "88R", "stop_id": "NXLrCKMp", "name": "Panagal Maligai Or Saiadapet Bridge", "city": "CHENNAI"}, "geometry": {"type": "Point", "coordinates": [80.2243533022414, 13.019119618356324]}}, {"type": "Feature", "properties": {"route_name": "88R", "stop_id": "xiTGCYEl", "name": "Saidapet", "city": "CHENNAI"}, "geometry": {"type": "Point", "coordinates": [80.22645189784225, 13.02237471448576]}}, {"type": "Feature", "properties": {"name": "88R"}, "geometry": {"type": "LineString", "coordinates": [[80.01489, 12.96492], [80.01486, 12.96476], [80.01484, 12.96459], [80.01491, 12.96415], [80.01495, 12.96402], [80.01485, 12.96402], [80.01464, 12.96406], [80.01411, 12.96413], [80.01336, 12.96416], [80.01325, 12.96418], [80.01329, 12.96445], [80.01332, 12.96468], [80.01333, 12.9649], [80.01326, 12.9651], [80.01311, 12.96534], [80.01304, 12.96548], [80.01304, 12.96555], [80.0132, 12.96595], [80.01326, 12.96624], [80.01328, 12.96671], [80.01327, 12.9675], [80.01327, 12.96784], [80.01329, 12.96797], [80.01337, 12.96855], [80.01339, 12.96893], [80.01339, 12.96963], [80.01343, 12.97027], [80.01375, 12.97021], [80.01374, 12.97016], [80.01441, 12.97004], [80.01496, 12.96992], [80.01823, 12.96941], [80.0183, 12.9694], [80.02105, 12.969], [80.02345, 12.96866], [80.02447, 12.96856], [80.02602, 12.96846], [80.02711, 12.9685], [80.02876, 12.96862], [80.02962, 12.96871], [80.03071, 12.96889], [80.03163, 12.9691], [80.03245, 12.9693], [80.0348, 12.96992], [80.03585, 12.9702], [80.03657, 12.97035], [80.03788, 12.97058], [80.0392, 12.97078], [80.0395, 12.97084], [80.03976, 12.97092], [80.04023, 12.97111], [80.04072, 12.97134], [80.04124, 12.97163], [80.04167, 12.9719], [80.04293, 12.97274], [80.04392, 12.97339], [80.04477, 12.97387], [80.04534, 12.97415], [80.04569, 12.97427], [80.04638, 12.97443], [80.04716, 12.97464], [80.0476, 12.9748], [80.04805, 12.97502], [80.04843, 12.97525], [80.04983, 12.9761], [80.05078, 12.9767], [80.05167, 12.97731], [80.05238, 12.97779], [80.05287, 12.97815], [80.05427, 12.97919], [80.05528, 12.97992], [80.05635, 12.98063], [80.05698, 12.98095], [80.05744, 12.98112], [80.05821, 12.98146], [80.05858, 12.98168], [80.05909, 12.98203], [80.05958, 12.98233], [80.06007, 12.98259], [80.06081, 12.98297], [80.06221, 12.98363], [80.06257, 12.9838], [80.06291, 12.98401], [80.06305, 12.98416], [80.06319, 12.98438], [80.06362, 12.98541], [80.06387, 12.98616], [80.06417, 12.98716], [80.06431, 12.98766], [80.06435, 12.98805], [80.06438, 12.9883], [80.06443, 12.98848], [80.06454, 12.98874], [80.06616, 12.9907], [80.06655, 12.99124], [80.06718, 12.99197], [80.06768, 12.99258], [80.06823, 12.99324], [80.0684, 12.99341], [80.06867, 12.99366], [80.06923, 12.9942], [80.06947, 12.99439], [80.07007, 12.99481], [80.07022, 12.9949], [80.0703, 12.99492], [80.07053, 12.99493], [80.07101, 12.9949], [80.07332, 12.99461], [80.07498, 12.99441], [80.07652, 12.99427], [80.07681, 12.99426], [80.07704, 12.99428], [80.07741, 12.99441], [80.07768, 12.99455], [80.078, 12.99477], [80.07835, 12.995], [80.07945, 12.99556], [80.0796, 12.99561], [80.07971, 12.99562], [80.08005, 12.99556], [80.08376, 12.9947], [80.08485, 12.99446], [80.08509, 12.99449], [80.08545, 12.99456], [80.08553, 12.99457], [80.08761, 12.99498], [80.08809, 12.99506], [80.08913, 12.99524], [80.08958, 12.9953], [80.09031, 12.99539], [80.09066, 12.99548], [80.0908, 12.99554], [80.091, 12.99577], [80.09135, 12.99639], [80.09156, 12.99677], [80.09169, 12.99698], [80.09181, 12.99711], [80.09192, 12.99717], [80.09209, 12.99723], [80.09254, 12.99728], [80.09303, 12.9973], [80.09386, 12.99741], [80.09449, 12.99748], [80.09485, 12.99751], [80.09566, 12.99747], [80.09639, 12.99743], [80.09641, 12.99754], [80.09651, 12.99822], [80.0966, 12.99848], [80.09674, 12.99879], [80.09701, 12.99934], [80.09747, 13.00007], [80.09771, 13.00042], [80.09782, 13.00076], [80.09794, 13.00125], [80.0981, 13.00158], [80.09859, 13.00242], [80.09891, 13.00292], [80.09921, 13.00333], [80.09934, 13.00342], [80.09949, 13.00348], [80.09983, 13.00359], [80.10018, 13.00371], [80.10077, 13.00397], [80.10139, 13.00429], [80.10175, 13.00446], [80.10214, 13.00458], [80.10258, 13.00467], [80.10295, 13.0047], [80.10362, 13.00469], [80.10384, 13.00471], [80.10433, 13.00482], [80.1058, 13.00518], [80.10609, 13.00523], [80.10666, 13.0053], [80.10698, 13.00532], [80.10811, 13.00538], [80.10941, 13.00547], [80.10956, 13.00549], [80.10977, 13.00556], [80.11, 13.00569], [80.11023, 13.00586], [80.11052, 13.00605], [80.11082, 13.00618], [80.11134, 13.00637], [80.11158, 13.00648], [80.1119, 13.00668], [80.11267, 13.0072], [80.11294, 13.0074], [80.11374, 13.008], [80.11412, 13.00833], [80.11433, 13.0086], [80.11438, 13.00871], [80.11442, 13.00888], [80.11444, 13.00918], [80.11442, 13.01024], [80.11442, 13.01104], [80.11447, 13.01112], [80.11457, 13.01119], [80.11467, 13.0112], [80.11496, 13.01118], [80.1161, 13.01104], [80.11693, 13.01088], [80.11738, 13.01075], [80.11777, 13.01059], [80.11832, 13.01032], [80.11854, 13.01023], [80.11871, 13.01019], [80.11898, 13.01017], [80.11926, 13.01014], [80.11959, 13.01008], [80.11996, 13.00997], [80.12024, 13.00985], [80.12049, 13.00976], [80.12063, 13.00973], [80.12099, 13.00972], [80.12134, 13.00972], [80.12228, 13.00978], [80.12245, 13.00979], [80.12268, 13.00982], [80.12276, 13.00986], [80.12283, 13.00992], [80.1229, 13.01], [80.12306, 13.01028], [80.12314, 13.01041], [80.12329, 13.01062], [80.12349, 13.01081], [80.12373, 13.01098], [80.12406, 13.01118], [80.1244, 13.01138], [80.12463, 13.01148], [80.12487, 13.01151], [80.12514, 13.01149], [80.1255, 13.01147], [80.12577, 13.01147], [80.12657, 13.01148], [80.12701, 13.01149], [80.12738, 13.01153], [80.12769, 13.01156], [80.12898, 13.01171], [80.12956, 13.01176], [80.12982, 13.01183], [80.13008, 13.01191], [80.13049, 13.01207], [80.13105, 13.01234], [80.13149, 13.0125], [80.13166, 13.01253], [80.13194, 13.01255], [80.1324, 13.01255], [80.1327, 13.01256], [80.13279, 13.01259], [80.1329, 13.01266], [80.13299, 13.0128], [80.13307, 13.01309], [80.13317, 13.0133], [80.13324, 13.01339], [80.13337, 13.01352], [80.13366, 13.01374], [80.13433, 13.01418], [80.13482, 13.01453], [80.13512, 13.01469], [80.13641, 13.01538], [80.1367, 13.01553], [80.13704, 13.01573], [80.13747, 13.01593], [80.13825, 13.01634], [80.13966, 13.01704], [80.14059, 13.01749], [80.14104, 13.01773], [80.14117, 13.01781], [80.1415, 13.01809], [80.14194, 13.01855], [80.14253, 13.01916], [80.14255, 13.01918], [80.14319, 13.01983], [80.1438, 13.02038], [80.14405, 13.02062], [80.14486, 13.0214], [80.1459, 13.02245], [80.14672, 13.02328], [80.1471, 13.02368], [80.14747, 13.02409], [80.14808, 13.02463], [80.1483, 13.02481], [80.14833, 13.02488], [80.14909, 13.02559], [80.1497, 13.02623], [80.15, 13.02661], [80.15074, 13.02759], [80.15129, 13.02833], [80.15174, 13.02898], [80.15264, 13.03036], [80.15302, 13.03095], [80.15362, 13.03192], [80.15381, 13.0322], [80.15411, 13.03257], [80.15438, 13.0329], [80.15493, 13.03347], [80.15518, 13.03376], [80.15547, 13.03419], [80.15557, 13.03439], [80.15569, 13.03458], [80.15578, 13.03472], [80.15598, 13.0349], [80.15618, 13.03478], [80.15635, 13.0347], [80.15653, 13.03461], [80.15682, 13.03449], [80.157, 13.03446], [80.1575, 13.03449], [80.15789, 13.03453], [80.15905, 13.03451], [80.15953, 13.03448], [80.15979, 13.03441], [80.16045, 13.03406], [80.16132, 13.03356], [80.16158, 13.03342], [80.16313, 13.03254], [80.16433, 13.0319], [80.16502, 13.03149], [80.16805, 13.0298], [80.1688, 13.02941], [80.16925, 13.02916], [80.17053, 13.02845], [80.17208, 13.0276], [80.17541, 13.02571], [80.17674, 13.02495], [80.17889, 13.02379], [80.17922, 13.02359], [80.18086, 13.02265], [80.18232, 13.02182], [80.18327, 13.02134], [80.18413, 13.02086], [80.18445, 13.02075], [80.18493, 13.02062], [80.18537, 13.02045], [80.18552, 13.02036], [80.18562, 13.02026], [80.18588, 13.01987], [80.18653, 13.0188], [80.18669, 13.01855], [80.18691, 13.01827], [80.18706, 13.0181], [80.18712, 13.01804], [80.18768, 13.01774], [80.18851, 13.01729], [80.1899, 13.01654], [80.19024, 13.01633], [80.19054, 13.01617], [80.19173, 13.01552], [80.19224, 13.01522], [80.19293, 13.01484], [80.19342, 13.01449], [80.1936, 13.01432], [80.19391, 13.01389], [80.19409, 13.01361], [80.19464, 13.01272], [80.19503, 13.01213], [80.19572, 13.01102], [80.19577, 13.01092], [80.19595, 13.01064], [80.19597, 13.01052], [80.19597, 13.01032], [80.19593, 13.00964], [80.19594, 13.00952], [80.196, 13.00936], [80.1961, 13.00911], [80.19629, 13.00872], [80.19635, 13.00867], [80.19643, 13.00864], [80.1965, 13.00862], [80.19662, 13.00862], [80.19674, 13.00858], [80.19693, 13.00859], [80.19777, 13.00862], [80.19799, 13.00864], [80.19801, 13.00865], [80.19912, 13.00865], [80.20052, 13.00869], [80.20115, 13.00867], [80.20168, 13.00861], [80.20231, 13.00858], [80.20259, 13.00857], [80.20272, 13.00852], [80.20293, 13.00844], [80.20313, 13.00834], [80.20342, 13.00804], [80.20362, 13.00788], [80.20377, 13.00782], [80.20383, 13.0078], [80.20396, 13.00777], [80.2041, 13.00778], [80.20431, 13.00779], [80.20464, 13.00778], [80.20539, 13.00777], [80.20549, 13.00774], [80.20571, 13.00773], [80.20609, 13.00777], [80.207, 13.00793], [80.20863, 13.00811], [80.20935, 13.00826], [80.20956, 13.00831], [80.21, 13.00843], [80.21034, 13.00854], [80.21103, 13.00944], [80.21111, 13.00937], [80.21142, 13.00912], [80.2115, 13.00908], [80.21171, 13.00905], [80.21202, 13.00917], [80.21236, 13.00926], [80.21301, 13.0095], [80.21447, 13.0101], [80.2146, 13.01015], [80.21487, 13.01018], [80.21549, 13.01027], [80.21567, 13.01031], [80.21585, 13.01038], [80.21671, 13.01077], [80.21745, 13.01116], [80.21795, 13.01135], [80.21865, 13.01159], [80.21987, 13.012], [80.22075, 13.01228], [80.22119, 13.01241], [80.22128, 13.01246], [80.22155, 13.01261], [80.22304, 13.01385], [80.22317, 13.01387], [80.22424, 13.01475], [80.22462, 13.01504], [80.2247, 13.0151], [80.22476, 13.01521], [80.22485, 13.01534], [80.22504, 13.01554], [80.22508, 13.01558], [80.22505, 13.01561], [80.22523, 13.01581], [80.2253, 13.01593], [80.22534, 13.01605], [80.22536, 13.01614], [80.22535, 13.01627], [80.22527, 13.01662], [80.22509, 13.01709], [80.22441, 13.01877], [80.22436, 13.0191], [80.22436, 13.01912], [80.2244, 13.01942], [80.22451, 13.0197], [80.22462, 13.01991], [80.22491, 13.02035], [80.22625, 13.02209], [80.22648, 13.02235]]}}]}