{"type": "FeatureCollection", "features": [{"type": "Feature", "properties": {"route_name": "166", "stop_id": "hSRFRBsa", "name": "Iyyappanthangal Bus Depot", "city": "CHENNAI"}, "geometry": {"type": "Point", "coordinates": [80.13505742601455, 13.037919834559425]}}, {"type": "Feature", "properties": {"route_name": "166", "stop_id": "FhKkSAFH", "name": "Iyappanthangal", "city": "CHENNAI"}, "geometry": {"type": "Point", "coordinates": [80.1386853469329, 13.037436914660523]}}, {"type": "Feature", "properties": {"route_name": "166", "stop_id": "glDvUhXc", "name": "Ramachandra Hospital", "city": "CHENNAI"}, "geometry": {"type": "Point", "coordinates": [80.1420415853961, 13.036927911883108]}}, {"type": "Feature", "properties": {"route_name": "166", "stop_id": "wyEQXfIU", "name": "Porur E B Office", "city": "CHENNAI"}, "geometry": {"type": "Point", "coordinates": [80.15293087001737, 13.030636642116919]}}, {"type": "Feature", "properties": {"route_name": "166", "stop_id": "FCsbIOBe", "name": "Vigneshwara Nagar Porur", "city": "CHENNAI"}, "geometry": {"type": "Point", "coordinates": [80.15125509136055, 13.028138903084185]}}, {"type": "Feature", "properties": {"route_name": "166", "stop_id": "aWNaUdzp", "name": "Madhanandapuram", "city": "CHENNAI"}, "geometry": {"type": "Point", "coordinates": [80.14656646490482, 13.02302722408822]}}, {"type": "Feature", "properties": {"route_name": "166", "stop_id": "ZIPCqImv", "name": "Bai Kadai Moulivakkam", "city": "CHENNAI"}, "geometry": {"type": "Point", "coordinates": [80.14403182388355, 13.020562403388517]}}, {"type": "Feature", "properties": {"route_name": "166", "stop_id": "ciAbSxQX", "name": "Moulivakkam L And T", "city": "CHENNAI"}, "geometry": {"type": "Point", "coordinates": [80.14265212808891, 13.019115462052312]}}, {"type": "Feature", "properties": {"route_name": "166", "stop_id": "TEKQTTfp", "name": "Gerugambakkam", "city": "CHENNAI"}, "geometry": {"type": "Point", "coordinates": [80.13654946600218, 13.015397339832532]}}, {"type": "Feature", "properties": {"route_name": "166", "stop_id": "YzXnYVPd", "name": "Periyapanicherr", "city": "CHENNAI"}, "geometry": {"type": "Point", "coordinates": [80.13198323559209, 13.012474922040846]}}, {"type": "Feature", "properties": {"route_name": "166", "stop_id": "IkwHYYuh", "name": "Periyapanicherry Church", "city": "CHENNAI"}, "geometry": {"type": "Point", "coordinates": [80.13008993337337, 13.011881708960981]}}, {"type": "Feature", "properties": {"route_name": "166", "stop_id": "ZuDlysuz", "name": "Chekkady", "city": "CHENNAI"}, "geometry": {"type": "Point", "coordinates": [80.12385644230562, 13.01097123167517]}}, {"type": "Feature", "properties": {"route_name": "166", "stop_id": "qoWOoICL", "name": "Kovur E B Office", "city": "CHENNAI"}, "geometry": {"type": "Point", "coordinates": [80.11449240152763, 13.010566466099364]}}, {"type": "Feature", "properties": {"route_name": "166", "stop_id": "KcDUQTDz", "name": "Madha Hospital And College", "city": "CHENNAI"}, "geometry": {"type": "Point", "coordinates": [80.11308843888071, 13.007429887221573]}}, {"type": "Feature", "properties": {"route_name": "166", "stop_id": "HZcfHzwe", "name": "Moondram Kattalai", "city": "CHENNAI"}, "geometry": {"type": "Point", "coordinates": [80.10950948097036, 13.005394192855286]}}, {"type": "Feature", "properties": {"route_name": "166", "stop_id": "EhUxMFuQ", "name": "Kundrathur Nalu Road Or Kolachery Junction", "city": "CHENNAI"}, "geometry": {"type": "Point", "coordinates": [80.09972237237162, 13.003494659599554]}}, {"type": "Feature", "properties": {"route_name": "166", "stop_id": "MhxjGQjy", "name": "Shri Nagathaman Temple", "city": "CHENNAI"}, "geometry": {"type": "Point", "coordinates": [80.09762761733964, 13.00014673192873]}}, {"type": "Feature", "properties": {"route_name": "166", "stop_id": "dlIiZmBi", "name": "Kundrathur Or Thandalam", "city": "CHENNAI"}, "geometry": {"type": "Point", "coordinates": [80.09765250283704, 12.998060581403468]}}, {"type": "Feature", "properties": {"route_name": "166", "stop_id": "vFpuvjcu", "name": "Pillayar Kovil Or Manancheri", "city": "CHENNAI"}, "geometry": {"type": "Point", "coordinates": [80.10360216305617, 12.998044352786865]}}, {"type": "Feature", "properties": {"route_name": "166", "stop_id": "siiqKFuN", "name": "Andakuppam", "city": "CHENNAI"}, "geometry": {"type": "Point", "coordinates": [80.11004174984168, 12.995984383067944]}}, {"type": "Feature", "properties": {"route_name": "166", "stop_id": "sSUdZsSb", "name": "Manacherry", "city": "CHENNAI"}, "geometry": {"type": "Point", "coordinates": [80.1143932355726, 12.992646229853456]}}, {"type": "Feature", "properties": {"route_name": "166", "stop_id": "zAqZkkQx", "name": "Karima Nagar Company", "city": "CHENNAI"}, "geometry": {"type": "Point", "coordinates": [80.11703629269334, 12.98966512449306]}}, {"type": "Feature", "properties": {"route_name": "166", "stop_id": "ZKBLrnzS", "name": "Karima Nagar", "city": "CHENNAI"}, "geometry": {"type": "Point", "coordinates": [80.11811429828879, 12.988072399353223]}}, {"type": "Feature", "properties": {"route_name": "166", "stop_id": "FYgdoWMK", "name": "Anakaputhur Amman Kovil", "city": "CHENNAI"}, "geometry": {"type": "Point", "coordinates": [80.12771993366164, 12.983275515215881]}}, {"type": "Feature", "properties": {"route_name": "166", "stop_id": "bjEpkupt", "name": "Anakaputhur Higher Secondary School", "city": "CHENNAI"}, "geometry": {"type": "Point", "coordinates": [80.12922908041128, 12.98080405837172]}}, {"type": "Feature", "properties": {"route_name": "166", "stop_id": "DNyXiZzj", "name": "Pammal", "city": "CHENNAI"}, "geometry": {"type": "Point", "coordinates": [80.13528008832327, 12.974458672581367]}}, {"type": "Feature", "properties": {"route_name": "166", "stop_id": "pXlenLUq", "name": "Krishna Nagar", "city": "CHENNAI"}, "geometry": {"type": "Point", "coordinates": [80.13835511886168, 12.97289655219043]}}, {"type": "Feature", "properties": {"route_name": "166", "stop_id": "EDdQplwd", "name": "Pallavaram Aadu Thotti", "city": "CHENNAI"}, "geometry": {"type": "Point", "coordinates": [80.14499791683875, 12.970758223028511]}}, {"type": "Feature", "properties": {"route_name": "166", "stop_id": "ffjXMuak", "name": "Pallavaram  Market", "city": "CHENNAI"}, "geometry": {"type": "Point", "coordinates": [80.14755402331355, 12.969708693108611]}}, {"type": "Feature", "properties": {"route_name": "166", "stop_id": "qeXIqBgp", "name": "Pallavaram Bus Stand", "city": "CHENNAI"}, "geometry": {"type": "Point", "coordinates": [80.15020472965345, 12.969321927480118]}}, {"type": "Feature", "properties": {"route_name": "166", "stop_id": "BZCtSmhk", "name": "Saravana Store Chromepet", "city": "CHENNAI"}, "geometry": {"type": "Point", "coordinates": [80.14344682, 12.95656648]}}, {"type": "Feature", "properties": {"route_name": "166", "stop_id": "ywuGpANM", "name": "Chromepet", "city": "CHENNAI"}, "geometry": {"type": "Point", "coordinates": [80.14056159, 12.95162355]}}, {"type": "Feature", "properties": {"route_name": "166", "stop_id": "hpACGGyB", "name": "TB Hospital", "city": "CHENNAI"}, "geometry": {"type": "Point", "coordinates": [80.13469781949811, 12.944093289066009]}}, {"type": "Feature", "properties": {"route_name": "166", "stop_id": "eaNsVWDR", "name": "Tambaram Sanatorium Bus Stand", "city": "CHENNAI"}, "geometry": {"type": "Point", "coordinates": [80.12809022215106, 12.937055899909849]}}, {"type": "Feature", "properties": {"route_name": "166", "stop_id": "ojqTFFWy", "name": "Tambaram West Bus Stand", "city": "CHENNAI"}, "geometry": {"type": "Point", "coordinates": [80.11862628452741, 12.927652178598898]}}, {"type": "Feature", "properties": {"name": "166"}, "geometry": {"type": "LineString", "coordinates": [[80.13529, 13.03788], [80.13535, 13.03812], [80.13604, 13.03783], [80.13701, 13.03761], [80.138, 13.03747], [80.13867, 13.03741], [80.13868, 13.0374], [80.14204, 13.0369], [80.14367, 13.03667], [80.14548, 13.03642], [80.14625, 13.0363], [80.14679, 13.03627], [80.14815, 13.03626], [80.14923, 13.03626], [80.15188, 13.03631], [80.15244, 13.03633], [80.15281, 13.03632], [80.15315, 13.03623], [80.1537, 13.03601], [80.15474, 13.03553], [80.15551, 13.03514], [80.15609, 13.03483], [80.15575, 13.03446], [80.15523, 13.03374], [80.15498, 13.03345], [80.15475, 13.03316], [80.15445, 13.03286], [80.15417, 13.03256], [80.15388, 13.03222], [80.15368, 13.03189], [80.15318, 13.03104], [80.15291, 13.03065], [80.15247, 13.02995], [80.1513, 13.02822], [80.15124, 13.02815], [80.15048, 13.02712], [80.14976, 13.0262], [80.14905, 13.02545], [80.14857, 13.02502], [80.1483, 13.02481], [80.14751, 13.02413], [80.14722, 13.02382], [80.14675, 13.02331], [80.1465, 13.02305], [80.14654, 13.023], [80.1465, 13.02305], [80.14631, 13.02286], [80.14583, 13.02238], [80.14479, 13.02135], [80.14402, 13.02058], [80.14353, 13.02014], [80.14319, 13.01983], [80.14283, 13.01946], [80.14257, 13.01919], [80.1415, 13.01809], [80.14117, 13.01781], [80.14104, 13.01773], [80.14059, 13.01749], [80.13966, 13.01704], [80.13825, 13.01634], [80.13747, 13.01593], [80.13704, 13.01573], [80.1367, 13.01553], [80.13653, 13.01544], [80.13604, 13.01519], [80.13523, 13.01474], [80.13487, 13.01456], [80.13396, 13.01394], [80.13341, 13.01357], [80.13331, 13.01348], [80.13324, 13.01339], [80.13312, 13.0132], [80.133, 13.01285], [80.13297, 13.01275], [80.13293, 13.01269], [80.13283, 13.01261], [80.13266, 13.01255], [80.13198, 13.01255], [80.1318, 13.01254], [80.13149, 13.0125], [80.13105, 13.01234], [80.13049, 13.01207], [80.13008, 13.01191], [80.12956, 13.01176], [80.12806, 13.01161], [80.12752, 13.01154], [80.12701, 13.01149], [80.12608, 13.01146], [80.1255, 13.01147], [80.12487, 13.01151], [80.12463, 13.01148], [80.1244, 13.01138], [80.12389, 13.01108], [80.12382, 13.01104], [80.12338, 13.01072], [80.1232, 13.01052], [80.12311, 13.01037], [80.12287, 13.00996], [80.1228, 13.00989], [80.12272, 13.00984], [80.12257, 13.0098], [80.12235, 13.00979], [80.12154, 13.00973], [80.12077, 13.00972], [80.12052, 13.00975], [80.12037, 13.0098], [80.11976, 13.01004], [80.11943, 13.01011], [80.11911, 13.01016], [80.11879, 13.01018], [80.11862, 13.0102], [80.11848, 13.01025], [80.11758, 13.01068], [80.11716, 13.01082], [80.11656, 13.01096], [80.11593, 13.01106], [80.11517, 13.01115], [80.11478, 13.0112], [80.11461, 13.0112], [80.11449, 13.01114], [80.11443, 13.01107], [80.11441, 13.01097], [80.11442, 13.01057], [80.11443, 13.00898], [80.1144, 13.00879], [80.11436, 13.00864], [80.11429, 13.00853], [80.11418, 13.00839], [80.11401, 13.00823], [80.11358, 13.00789], [80.11305, 13.00748], [80.11274, 13.00724], [80.11158, 13.00648], [80.11116, 13.00629], [80.11082, 13.00618], [80.11061, 13.00609], [80.11038, 13.00597], [80.11, 13.00569], [80.10977, 13.00556], [80.10956, 13.00549], [80.10949, 13.00548], [80.10796, 13.00537], [80.10679, 13.0053], [80.10635, 13.00527], [80.1058, 13.00518], [80.10394, 13.00473], [80.10375, 13.0047], [80.10351, 13.00469], [80.10279, 13.00469], [80.10236, 13.00463], [80.10188, 13.00451], [80.10165, 13.00442], [80.10126, 13.00422], [80.10051, 13.00385], [80.09971, 13.00355], [80.09935, 13.00343], [80.09928, 13.00339], [80.09911, 13.00322], [80.09861, 13.00246], [80.09812, 13.00162], [80.09797, 13.00132], [80.09777, 13.00056], [80.09763, 13.00031], [80.09755, 13.00019], [80.09763, 13.00031], [80.09771, 13.00042], [80.09784, 12.99979], [80.09769, 12.99866], [80.09759, 12.99807], [80.09764, 12.99804], [80.09792, 12.99783], [80.09802, 12.99778], [80.09814, 12.99774], [80.09834, 12.99771], [80.09898, 12.99764], [80.09945, 12.99765], [80.09989, 12.9977], [80.10021, 12.9978], [80.10044, 12.9979], [80.10065, 12.998], [80.101, 12.9981], [80.10109, 12.99814], [80.10136, 12.99831], [80.10143, 12.9984], [80.10158, 12.99855], [80.10173, 12.99865], [80.10182, 12.99868], [80.10204, 12.9987], [80.10241, 12.99864], [80.10257, 12.9986], [80.1028, 12.99851], [80.103, 12.99839], [80.10358, 12.99802], [80.1037, 12.99794], [80.10413, 12.99787], [80.10463, 12.99777], [80.10514, 12.99762], [80.10558, 12.99754], [80.10585, 12.9975], [80.10617, 12.9974], [80.1064, 12.99726], [80.10646, 12.99721], [80.10662, 12.99716], [80.10704, 12.99699], [80.10727, 12.99693], [80.10803, 12.99671], [80.10838, 12.99657], [80.1088, 12.99634], [80.10905, 12.99623], [80.10942, 12.99612], [80.10986, 12.99601], [80.11003, 12.99595], [80.11039, 12.9958], [80.11128, 12.99528], [80.11159, 12.99505], [80.11291, 12.99379], [80.1132, 12.99355], [80.11399, 12.99298], [80.11421, 12.99279], [80.11438, 12.99263], [80.11471, 12.9923], [80.11604, 12.99085], [80.11656, 12.99023], [80.11698, 12.98963], [80.11809, 12.98805], [80.11878, 12.98717], [80.11929, 12.98647], [80.11982, 12.98608], [80.12078, 12.98538], [80.1211, 12.98521], [80.1212, 12.98515], [80.12132, 12.98503], [80.12143, 12.98487], [80.12153, 12.98472], [80.1216, 12.98464], [80.12168, 12.9846], [80.12181, 12.98462], [80.12188, 12.98465], [80.12231, 12.98495], [80.12252, 12.98502], [80.12298, 12.98508], [80.12326, 12.98507], [80.12349, 12.98504], [80.12362, 12.985], [80.12384, 12.98486], [80.12391, 12.98479], [80.12433, 12.98451], [80.12478, 12.98416], [80.12519, 12.98384], [80.12555, 12.98364], [80.12571, 12.98358], [80.12588, 12.98353], [80.12655, 12.98343], [80.12771, 12.98323], [80.12851, 12.98313], [80.12862, 12.9831], [80.12865, 12.98309], [80.12867, 12.98302], [80.1287, 12.98279], [80.12873, 12.98267], [80.1288, 12.98259], [80.12891, 12.98255], [80.12909, 12.98253], [80.12929, 12.98249], [80.12933, 12.98242], [80.12928, 12.98203], [80.1292, 12.98079], [80.12909, 12.98028], [80.12897, 12.97976], [80.12898, 12.97962], [80.12917, 12.97946], [80.12952, 12.97922], [80.12965, 12.97907], [80.12991, 12.97876], [80.13007, 12.97854], [80.13048, 12.97809], [80.13054, 12.978], [80.13054, 12.97763], [80.13058, 12.97758], [80.13065, 12.97753], [80.13071, 12.9775], [80.13102, 12.9774], [80.13151, 12.97723], [80.132, 12.97696], [80.13253, 12.97676], [80.13265, 12.9767], [80.13273, 12.9766], [80.13273, 12.97624], [80.13265, 12.97574], [80.13262, 12.97547], [80.13265, 12.97528], [80.13267, 12.97509], [80.13274, 12.97498], [80.13283, 12.97489], [80.13339, 12.9748], [80.13371, 12.97476], [80.13438, 12.97468], [80.13496, 12.97456], [80.1351, 12.97451], [80.13525, 12.97444], [80.13658, 12.97359], [80.13697, 12.97339], [80.13721, 12.97325], [80.13743, 12.97317], [80.13791, 12.97302], [80.13814, 12.97294], [80.13834, 12.97286], [80.13945, 12.97232], [80.13988, 12.97213], [80.14052, 12.97191], [80.14101, 12.97179], [80.14191, 12.97163], [80.14279, 12.97147], [80.14352, 12.97123], [80.14436, 12.97094], [80.14498, 12.97066], [80.14504, 12.9707], [80.14498, 12.97066], [80.14514, 12.97057], [80.14546, 12.9704], [80.14554, 12.97034], [80.14597, 12.96981], [80.14622, 12.97001], [80.14654, 12.97019], [80.14695, 12.97045], [80.14753, 12.96969], [80.14823, 12.96867], [80.14888, 12.96776], [80.14905, 12.96754], [80.14932, 12.96816], [80.14981, 12.96921], [80.15005, 12.96968], [80.15021, 12.96962], [80.1501, 12.96937], [80.14983, 12.96878], [80.14949, 12.96811], [80.14918, 12.9674], [80.14886, 12.96674], [80.14842, 12.96582], [80.14764, 12.96445], [80.14715, 12.96357], [80.14572, 12.96098], [80.14535, 12.96028], [80.144, 12.95773], [80.14366, 12.95707], [80.14341, 12.95658], [80.14296, 12.95575], [80.14253, 12.95492], [80.14175, 12.95349], [80.14143, 12.95292], [80.14134, 12.95278], [80.14092, 12.95225], [80.14049, 12.95167], [80.13904, 12.94979], [80.1384, 12.94908], [80.13785, 12.94834], [80.13693, 12.94704], [80.13542, 12.94508], [80.13467, 12.94411], [80.13444, 12.94384], [80.1339, 12.94326], [80.13335, 12.94267], [80.13315, 12.9425], [80.13272, 12.94208], [80.13165, 12.94106], [80.13109, 12.94047], [80.13096, 12.94032], [80.13073, 12.94013], [80.13011, 12.93946], [80.12946, 12.93873], [80.12854, 12.93766], [80.12804, 12.9371], [80.12397, 12.93266], [80.1207, 12.92945], [80.11983, 12.92961], [80.1177, 12.92992], [80.11763, 12.92905], [80.11751, 12.92834], [80.11858, 12.92827], [80.11921, 12.9282], [80.11903, 12.92799]]}}]}