{"type": "FeatureCollection", "features": [{"type": "Feature", "properties": {"route_name": "S93", "stop_id": "mexFgKBp", "name": "Velachery", "city": "CHENNAI"}, "geometry": {"type": "Point", "coordinates": [80.22125344130461, 12.976171322771068]}}, {"type": "Feature", "properties": {"route_name": "S93", "stop_id": "HcKLTTXk", "name": "Velachery Railway Station", "city": "CHENNAI"}, "geometry": {"type": "Point", "coordinates": [80.21910222319366, 12.971072941036168]}}, {"type": "Feature", "properties": {"route_name": "S93", "stop_id": "UgdUAhSn", "name": "Kaiveli", "city": "CHENNAI"}, "geometry": {"type": "Point", "coordinates": [80.2159297901783, 12.963017954363247]}}, {"type": "Feature", "properties": {"route_name": "S93", "stop_id": "veAXvdUO", "name": "Balaji Nagar Medavakkam", "city": "CHENNAI"}, "geometry": {"type": "Point", "coordinates": [80.21226292919391, 12.953930801936878]}}, {"type": "Feature", "properties": {"route_name": "S93", "stop_id": "CCoJPQpR", "name": "Pallikaranai Kamachi Hospital", "city": "CHENNAI"}, "geometry": {"type": "Point", "coordinates": [80.21027843960997, 12.94862372018681]}}, {"type": "Feature", "properties": {"route_name": "S93", "stop_id": "HeidvHXY", "name": "Balaji Dental College", "city": "CHENNAI"}, "geometry": {"type": "Point", "coordinates": [80.20834064119936, 12.944050136828729]}}, {"type": "Feature", "properties": {"route_name": "S93", "stop_id": "kGOBbhWq", "name": "Kamakoti Nagar", "city": "CHENNAI"}, "geometry": {"type": "Point", "coordinates": [80.2074038155199, 12.94266726564706]}}, {"type": "Feature", "properties": {"route_name": "S93", "stop_id": "BueNqrwK", "name": "Natesan Super Market", "city": "CHENNAI"}, "geometry": {"type": "Point", "coordinates": [80.21055415041904, 12.941930290303292]}}, {"type": "Feature", "properties": {"route_name": "S93", "stop_id": "UXvslYGA", "name": "Kamatchi Nagar", "city": "CHENNAI"}, "geometry": {"type": "Point", "coordinates": [80.21520496038275, 12.942351887725538]}}, {"type": "Feature", "properties": {"route_name": "S93", "stop_id": "rYMFyBox", "name": "San Academy", "city": "CHENNAI"}, "geometry": {"type": "Point", "coordinates": [80.21444312404302, 12.939354967672948]}}, {"type": "Feature", "properties": {"route_name": "S93", "stop_id": "oDkstDuF", "name": "Pillaiyar Kovil", "city": "CHENNAI"}, "geometry": {"type": "Point", "coordinates": [80.21439103939439, 12.935133412677022]}}, {"type": "Feature", "properties": {"route_name": "S93", "stop_id": "jujQalgd", "name": "Labour Colony", "city": "CHENNAI"}, "geometry": {"type": "Point", "coordinates": [80.21339746678372, 12.933958401802258]}}, {"type": "Feature", "properties": {"route_name": "S93", "stop_id": "uSSdkohC", "name": "Mothers School", "city": "CHENNAI"}, "geometry": {"type": "Point", "coordinates": [80.2127095205272, 12.9309106986229]}}, {"type": "Feature", "properties": {"route_name": "S93", "stop_id": "KGGHfbiG", "name": "Raja Lakshmi Nagar", "city": "CHENNAI"}, "geometry": {"type": "Point", "coordinates": [80.2107842733627, 12.930740250180964]}}, {"type": "Feature", "properties": {"route_name": "S93", "stop_id": "uKJfMOQl", "name": "EP Office", "city": "CHENNAI"}, "geometry": {"type": "Point", "coordinates": [80.20806610141138, 12.930997763022493]}}, {"type": "Feature", "properties": {"route_name": "S93", "stop_id": "FJwLJpOV", "name": "Pallikaranai Bus Stop", "city": "CHENNAI"}, "geometry": {"type": "Point", "coordinates": [80.20410841935714, 12.932963671069476]}}, {"type": "Feature", "properties": {"name": "S93"}, "geometry": {"type": "LineString", "coordinates": [[80.22123, 12.97617], [80.22122, 12.97603], [80.22189, 12.97644], [80.22216, 12.97664], [80.22271, 12.97702], [80.22354, 12.97751], [80.22476, 12.97824], [80.22501, 12.97839], [80.22516, 12.9783], [80.2244, 12.97784], [80.2235, 12.97732], [80.22278, 12.9769], [80.22212, 12.97648], [80.22168, 12.97618], [80.22129, 12.9758], [80.22083, 12.97538], [80.22075, 12.97524], [80.22067, 12.97498], [80.2205, 12.97457], [80.22032, 12.9742], [80.21993, 12.97339], [80.21955, 12.97235], [80.2194, 12.97188], [80.21905, 12.9711], [80.21878, 12.97049], [80.21854, 12.9699], [80.2177, 12.96788], [80.2175, 12.96737], [80.21705, 12.96614], [80.21634, 12.96431], [80.21582, 12.96306], [80.21435, 12.9594], [80.21384, 12.95809], [80.21333, 12.95695], [80.21305, 12.95615], [80.2122, 12.95395], [80.21143, 12.95194], [80.21112, 12.95121], [80.21116, 12.95115], [80.21117, 12.95111], [80.21107, 12.95082], [80.21025, 12.94869], [80.21023, 12.94864], [80.21014, 12.9484], [80.20975, 12.94749], [80.20909, 12.94584], [80.20904, 12.94574], [80.20898, 12.94567], [80.20892, 12.94563], [80.20864, 12.94492], [80.2084, 12.94432], [80.20829, 12.94407], [80.20807, 12.94356], [80.20789, 12.94323], [80.2078, 12.94312], [80.20763, 12.94298], [80.20726, 12.9427], [80.2074, 12.94265], [80.20838, 12.94241], [80.20892, 12.94228], [80.20901, 12.94224], [80.21028, 12.94197], [80.21055, 12.94191], [80.2108, 12.94186], [80.21089, 12.94236], [80.21109, 12.94314], [80.21185, 12.94297], [80.21294, 12.94277], [80.21398, 12.94258], [80.2152, 12.94233], [80.21525, 12.94232], [80.21499, 12.94151], [80.21489, 12.94093], [80.21474, 12.94043], [80.21444, 12.93942], [80.21442, 12.93936], [80.21412, 12.9384], [80.21397, 12.93787], [80.21426, 12.93783], [80.21488, 12.93779], [80.21487, 12.93775], [80.2148, 12.93726], [80.21462, 12.93643], [80.21453, 12.93592], [80.21437, 12.93514], [80.21436, 12.93511], [80.21429, 12.93484], [80.21392, 12.93488], [80.2137, 12.9349], [80.2136, 12.93437], [80.21351, 12.93408], [80.21346, 12.93398], [80.21342, 12.934], [80.21337, 12.93396], [80.21318, 12.93298], [80.21314, 12.93297], [80.21305, 12.93298], [80.21298, 12.93271], [80.21317, 12.93267], [80.21322, 12.93266], [80.21323, 12.93262], [80.21294, 12.93125], [80.21287, 12.93092], [80.21271, 12.93094], [80.21209, 12.93104], [80.21148, 12.93091], [80.21078, 12.93077], [80.21057, 12.93074], [80.2104, 12.93074], [80.21015, 12.93077], [80.20988, 12.93086], [80.20949, 12.93092], [80.2092, 12.93096], [80.20876, 12.93097], [80.20835, 12.93096], [80.20807, 12.93102], [80.20804, 12.93102], [80.208, 12.93151], [80.20797, 12.93172], [80.20794, 12.9319], [80.2079, 12.93203], [80.20779, 12.93219], [80.20772, 12.93226], [80.20762, 12.93231], [80.20723, 12.93243], [80.20686, 12.93257], [80.20634, 12.93269], [80.206, 12.93275], [80.20555, 12.93277], [80.20515, 12.93275], [80.20492, 12.93275], [80.20474, 12.93279], [80.20444, 12.93289], [80.20412, 12.933]]}}]}