{"type": "FeatureCollection", "features": [{"type": "Feature", "properties": {"route_name": "500ET", "stop_id": "MoOxWMZQ", "name": "Chitlapakkam", "city": "CHENNAI"}, "geometry": {"type": "Point", "coordinates": [80.14729479501648, 12.936180104016561]}}, {"type": "Feature", "properties": {"route_name": "500ET", "stop_id": "ZnZTVhpc", "name": "Varadharaja Theatre", "city": "CHENNAI"}, "geometry": {"type": "Point", "coordinates": [80.13870488126838, 12.937295783189835]}}, {"type": "Feature", "properties": {"route_name": "500ET", "stop_id": "GjpldjkU", "name": "Tambaram Sanatorium Railway Station", "city": "CHENNAI"}, "geometry": {"type": "Point", "coordinates": [80.13299507822785, 12.938070226899676]}}, {"type": "Feature", "properties": {"route_name": "500ET", "stop_id": "eaNsVWDR", "name": "Tambaram Sanatorium Bus Stand", "city": "CHENNAI"}, "geometry": {"type": "Point", "coordinates": [80.12809022215106, 12.937055899909849]}}, {"type": "Feature", "properties": {"route_name": "500ET", "stop_id": "CKorGRkE", "name": "Kadaperi", "city": "CHENNAI"}, "geometry": {"type": "Point", "coordinates": [80.12469723891547, 12.93337144029531]}}, {"type": "Feature", "properties": {"route_name": "500ET", "stop_id": "ejMjPdTH", "name": "Tambaram West Bus Stand", "city": "CHENNAI"}, "geometry": {"type": "Point", "coordinates": [80.118864, 12.92758911]}}, {"type": "Feature", "properties": {"route_name": "500ET", "stop_id": "XFPAZveS", "name": "Tambaram Railway Station", "city": "CHENNAI"}, "geometry": {"type": "Point", "coordinates": [80.11732575024665, 12.925641090542161]}}, {"type": "Feature", "properties": {"route_name": "500ET", "stop_id": "AUmOMGnp", "name": "Irumbuliyur", "city": "CHENNAI"}, "geometry": {"type": "Point", "coordinates": [80.10666718, 12.91663681]}}, {"type": "Feature", "properties": {"route_name": "500ET", "stop_id": "YqlTLIQa", "name": "Perungalatgur Lake View Stop", "city": "CHENNAI"}, "geometry": {"type": "Point", "coordinates": [80.0985925050926, 12.908779320619445]}}, {"type": "Feature", "properties": {"route_name": "500ET", "stop_id": "ALhaazBT", "name": "Perungalattur", "city": "CHENNAI"}, "geometry": {"type": "Point", "coordinates": [80.09644663992617, 12.906403356437842]}}, {"type": "Feature", "properties": {"route_name": "500ET", "stop_id": "AoRkaUmb", "name": "Sriram Gate", "city": "CHENNAI"}, "geometry": {"type": "Point", "coordinates": [80.09228760816568, 12.900984026911052]}}, {"type": "Feature", "properties": {"route_name": "500ET", "stop_id": "KgwKZlse", "name": "Iraniyamman Koil", "city": "CHENNAI"}, "geometry": {"type": "Point", "coordinates": [80.08960316901448, 12.897427677710802]}}, {"type": "Feature", "properties": {"route_name": "500ET", "stop_id": "FZsFzszJ", "name": "Vandalur Gate", "city": "CHENNAI"}, "geometry": {"type": "Point", "coordinates": [80.08640892276996, 12.89311473169435]}}, {"type": "Feature", "properties": {"route_name": "500ET", "stop_id": "gzTQJVMW", "name": "Vandalur Zoo", "city": "CHENNAI"}, "geometry": {"type": "Point", "coordinates": [80.0808152705822, 12.88055624912894]}}, {"type": "Feature", "properties": {"route_name": "500ET", "stop_id": "XLVjRryq", "name": "Urappakam", "city": "CHENNAI"}, "geometry": {"type": "Point", "coordinates": [80.07576903505412, 12.867815440896505]}}, {"type": "Feature", "properties": {"route_name": "500ET", "stop_id": "NxbXiMUL", "name": "Urapakkam Or Ananthavalli SchoolAnanthavalli School", "city": "CHENNAI"}, "geometry": {"type": "Point", "coordinates": [80.07362946240994, 12.86209629173468]}}, {"type": "Feature", "properties": {"route_name": "500ET", "stop_id": "MyGqmywG", "name": "Palakka Company", "city": "CHENNAI"}, "geometry": {"type": "Point", "coordinates": [80.07001123216105, 12.85695912302813]}}, {"type": "Feature", "properties": {"route_name": "500ET", "stop_id": "iEKDTvNf", "name": "Akshaya Apartments Guduvanchery", "city": "CHENNAI"}, "geometry": {"type": "Point", "coordinates": [80.06776409587064, 12.854014247858574]}}, {"type": "Feature", "properties": {"route_name": "500ET", "stop_id": "vDFCntfg", "name": "Guduvancheri EB Office", "city": "CHENNAI"}, "geometry": {"type": "Point", "coordinates": [80.06579046, 12.85120776]}}, {"type": "Feature", "properties": {"route_name": "500ET", "stop_id": "YvwuVYMF", "name": "Guduvancheri Bus Terminus", "city": "CHENNAI"}, "geometry": {"type": "Point", "coordinates": [80.06156057583712, 12.845099416050214]}}, {"type": "Feature", "properties": {"route_name": "500ET", "stop_id": "SwTowoaO", "name": "Srinivasapuram", "city": "CHENNAI"}, "geometry": {"type": "Point", "coordinates": [80.05553505179523, 12.839816823736793]}}, {"type": "Feature", "properties": {"route_name": "500ET", "stop_id": "TkHOmLHQ", "name": "Thailavaram", "city": "CHENNAI"}, "geometry": {"type": "Point", "coordinates": [80.04610717067567, 12.830760770543334]}}, {"type": "Feature", "properties": {"route_name": "500ET", "stop_id": "oYdkYEMp", "name": "SRM College", "city": "CHENNAI"}, "geometry": {"type": "Point", "coordinates": [80.04103115857765, 12.825786315255836]}}, {"type": "Feature", "properties": {"route_name": "500ET", "stop_id": "EIHKZlEa", "name": "Potheri", "city": "CHENNAI"}, "geometry": {"type": "Point", "coordinates": [80.03673652074872, 12.819856553564838]}}, {"type": "Feature", "properties": {"route_name": "500ET", "stop_id": "mkpQpPSv", "name": "Sivanandha Gurukulam", "city": "CHENNAI"}, "geometry": {"type": "Point", "coordinates": [80.0328048018946, 12.81425303644407]}}, {"type": "Feature", "properties": {"route_name": "500ET", "stop_id": "GYxWnXpv", "name": "Kattankulathur", "city": "CHENNAI"}, "geometry": {"type": "Point", "coordinates": [80.02959901012446, 12.809235629939066]}}, {"type": "Feature", "properties": {"route_name": "500ET", "stop_id": "ZgqhsueA", "name": "Maraimalai Nagar", "city": "CHENNAI"}, "geometry": {"type": "Point", "coordinates": [80.02327606350445, 12.799494910170328]}}, {"type": "Feature", "properties": {"route_name": "500ET", "stop_id": "HeSMGtlu", "name": "Samiyar Gate", "city": "CHENNAI"}, "geometry": {"type": "Point", "coordinates": [80.02017697264773, 12.794932508639613]}}, {"type": "Feature", "properties": {"route_name": "500ET", "stop_id": "iGMYbQYg", "name": "Stange", "city": "CHENNAI"}, "geometry": {"type": "Point", "coordinates": [80.01689814351016, 12.789597093784955]}}, {"type": "Feature", "properties": {"route_name": "500ET", "stop_id": "tDhKnafe", "name": "Ford", "city": "CHENNAI"}, "geometry": {"type": "Point", "coordinates": [80.01515174042163, 12.786756478373835]}}, {"type": "Feature", "properties": {"route_name": "500ET", "stop_id": "TabXWeiJ", "name": "Keelkaranai", "city": "CHENNAI"}, "geometry": {"type": "Point", "coordinates": [80.01051771787536, 12.776878787372459]}}, {"type": "Feature", "properties": {"route_name": "500ET", "stop_id": "eyUKPfnA", "name": "Singaperumal Kovil", "city": "CHENNAI"}, "geometry": {"type": "Point", "coordinates": [80.00374053632402, 12.761268224379528]}}, {"type": "Feature", "properties": {"route_name": "500ET", "stop_id": "WhCgdKgR", "name": "Tirutheri", "city": "CHENNAI"}, "geometry": {"type": "Point", "coordinates": [80.00198135642609, 12.75594328935176]}}, {"type": "Feature", "properties": {"route_name": "500ET", "stop_id": "LeICPOtv", "name": "Tirutheri Sathya Nagar", "city": "CHENNAI"}, "geometry": {"type": "Point", "coordinates": [79.99777857462814, 12.749733366054194]}}, {"type": "Feature", "properties": {"route_name": "500ET", "stop_id": "vjVhbIrq", "name": "Mahendira World City Or Chettipunyam", "city": "CHENNAI"}, "geometry": {"type": "Point", "coordinates": [79.99265765171958, 12.743286641929114]}}, {"type": "Feature", "properties": {"route_name": "500ET", "stop_id": "OSxOVFcp", "name": "Paranur", "city": "CHENNAI"}, "geometry": {"type": "Point", "coordinates": [79.98855446581229, 12.738135585580766]}}, {"type": "Feature", "properties": {"route_name": "500ET", "stop_id": "XQiQvefE", "name": "Paranur Toll Plaza", "city": "CHENNAI"}, "geometry": {"type": "Point", "coordinates": [79.9819998101449, 12.724252554441662]}}, {"type": "Feature", "properties": {"route_name": "500ET", "stop_id": "DeWEzUGk", "name": "Rajakulipettai", "city": "CHENNAI"}, "geometry": {"type": "Point", "coordinates": [79.98089822698591, 12.716840775107176]}}, {"type": "Feature", "properties": {"route_name": "500ET", "stop_id": "rBGGtpqI", "name": "Pulipakkam", "city": "CHENNAI"}, "geometry": {"type": "Point", "coordinates": [79.97903034556327, 12.711444125216117]}}, {"type": "Feature", "properties": {"route_name": "500ET", "stop_id": "qheIKvdP", "name": "Chengalpattu Old Bus Terminal", "city": "CHENNAI"}, "geometry": {"type": "Point", "coordinates": [79.97681095842995, 12.696941113450553]}}, {"type": "Feature", "properties": {"route_name": "500ET", "stop_id": "bInfxKVp", "name": "Chengalpattu New Bus Terminal", "city": "CHENNAI"}, "geometry": {"type": "Point", "coordinates": [79.98032107910274, 12.691013107249205]}}, {"type": "Feature", "properties": {"name": "500ET"}, "geometry": {"type": "LineString", "coordinates": [[80.1473, 12.93625], [80.14664, 12.93631], [80.14625, 12.93641], [80.1456, 12.93647], [80.14528, 12.93654], [80.14498, 12.93662], [80.14482, 12.9367], [80.14412, 12.9371], [80.14401, 12.93711], [80.1439, 12.93711], [80.14386, 12.93708], [80.14382, 12.93704], [80.14381, 12.93701], [80.14318, 12.93713], [80.14299, 12.9369], [80.14084, 12.93693], [80.13931, 12.9369], [80.13919, 12.93691], [80.13907, 12.93695], [80.13897, 12.93705], [80.13886, 12.93736], [80.1387, 12.93732], [80.13822, 12.93736], [80.13734, 12.93745], [80.13599, 12.9376], [80.13478, 12.93776], [80.13375, 12.93793], [80.133, 12.93809], [80.13288, 12.93808], [80.13277, 12.93802], [80.13217, 12.93726], [80.13146, 12.9364], [80.13135, 12.9363], [80.13122, 12.93624], [80.13111, 12.93624], [80.13095, 12.93627], [80.13064, 12.93642], [80.1293, 12.93699], [80.12873, 12.93723], [80.12843, 12.93737], [80.12834, 12.93743], [80.12804, 12.9371], [80.12706, 12.93597], [80.12528, 12.93403], [80.12465, 12.93341], [80.12294, 12.93174], [80.1212, 12.92995], [80.12043, 12.92921], [80.11972, 12.92848], [80.11884, 12.92761], [80.11769, 12.92643], [80.11797, 12.92613], [80.11737, 12.92563], [80.11737, 12.92559], [80.1168, 12.92508], [80.11674, 12.92505], [80.11664, 12.92504], [80.11647, 12.92506], [80.11642, 12.92508], [80.11634, 12.92511], [80.11489, 12.9237], [80.11432, 12.92308], [80.114, 12.92279], [80.11323, 12.92205], [80.11241, 12.92122], [80.11229, 12.92113], [80.11192, 12.92076], [80.1111, 12.92001], [80.11073, 12.91968], [80.10945, 12.91862], [80.10854, 12.91794], [80.10767, 12.91726], [80.10664, 12.91669], [80.10583, 12.91624], [80.10358, 12.91503], [80.10294, 12.91465], [80.10269, 12.91448], [80.10198, 12.91398], [80.10173, 12.91371], [80.10165, 12.91352], [80.10161, 12.91338], [80.10146, 12.91205], [80.1013, 12.91113], [80.10119, 12.91078], [80.10104, 12.91049], [80.10085, 12.91023], [80.10074, 12.91012], [80.10059, 12.91001], [80.10019, 12.9098], [80.09966, 12.90954], [80.09894, 12.90918], [80.09863, 12.90897], [80.09871, 12.90886], [80.09864, 12.90882], [80.09859, 12.90878], [80.09871, 12.90886], [80.09863, 12.90897], [80.09837, 12.90877], [80.09815, 12.9086], [80.09794, 12.9084], [80.09765, 12.9081], [80.09714, 12.90745], [80.09647, 12.90652], [80.09641, 12.90643], [80.09561, 12.9053], [80.09447, 12.90375], [80.0938, 12.90294], [80.09336, 12.90242], [80.09248, 12.90131], [80.09225, 12.90101], [80.09138, 12.89991], [80.09025, 12.89827], [80.08956, 12.89746], [80.08942, 12.89728], [80.08826, 12.89573], [80.08656, 12.89346], [80.08634, 12.89316], [80.08595, 12.89262], [80.08591, 12.89258], [80.08549, 12.89196], [80.08527, 12.89158], [80.08485, 12.8906], [80.08378, 12.88807], [80.08262, 12.88522], [80.08244, 12.88486], [80.08231, 12.88459], [80.08231, 12.88446], [80.08229, 12.88422], [80.08226, 12.88409], [80.0822, 12.8839], [80.08213, 12.88366], [80.08194, 12.88321], [80.08179, 12.88286], [80.08149, 12.88211], [80.08129, 12.88159], [80.08101, 12.88094], [80.08096, 12.88089], [80.08083, 12.88057], [80.08082, 12.88055], [80.08055, 12.87986], [80.08023, 12.87905], [80.07964, 12.87751], [80.07924, 12.87645], [80.07908, 12.87603], [80.07898, 12.87589], [80.07882, 12.87567], [80.07818, 12.87411], [80.07745, 12.87227], [80.07645, 12.8697], [80.07573, 12.86783], [80.07582, 12.8678], [80.07558, 12.86717], [80.07537, 12.86668], [80.07453, 12.86434], [80.07434, 12.86386], [80.07392, 12.86277], [80.07373, 12.86233], [80.07362, 12.8621], [80.07306, 12.86105], [80.07236, 12.85998], [80.07199, 12.85941], [80.07178, 12.85929], [80.07173, 12.85928], [80.07085, 12.85811], [80.06997, 12.85699], [80.06937, 12.85621], [80.06833, 12.85481], [80.06774, 12.85403], [80.06651, 12.85237], [80.06641, 12.85218], [80.06619, 12.85186], [80.0662, 12.85183], [80.0662, 12.8518], [80.06619, 12.85177], [80.0661, 12.85159], [80.06587, 12.85126], [80.06582, 12.85119], [80.06576, 12.85123], [80.0649, 12.85], [80.06405, 12.84884], [80.06233, 12.84654], [80.06206, 12.84621], [80.06145, 12.84552], [80.06152, 12.84536], [80.06164, 12.84515], [80.06152, 12.84536], [80.06149, 12.84547], [80.06145, 12.84552], [80.06128, 12.84533], [80.06097, 12.84501], [80.06049, 12.84453], [80.05842, 12.84261], [80.05781, 12.84203], [80.05693, 12.8412], [80.0558, 12.84016], [80.05549, 12.83985], [80.05556, 12.83979], [80.05466, 12.83891], [80.05427, 12.83853], [80.05413, 12.83859], [80.05368, 12.83817], [80.05279, 12.83733], [80.05088, 12.83549], [80.04998, 12.83466], [80.04864, 12.83334], [80.04729, 12.83204], [80.04618, 12.83099], [80.04599, 12.8308], [80.04585, 12.83068], [80.0459, 12.83063], [80.04596, 12.83069], [80.04609, 12.83078], [80.0459, 12.83063], [80.04585, 12.83068], [80.04582, 12.83065], [80.04508, 12.82996], [80.04186, 12.8269], [80.04135, 12.82638], [80.04142, 12.82632], [80.04132, 12.82618], [80.04102, 12.8258], [80.04062, 12.82533], [80.0405, 12.82515], [80.04005, 12.82449], [80.03947, 12.82367], [80.03877, 12.82272], [80.03861, 12.8225], [80.03828, 12.82201], [80.03821, 12.82205], [80.03772, 12.82134], [80.03753, 12.8211], [80.03691, 12.8202], [80.0367, 12.81988], [80.03618, 12.81917], [80.03602, 12.81898], [80.03583, 12.81868], [80.03484, 12.81726], [80.0328, 12.81441], [80.03272, 12.8143], [80.03043, 12.81077], [80.03027, 12.81051], [80.02997, 12.81005], [80.02997, 12.80994], [80.02992, 12.80981], [80.02957, 12.80925], [80.02937, 12.80892], [80.02935, 12.80893], [80.02927, 12.80897], [80.02902, 12.80856], [80.02795, 12.80691], [80.02718, 12.80571], [80.02582, 12.80363], [80.02366, 12.80035], [80.02345, 12.80003], [80.02344, 12.79995], [80.02341, 12.79982], [80.02323, 12.79952], [80.02303, 12.79927], [80.02298, 12.79924], [80.02294, 12.79923], [80.02289, 12.79917], [80.02273, 12.79894], [80.02212, 12.79799], [80.0213, 12.79674], [80.02077, 12.79589], [80.02066, 12.79576], [80.02051, 12.79553], [80.02014, 12.79496], [80.01931, 12.79372], [80.01826, 12.79211], [80.01745, 12.79076], [80.01712, 12.79021], [80.01713, 12.79016], [80.01712, 12.79009], [80.01685, 12.78963], [80.01667, 12.78936], [80.0166, 12.78933], [80.01657, 12.78932], [80.0164, 12.78904], [80.01584, 12.7881], [80.01523, 12.78703], [80.01508, 12.7868], [80.01397, 12.78491], [80.01377, 12.78453], [80.01349, 12.78392], [80.01323, 12.78332], [80.01295, 12.78273], [80.01214, 12.78091], [80.0115, 12.77942], [80.0108, 12.7778], [80.01069, 12.77758], [80.0107, 12.77751], [80.0107, 12.77749], [80.01065, 12.77729], [80.01055, 12.77702], [80.01049, 12.7769], [80.01035, 12.7767], [80.0103, 12.77669], [80.01023, 12.77652], [80.00908, 12.77393], [80.00859, 12.77286], [80.00801, 12.77163], [80.00756, 12.77058], [80.00717, 12.76985], [80.00658, 12.76869], [80.00658, 12.76856], [80.0064, 12.76816], [80.00599, 12.76728], [80.00546, 12.76606], [80.00486, 12.76467], [80.00455, 12.76389], [80.00405, 12.76263], [80.0039, 12.76206], [80.00375, 12.76135], [80.00372, 12.76127], [80.00342, 12.76015], [80.00323, 12.75954], [80.00297, 12.75867], [80.00265, 12.75763], [80.00239, 12.75691], [80.00225, 12.75657], [80.00195, 12.75595], [80.00195, 12.75596], [80.00129, 12.75484], [80.00031, 12.75332], [79.99956, 12.75221], [79.99926, 12.75176], [79.99837, 12.75053], [79.99776, 12.74974], [79.99535, 12.74678], [79.99296, 12.74382], [79.99295, 12.74375], [79.99288, 12.74358], [79.99266, 12.74329], [79.99263, 12.7433], [79.99252, 12.74317], [79.99233, 12.74309], [79.98986, 12.74], [79.98907, 12.73902], [79.98882, 12.73869], [79.98882, 12.73862], [79.98878, 12.73851], [79.98856, 12.73817], [79.98854, 12.73815], [79.98838, 12.73797], [79.98831, 12.73793], [79.98827, 12.73793], [79.98775, 12.73714], [79.987, 12.73609], [79.98667, 12.73567], [79.98632, 12.73529], [79.98596, 12.73498], [79.98539, 12.73454], [79.98435, 12.73377], [79.98387, 12.73338], [79.98356, 12.73303], [79.98341, 12.73281], [79.98329, 12.73255], [79.98321, 12.73224], [79.98316, 12.73194], [79.98299, 12.73051], [79.98271, 12.72782], [79.98254, 12.72668], [79.98235, 12.72584], [79.98228, 12.72549], [79.98198, 12.72426], [79.98175, 12.72332], [79.98147, 12.72222], [79.98137, 12.72168], [79.98127, 12.72092], [79.9811, 12.7194], [79.981, 12.71816], [79.98086, 12.71684], [79.98075, 12.71625], [79.98057, 12.7155], [79.98034, 12.71471], [79.98007, 12.71377], [79.97978, 12.71287], [79.97952, 12.71235], [79.97922, 12.71194], [79.9789, 12.71155], [79.9786, 12.71115], [79.9781, 12.71025], [79.97799, 12.70961], [79.97795, 12.70946], [79.9779, 12.70939], [79.97787, 12.70916], [79.97785, 12.70905], [79.97784, 12.70879], [79.97762, 12.70768], [79.97739, 12.70641], [79.97733, 12.70605], [79.97718, 12.70557], [79.97691, 12.70435], [79.97674, 12.70352], [79.97659, 12.70296], [79.97639, 12.70198], [79.97619, 12.70101], [79.9761, 12.70027], [79.97605, 12.69998], [79.976, 12.69968], [79.97593, 12.69887], [79.97594, 12.69868], [79.97629, 12.69783], [79.97641, 12.69754], [79.97652, 12.69731], [79.97659, 12.6972], [79.97677, 12.69692], [79.97693, 12.69671], [79.97745, 12.69612], [79.97768, 12.69584], [79.97776, 12.69574], [79.97809, 12.69509], [79.97821, 12.6949], [79.97853, 12.69444], [79.97877, 12.69417], [79.97892, 12.69406], [79.97906, 12.69397], [79.97919, 12.69385], [79.97936, 12.69362], [79.97944, 12.69344], [79.97947, 12.69324], [79.97949, 12.6931], [79.97953, 12.69298], [79.97969, 12.69271], [79.98031, 12.69185], [79.98057, 12.69154], [79.98077, 12.69137], [79.98109, 12.69095], [79.98115, 12.69088], [79.98147, 12.69052], [79.98167, 12.69034], [79.98141, 12.69001], [79.98081, 12.69014], [79.9805, 12.69016], [79.9805, 12.69024], [79.98054, 12.69052], [79.98061, 12.69082], [79.98067, 12.69108], [79.98034, 12.69112]]}}]}