{"type": "FeatureCollection", "features": [{"type": "Feature", "properties": {"route_name": "31G", "stop_id": "ojqTFFWy", "name": "Tambaram West Bus Stand", "city": "CHENNAI"}, "geometry": {"type": "Point", "coordinates": [80.11862628452741, 12.927652178598898]}}, {"type": "Feature", "properties": {"route_name": "31G", "stop_id": "XFPAZveS", "name": "Tambaram Railway Station", "city": "CHENNAI"}, "geometry": {"type": "Point", "coordinates": [80.11732575024665, 12.925641090542161]}}, {"type": "Feature", "properties": {"route_name": "31G", "stop_id": "slfxTuih", "name": "Tambaram East Bus Stop", "city": "CHENNAI"}, "geometry": {"type": "Point", "coordinates": [80.12050048174797, 12.923398028038447]}}, {"type": "Feature", "properties": {"route_name": "31G", "stop_id": "dLtneiKf", "name": "Tambaram Railway Station East", "city": "CHENNAI"}, "geometry": {"type": "Point", "coordinates": [80.12191720013647, 12.923277103172554]}}, {"type": "Feature", "properties": {"route_name": "31G", "stop_id": "iYTiOTOT", "name": "Poondi Bazaar", "city": "CHENNAI"}, "geometry": {"type": "Point", "coordinates": [80.12559874995668, 12.923184074468544]}}, {"type": "Feature", "properties": {"route_name": "31G", "stop_id": "pPKqPUVW", "name": "East Tambaram Convent", "city": "CHENNAI"}, "geometry": {"type": "Point", "coordinates": [80.13077968753532, 12.922863534282508]}}, {"type": "Feature", "properties": {"route_name": "31G", "stop_id": "tcYerYbk", "name": "Aathi Nagar", "city": "CHENNAI"}, "geometry": {"type": "Point", "coordinates": [80.133409434643, 12.922781355856248]}}, {"type": "Feature", "properties": {"route_name": "31G", "stop_id": "jJVVpGMf", "name": "Selaiyur", "city": "CHENNAI"}, "geometry": {"type": "Point", "coordinates": [80.13743793819572, 12.922595220822112]}}, {"type": "Feature", "properties": {"route_name": "31G", "stop_id": "pwpCkicC", "name": "Camp Road Junction Selaiyur", "city": "CHENNAI"}, "geometry": {"type": "Point", "coordinates": [80.14384125454421, 12.922601831927487]}}, {"type": "Feature", "properties": {"route_name": "31G", "stop_id": "LhQSpAzy", "name": "Mahalakshmi Nagar", "city": "CHENNAI"}, "geometry": {"type": "Point", "coordinates": [80.14726512966445, 12.922705274965574]}}, {"type": "Feature", "properties": {"route_name": "31G", "stop_id": "ajCBPuBp", "name": "Rajakilpakkam", "city": "CHENNAI"}, "geometry": {"type": "Point", "coordinates": [80.15186954085152, 12.92264826906369]}}, {"type": "Feature", "properties": {"route_name": "31G", "stop_id": "OqBnJDkE", "name": "Madambakkam Anna Nagar", "city": "CHENNAI"}, "geometry": {"type": "Point", "coordinates": [80.15939606411484, 12.906732926960615]}}, {"type": "Feature", "properties": {"route_name": "31G", "stop_id": "CsZszdUY", "name": "Kozhi Pannai", "city": "CHENNAI"}, "geometry": {"type": "Point", "coordinates": [80.1585641954872, 12.903291731540472]}}, {"type": "Feature", "properties": {"route_name": "31G", "stop_id": "fGCuvnjJ", "name": "Madambakkam EB", "city": "CHENNAI"}, "geometry": {"type": "Point", "coordinates": [80.16159386317076, 12.900795496183363]}}, {"type": "Feature", "properties": {"route_name": "31G", "stop_id": "xjlhzjUh", "name": "Madambakkam Koil", "city": "CHENNAI"}, "geometry": {"type": "Point", "coordinates": [80.16164989554409, 12.898638004255094]}}, {"type": "Feature", "properties": {"route_name": "31G", "stop_id": "mTKelVZs", "name": "Noothencheri", "city": "CHENNAI"}, "geometry": {"type": "Point", "coordinates": [80.16714430620982, 12.897828634194829]}}, {"type": "Feature", "properties": {"route_name": "31G", "stop_id": "gKNaWgzA", "name": "Manickam Nagar Or MLA Office", "city": "CHENNAI"}, "geometry": {"type": "Point", "coordinates": [80.1690963894406, 12.897603519531431]}}, {"type": "Feature", "properties": {"route_name": "31G", "stop_id": "ngHHCDQb", "name": "Noothancheri Cross Road", "city": "CHENNAI"}, "geometry": {"type": "Point", "coordinates": [80.17368779548065, 12.895617043969537]}}, {"type": "Feature", "properties": {"route_name": "31G", "stop_id": "cekWZWmD", "name": "Gandhi Nagar Or Venkaivasal", "city": "CHENNAI"}, "geometry": {"type": "Point", "coordinates": [80.17264170010685, 12.90023437631516]}}, {"type": "Feature", "properties": {"route_name": "31G", "stop_id": "rydzAjNc", "name": "Kulakarai Venkaivasal", "city": "CHENNAI"}, "geometry": {"type": "Point", "coordinates": [80.16837361534817, 12.902865969709794]}}, {"type": "Feature", "properties": {"route_name": "31G", "stop_id": "FHApcaDQ", "name": "Vengaivasal PH Centre", "city": "CHENNAI"}, "geometry": {"type": "Point", "coordinates": [80.16717710626301, 12.906249281599086]}}, {"type": "Feature", "properties": {"route_name": "31G", "stop_id": "glrALKnP", "name": "Vengaivasal Road Junction", "city": "CHENNAI"}, "geometry": {"type": "Point", "coordinates": [80.176621702587, 12.918499799822676]}}, {"type": "Feature", "properties": {"route_name": "31G", "stop_id": "hApOmpAO", "name": "Vijaya Nagaram", "city": "CHENNAI"}, "geometry": {"type": "Point", "coordinates": [80.17889734110452, 12.919022053180719]}}, {"type": "Feature", "properties": {"route_name": "31G", "stop_id": "lUWTaWkd", "name": "Medavakkam", "city": "CHENNAI"}, "geometry": {"type": "Point", "coordinates": [80.18190556301818, 12.919856467070181]}}, {"type": "Feature", "properties": {"route_name": "31G", "stop_id": "RZCadHVt", "name": "Medavakkam Koot Road", "city": "CHENNAI"}, "geometry": {"type": "Point", "coordinates": [80.1850407887157, 12.920707816742201]}}, {"type": "Feature", "properties": {"name": "31G"}, "geometry": {"type": "LineString", "coordinates": [[80.11931, 12.92831], [80.12078, 12.92972], [80.12113, 12.93007], [80.12124, 12.92996], [80.12091, 12.92967], [80.12, 12.92876], [80.11965, 12.92841], [80.11838, 12.92712], [80.11769, 12.92646], [80.1178, 12.92632], [80.11794, 12.92613], [80.11738, 12.92561], [80.11693, 12.92519], [80.11668, 12.92505], [80.11643, 12.92507], [80.11593, 12.9246], [80.11552, 12.92425], [80.11565, 12.9242], [80.11601, 12.92401], [80.11704, 12.92378], [80.11792, 12.92356], [80.11889, 12.92345], [80.11936, 12.92342], [80.12044, 12.92336], [80.12049, 12.92334], [80.12192, 12.92325], [80.12444, 12.92314], [80.1256, 12.92311], [80.12744, 12.923], [80.12797, 12.92296], [80.12811, 12.92292], [80.12822, 12.92291], [80.12943, 12.92284], [80.12985, 12.92283], [80.13044, 12.9228], [80.1306, 12.92283], [80.13078, 12.92283], [80.13257, 12.92277], [80.13341, 12.92273], [80.13505, 12.92265], [80.13744, 12.92255], [80.13748, 12.92255], [80.13837, 12.9225], [80.13932, 12.92244], [80.14113, 12.92249], [80.14201, 12.92249], [80.14284, 12.92254], [80.14364, 12.92256], [80.14384, 12.92257], [80.14592, 12.92265], [80.14727, 12.92268], [80.14824, 12.92267], [80.14859, 12.92266], [80.14907, 12.92269], [80.14935, 12.92271], [80.15023, 12.92274], [80.15181, 12.92279], [80.15184, 12.92264], [80.15215, 12.92119], [80.1522, 12.92068], [80.15225, 12.91967], [80.15228, 12.91912], [80.1523, 12.91849], [80.15225, 12.91778], [80.15221, 12.91724], [80.15221, 12.91666], [80.15215, 12.91599], [80.15214, 12.91568], [80.15218, 12.91563], [80.15226, 12.91555], [80.15237, 12.91548], [80.15289, 12.91522], [80.15339, 12.91489], [80.15382, 12.91462], [80.15429, 12.91436], [80.15455, 12.91417], [80.15473, 12.91396], [80.15514, 12.91325], [80.15572, 12.91217], [80.15598, 12.9117], [80.15622, 12.91122], [80.15668, 12.91033], [80.157, 12.90976], [80.15718, 12.9094], [80.15727, 12.90906], [80.15728, 12.90863], [80.15727, 12.90844], [80.15727, 12.90762], [80.15728, 12.90753], [80.15732, 12.90747], [80.15738, 12.90744], [80.15864, 12.90734], [80.15895, 12.90731], [80.15909, 12.90728], [80.1592, 12.90723], [80.15929, 12.90717], [80.15938, 12.90703], [80.1594, 12.90687], [80.15938, 12.90674], [80.15938, 12.90673], [80.15933, 12.9064], [80.15893, 12.90489], [80.15873, 12.90409], [80.15852, 12.9033], [80.1583, 12.9022], [80.15822, 12.90167], [80.15818, 12.90107], [80.15819, 12.90099], [80.15826, 12.90086], [80.15839, 12.90083], [80.15867, 12.90082], [80.15967, 12.90084], [80.16066, 12.90087], [80.16131, 12.90093], [80.16136, 12.90092], [80.16145, 12.90088], [80.1615, 12.90078], [80.16157, 12.89975], [80.16161, 12.89869], [80.16161, 12.89864], [80.16163, 12.89838], [80.16167, 12.89831], [80.16172, 12.89827], [80.16179, 12.89824], [80.16197, 12.89823], [80.16254, 12.89819], [80.16335, 12.8981], [80.16393, 12.89807], [80.16501, 12.89799], [80.16565, 12.89792], [80.16613, 12.89786], [80.167, 12.8978], [80.16715, 12.89779], [80.16831, 12.89768], [80.16889, 12.89762], [80.16907, 12.89755], [80.17084, 12.89694], [80.17147, 12.89674], [80.17234, 12.89631], [80.17258, 12.89617], [80.17293, 12.896], [80.17339, 12.89575], [80.17367, 12.89559], [80.17373, 12.89561], [80.17419, 12.89749], [80.17437, 12.89815], [80.17453, 12.89878], [80.17466, 12.89921], [80.17467, 12.89929], [80.17464, 12.89937], [80.17445, 12.89953], [80.17412, 12.89974], [80.1737, 12.89994], [80.17318, 12.90012], [80.17269, 12.90026], [80.17265, 12.90027], [80.1722, 12.90039], [80.17201, 12.90041], [80.17139, 12.90045], [80.17042, 12.90049], [80.16988, 12.90058], [80.16961, 12.90062], [80.16922, 12.9006], [80.1684, 12.90068], [80.1686, 12.90134], [80.16868, 12.90214], [80.16866, 12.90225], [80.16861, 12.90237], [80.16848, 12.90263], [80.16841, 12.90288], [80.16829, 12.90322], [80.16823, 12.90334], [80.16816, 12.90344], [80.16758, 12.90436], [80.16749, 12.90454], [80.16744, 12.90476], [80.16724, 12.90626], [80.16711, 12.90734], [80.16725, 12.90765], [80.16778, 12.90844], [80.16824, 12.90896], [80.16831, 12.9091], [80.16849, 12.9096], [80.16855, 12.90981], [80.16874, 12.91106], [80.16876, 12.91119], [80.16893, 12.91177], [80.16923, 12.91243], [80.16957, 12.9132], [80.16962, 12.91335], [80.16963, 12.91346], [80.1696, 12.91386], [80.16995, 12.91513], [80.17016, 12.9159], [80.17031, 12.9167], [80.1704, 12.91689], [80.1706, 12.91705], [80.17067, 12.91716], [80.17074, 12.91733], [80.17138, 12.9197], [80.17141, 12.91981], [80.1742, 12.91904], [80.17567, 12.91869], [80.17598, 12.91859], [80.17657, 12.91847], [80.17661, 12.91846], [80.17739, 12.91832], [80.17763, 12.91829], [80.1778, 12.9183], [80.17801, 12.91835], [80.17818, 12.91845], [80.17886, 12.91896], [80.17892, 12.91899], [80.17911, 12.9191], [80.17923, 12.91914], [80.17941, 12.9192], [80.17965, 12.91925], [80.18081, 12.91951], [80.18193, 12.91976], [80.18191, 12.91979], [80.18243, 12.91991], [80.18345, 12.92015], [80.18378, 12.92029], [80.18399, 12.92041], [80.18449, 12.92055], [80.18505, 12.92069]]}}]}