{"type": "FeatureCollection", "features": [{"type": "Feature", "properties": {"route_name": "114ET", "stop_id": "BpAiVnps", "name": "CMBT Koyembedu Bus Depot", "city": "CHENNAI"}, "geometry": {"type": "Point", "coordinates": [80.20518932458458, 13.068981607807045]}}, {"type": "Feature", "properties": {"route_name": "114ET", "stop_id": "RVGhYAxc", "name": "Koyambedu Chathiram", "city": "CHENNAI"}, "geometry": {"type": "Point", "coordinates": [80.19986513405274, 13.074022468293892]}}, {"type": "Feature", "properties": {"route_name": "114ET", "stop_id": "tDDddUJb", "name": "CPWD Quarters", "city": "CHENNAI"}, "geometry": {"type": "Point", "coordinates": [80.19837966049488, 13.082223517801985]}}, {"type": "Feature", "properties": {"route_name": "114ET", "stop_id": "lmZJehpq", "name": "Thirumangalam", "city": "CHENNAI"}, "geometry": {"type": "Point", "coordinates": [80.19845386988084, 13.090937421165162]}}, {"type": "Feature", "properties": {"route_name": "114ET", "stop_id": "EmkugZPX", "name": "Anna Nagar West Depot", "city": "CHENNAI"}, "geometry": {"type": "Point", "coordinates": [80.1984805710307, 13.093776863124802]}}, {"type": "Feature", "properties": {"route_name": "114ET", "stop_id": "xTOrUJFO", "name": "Kovarthanagiri", "city": "CHENNAI"}, "geometry": {"type": "Point", "coordinates": [80.19695999999999, 13.098490776245674]}}, {"type": "Feature", "properties": {"route_name": "114ET", "stop_id": "KjgVoxgR", "name": "Wheels India Road Junction", "city": "CHENNAI"}, "geometry": {"type": "Point", "coordinates": [80.19431607624301, 13.101426887338741]}}, {"type": "Feature", "properties": {"route_name": "114ET", "stop_id": "HFYkXdPG", "name": "Agrakaram", "city": "CHENNAI"}, "geometry": {"type": "Point", "coordinates": [80.19847503158019, 13.119017937025482]}}, {"type": "Feature", "properties": {"route_name": "114ET", "stop_id": "TvGyfQSI", "name": "Senthil Nagar", "city": "CHENNAI"}, "geometry": {"type": "Point", "coordinates": [80.20203456394643, 13.12364430854919]}}, {"type": "Feature", "properties": {"route_name": "114ET", "stop_id": "NGAodVTg", "name": "Ambedkar Nagar", "city": "CHENNAI"}, "geometry": {"type": "Point", "coordinates": [80.20702228039602, 13.12643119141678]}}, {"type": "Feature", "properties": {"route_name": "114ET", "stop_id": "mXwfazRz", "name": "Retteri Junction", "city": "CHENNAI"}, "geometry": {"type": "Point", "coordinates": [80.21316637742791, 13.129989359538518]}}, {"type": "Feature", "properties": {"route_name": "114ET", "stop_id": "fJdABIlw", "name": "RTO Or Kolathur Shastri Nagar", "city": "CHENNAI"}, "geometry": {"type": "Point", "coordinates": [80.21634011439858, 13.136140683154789]}}, {"type": "Feature", "properties": {"route_name": "114ET", "stop_id": "oUmVLfUX", "name": "Madhavaram Bypass", "city": "CHENNAI"}, "geometry": {"type": "Point", "coordinates": [80.2184871321432, 13.141271690381386]}}, {"type": "Feature", "properties": {"route_name": "114ET", "stop_id": "pzcCDVmZ", "name": "Madhavaram Rountana", "city": "CHENNAI"}, "geometry": {"type": "Point", "coordinates": [80.21932189565132, 13.145031360715578]}}, {"type": "Feature", "properties": {"route_name": "114ET", "stop_id": "TCBUGaZf", "name": "Kathirvedu Bypass", "city": "CHENNAI"}, "geometry": {"type": "Point", "coordinates": [80.20824812807405, 13.15314502790998]}}, {"type": "Feature", "properties": {"route_name": "114ET", "stop_id": "BlnSxBAr", "name": "Puzhal Camp", "city": "CHENNAI"}, "geometry": {"type": "Point", "coordinates": [80.20369329197862, 13.158264608508265]}}, {"type": "Feature", "properties": {"route_name": "114ET", "stop_id": "KcvPUxQg", "name": "Puzhal Jail", "city": "CHENNAI"}, "geometry": {"type": "Point", "coordinates": [80.20231012198508, 13.164298644421198]}}, {"type": "Feature", "properties": {"route_name": "114ET", "stop_id": "ePrpofUw", "name": "Kavangarai", "city": "CHENNAI"}, "geometry": {"type": "Point", "coordinates": [80.19922652488333, 13.17045830880621]}}, {"type": "Feature", "properties": {"route_name": "114ET", "stop_id": "VCQdmIoF", "name": "Thandal Kazhani", "city": "CHENNAI"}, "geometry": {"type": "Point", "coordinates": [80.19615803010544, 13.176000864407136]}}, {"type": "Feature", "properties": {"route_name": "114ET", "stop_id": "NFInfBeu", "name": "Sri Nallaghu Polytechnic College", "city": "CHENNAI"}, "geometry": {"type": "Point", "coordinates": [80.19478615461617, 13.17837926129572]}}, {"type": "Feature", "properties": {"route_name": "114ET", "stop_id": "kKKRBhFF", "name": "Ayurveda Ashramam", "city": "CHENNAI"}, "geometry": {"type": "Point", "coordinates": [80.19141192703125, 13.184649591138788]}}, {"type": "Feature", "properties": {"route_name": "114ET", "stop_id": "WdOwNGhj", "name": "Redhills Market", "city": "CHENNAI"}, "geometry": {"type": "Point", "coordinates": [80.18765184553399, 13.18925264696911]}}, {"type": "Feature", "properties": {"route_name": "114ET", "stop_id": "xfbmoJHP", "name": "Redhills Bus Terminus", "city": "CHENNAI"}, "geometry": {"type": "Point", "coordinates": [80.18435172804377, 13.192823904116457]}}, {"type": "Feature", "properties": {"route_name": "114ET", "stop_id": "NCSBLEus", "name": "Mondiyaman Nagar", "city": "CHENNAI"}, "geometry": {"type": "Point", "coordinates": [80.17901412594404, 13.198778307964428]}}, {"type": "Feature", "properties": {"route_name": "114ET", "stop_id": "AJLJQqsT", "name": "Padianallur", "city": "CHENNAI"}, "geometry": {"type": "Point", "coordinates": [80.17473004885483, 13.204504536655083]}}, {"type": "Feature", "properties": {"route_name": "114ET", "stop_id": "EYGEAZtD", "name": "Padianallur Check Post Or Vijaya Nallur", "city": "CHENNAI"}, "geometry": {"type": "Point", "coordinates": [80.17198755338325, 13.209594837174665]}}, {"type": "Feature", "properties": {"route_name": "114ET", "stop_id": "zqZasXpA", "name": "Redhills RTO Office", "city": "CHENNAI"}, "geometry": {"type": "Point", "coordinates": [80.17008864408778, 13.21460399271362]}}, {"type": "Feature", "properties": {"route_name": "114ET", "stop_id": "AUrIxxcC", "name": "Semilivaram Or Nallur Toll Plaza", "city": "CHENNAI"}, "geometry": {"type": "Point", "coordinates": [80.16907050148939, 13.217271625606102]}}, {"type": "Feature", "properties": {"route_name": "114ET", "stop_id": "illGQStO", "name": "Vijaya Nallur", "city": "CHENNAI"}, "geometry": {"type": "Point", "coordinates": [80.16753244267011, 13.221330232863748]}}, {"type": "Feature", "properties": {"route_name": "114ET", "stop_id": "sTaleXyI", "name": "Sembilivaram Or Nallur Road Junction", "city": "CHENNAI"}, "geometry": {"type": "Point", "coordinates": [80.16555271413688, 13.227161105736025]}}, {"type": "Feature", "properties": {"route_name": "114ET", "stop_id": "yTictHOU", "name": "Sengalamman Koil Or Sholavaram 4", "city": "CHENNAI"}, "geometry": {"type": "Point", "coordinates": [80.16460517831138, 13.229697217913404]}}, {"type": "Feature", "properties": {"route_name": "114ET", "stop_id": "TJDsQDoO", "name": "Sholavaram 3", "city": "CHENNAI"}, "geometry": {"type": "Point", "coordinates": [80.16234334772776, 13.235275509212642]}}, {"type": "Feature", "properties": {"route_name": "114ET", "stop_id": "HdBHspFM", "name": "Sholavaram", "city": "CHENNAI"}, "geometry": {"type": "Point", "coordinates": [80.16083516062658, 13.239516979349055]}}, {"type": "Feature", "properties": {"route_name": "114ET", "stop_id": "UVDfwOgc", "name": "Sholavaram High School Or BDO Office", "city": "CHENNAI"}, "geometry": {"type": "Point", "coordinates": [80.15962456480474, 13.242802346903405]}}, {"type": "Feature", "properties": {"route_name": "114ET", "stop_id": "rxrORjnb", "name": "Karanodai", "city": "CHENNAI"}, "geometry": {"type": "Point", "coordinates": [80.15753891866461, 13.246990251356396]}}, {"type": "Feature", "properties": {"route_name": "114ET", "stop_id": "AhlYGwKp", "name": "Karanodai Bus Stand", "city": "CHENNAI"}, "geometry": {"type": "Point", "coordinates": [80.15628322176518, 13.249466042002497]}}, {"type": "Feature", "properties": {"route_name": "114ET", "stop_id": "xunvufHj", "name": "Don Bosco Matriculation School Karanodai", "city": "CHENNAI"}, "geometry": {"type": "Point", "coordinates": [80.15531185640748, 13.252917300155165]}}, {"type": "Feature", "properties": {"route_name": "114ET", "stop_id": "nJRQzVZQ", "name": "Janapanchatram Koot Road Junction", "city": "CHENNAI"}, "geometry": {"type": "Point", "coordinates": [80.15486977608202, 13.262029986300082]}}, {"type": "Feature", "properties": {"route_name": "114ET", "stop_id": "vkWqgNph", "name": "Alinjivakkam", "city": "CHENNAI"}, "geometry": {"type": "Point", "coordinates": [80.15310641398924, 13.268324337818777]}}, {"type": "Feature", "properties": {"route_name": "114ET", "stop_id": "EonJeQKz", "name": "Athipedu", "city": "CHENNAI"}, "geometry": {"type": "Point", "coordinates": [80.15105700907407, 13.274533527856164]}}, {"type": "Feature", "properties": {"route_name": "114ET", "stop_id": "eymgjBxV", "name": "Panchetti", "city": "CHENNAI"}, "geometry": {"type": "Point", "coordinates": [80.14878290192974, 13.28648231519846]}}, {"type": "Feature", "properties": {"route_name": "114ET", "stop_id": "qqDoWQdv", "name": "Thachur Koot Road Junction", "city": "CHENNAI"}, "geometry": {"type": "Point", "coordinates": [80.14756970518795, 13.296605965000186]}}, {"type": "Feature", "properties": {"route_name": "114ET", "stop_id": "spmlaYUs", "name": "Peravallur", "city": "CHENNAI"}, "geometry": {"type": "Point", "coordinates": [80.14561342659681, 13.314626584331808]}}, {"type": "Feature", "properties": {"route_name": "114ET", "stop_id": "qIuTLVvj", "name": "Puduvoyal Road Or New Road", "city": "CHENNAI"}, "geometry": {"type": "Point", "coordinates": [80.14506559312258, 13.319586174322783]}}, {"type": "Feature", "properties": {"route_name": "114ET", "stop_id": "MgfOYJbA", "name": "Puduvayal", "city": "CHENNAI"}, "geometry": {"type": "Point", "coordinates": [80.14308653677836, 13.334785373838555]}}, {"type": "Feature", "properties": {"route_name": "114ET", "stop_id": "UCALextd", "name": "Mahindra IND Park", "city": "CHENNAI"}, "geometry": {"type": "Point", "coordinates": [80.16136756413502, 13.341716498246448]}}, {"type": "Feature", "properties": {"name": "114ET"}, "geometry": {"type": "LineString", "coordinates": [[80.20541, 13.06887], [80.20543, 13.06876], [80.20474, 13.06886], [80.20475, 13.06926], [80.2048, 13.06958], [80.20488, 13.06977], [80.20345, 13.07091], [80.20222, 13.07195], [80.20095, 13.07306], [80.19979, 13.07411], [80.19988, 13.07404], [80.1997, 13.07421], [80.19944, 13.07446], [80.19929, 13.07466], [80.1992, 13.07481], [80.19908, 13.07516], [80.19906, 13.07532], [80.19902, 13.07543], [80.19905, 13.07592], [80.19902, 13.07646], [80.19893, 13.07739], [80.19851, 13.08055], [80.19848, 13.08103], [80.19848, 13.08151], [80.1985, 13.08221], [80.1985, 13.08397], [80.19849, 13.08485], [80.19847, 13.08563], [80.1985, 13.08743], [80.19855, 13.08958], [80.19858, 13.09024], [80.19857, 13.09038], [80.19854, 13.09048], [80.19855, 13.09094], [80.19854, 13.09378], [80.19855, 13.09491], [80.19855, 13.09705], [80.19852, 13.09733], [80.19843, 13.09758], [80.1983, 13.09784], [80.19808, 13.09808], [80.19789, 13.09824], [80.19776, 13.09832], [80.1975, 13.09841], [80.19711, 13.0985], [80.19698, 13.09854], [80.19635, 13.09874], [80.19596, 13.0989], [80.19561, 13.0991], [80.19534, 13.09932], [80.19514, 13.09952], [80.19489, 13.09984], [80.19475, 13.10005], [80.19456, 13.10044], [80.19446, 13.10073], [80.19437, 13.10115], [80.19434, 13.10143], [80.1943, 13.10197], [80.19439, 13.10291], [80.19443, 13.10361], [80.19457, 13.10548], [80.19464, 13.10581], [80.19471, 13.10603], [80.19506, 13.10682], [80.19539, 13.1074], [80.1959, 13.10829], [80.19657, 13.10957], [80.19681, 13.11019], [80.19691, 13.11078], [80.19707, 13.11213], [80.19738, 13.11451], [80.19769, 13.117], [80.19782, 13.11751], [80.19802, 13.11805], [80.19834, 13.11874], [80.1985, 13.11901], [80.19914, 13.12003], [80.19922, 13.12018], [80.19969, 13.12116], [80.20004, 13.12179], [80.20017, 13.12199], [80.20039, 13.12226], [80.20065, 13.12255], [80.20088, 13.12276], [80.20124, 13.12302], [80.20184, 13.12338], [80.20226, 13.12363], [80.2022, 13.12373], [80.20204, 13.12364], [80.20323, 13.12432], [80.20415, 13.12484], [80.20468, 13.12511], [80.20637, 13.12606], [80.20703, 13.12642], [80.2077, 13.1268], [80.20773, 13.12671], [80.20809, 13.12689], [80.20906, 13.12746], [80.21034, 13.12819], [80.2103, 13.12831], [80.21066, 13.12854], [80.21142, 13.12896], [80.21275, 13.1297], [80.21318, 13.12997], [80.21344, 13.13018], [80.21362, 13.1301], [80.21452, 13.13155], [80.21541, 13.13369], [80.21633, 13.13572], [80.21656, 13.13629], [80.21635, 13.13614], [80.21649, 13.13648], [80.21653, 13.13659], [80.21667, 13.13656], [80.21797, 13.13964], [80.21805, 13.13979], [80.2183, 13.14032], [80.21829, 13.1404], [80.21832, 13.14054], [80.21859, 13.14123], [80.21968, 13.1439], [80.21973, 13.14415], [80.21972, 13.14423], [80.21969, 13.14432], [80.21964, 13.14443], [80.21963, 13.14449], [80.21954, 13.1447], [80.21938, 13.14501], [80.21934, 13.14505], [80.2181, 13.14593], [80.21532, 13.14795], [80.21444, 13.14859], [80.2132, 13.14952], [80.21123, 13.15102], [80.20981, 13.1521], [80.20965, 13.15221], [80.20961, 13.1522], [80.20953, 13.15224], [80.20917, 13.15245], [80.209, 13.15259], [80.20888, 13.15269], [80.20832, 13.15312], [80.20826, 13.15316], [80.2083, 13.15321], [80.20816, 13.15334], [80.20787, 13.15356], [80.20757, 13.15379], [80.20742, 13.1539], [80.20712, 13.15411], [80.20697, 13.15423], [80.20683, 13.15433], [80.20676, 13.1544], [80.2066, 13.15452], [80.20646, 13.15464], [80.20603, 13.155], [80.20578, 13.15524], [80.20549, 13.15557], [80.20461, 13.15657], [80.20395, 13.15781], [80.20371, 13.15827], [80.20349, 13.15885], [80.2034, 13.1592], [80.20334, 13.15946], [80.20327, 13.15981], [80.20317, 13.16038], [80.20311, 13.16074], [80.20296, 13.16153], [80.20282, 13.16233], [80.20233, 13.16428], [80.20233, 13.1643], [80.20197, 13.16551], [80.20184, 13.16583], [80.20154, 13.16648], [80.20074, 13.16791], [80.2003, 13.16873], [80.20016, 13.16867], [80.19995, 13.16911], [80.19939, 13.17016], [80.19924, 13.17046], [80.19901, 13.17087], [80.19861, 13.17161], [80.198, 13.17268], [80.19734, 13.17387], [80.1968, 13.17481], [80.19635, 13.17568], [80.19617, 13.17601], [80.19532, 13.17743], [80.19487, 13.17829], [80.19481, 13.17839], [80.19432, 13.17924], [80.1933, 13.18105], [80.19337, 13.18108], [80.1933, 13.1812], [80.19268, 13.1823], [80.19237, 13.18294], [80.19225, 13.18326], [80.19216, 13.18362], [80.19206, 13.18407], [80.19194, 13.18411], [80.19174, 13.18417], [80.19169, 13.1842], [80.19144, 13.18466], [80.19143, 13.18466], [80.1911, 13.18514], [80.19086, 13.18547], [80.19069, 13.18565], [80.19029, 13.18601], [80.19016, 13.18613], [80.19005, 13.18625], [80.1898, 13.18675], [80.18955, 13.18736], [80.18946, 13.1875], [80.18918, 13.18778], [80.1891, 13.1879], [80.18901, 13.18796], [80.18848, 13.18843], [80.18818, 13.18874], [80.18796, 13.18899], [80.1879, 13.18902], [80.18766, 13.18927], [80.18599, 13.19114], [80.18445, 13.19277], [80.18414, 13.19313], [80.18387, 13.19341], [80.18365, 13.19369], [80.18324, 13.19411], [80.18286, 13.19453], [80.18249, 13.19493], [80.18142, 13.19609], [80.18113, 13.19642], [80.18112, 13.19642], [80.18111, 13.19642], [80.1811, 13.19643], [80.18108, 13.19644], [80.18107, 13.19647], [80.18107, 13.19649], [80.18089, 13.1967], [80.18008, 13.19746], [80.17973, 13.19787], [80.17904, 13.1988], [80.17559, 13.20338], [80.17474, 13.20451], [80.17475, 13.20452], [80.1748, 13.20444], [80.17485, 13.20449], [80.17454, 13.20497], [80.17352, 13.20656], [80.17313, 13.20724], [80.17275, 13.20798], [80.17251, 13.20846], [80.17213, 13.2093], [80.17201, 13.2096], [80.17109, 13.21202], [80.17076, 13.2129], [80.17045, 13.21377], [80.17012, 13.21462], [80.16954, 13.21608], [80.1691, 13.21726], [80.16835, 13.21946], [80.16818, 13.21989], [80.16789, 13.22047], [80.16769, 13.2209], [80.16755, 13.22133], [80.16695, 13.22295], [80.16705, 13.223], [80.16676, 13.2238], [80.16646, 13.22458], [80.16629, 13.22495], [80.16594, 13.22559], [80.1655, 13.22618], [80.16533, 13.22638], [80.16499, 13.22671], [80.1652, 13.22689], [80.16536, 13.22692], [80.16549, 13.22698], [80.16556, 13.22704], [80.16558, 13.22716], [80.16558, 13.22731], [80.16544, 13.22773], [80.16465, 13.22972], [80.16336, 13.2329], [80.16237, 13.23529], [80.16151, 13.23738], [80.16125, 13.23823], [80.16086, 13.23952], [80.16072, 13.24005], [80.16054, 13.2406], [80.16004, 13.24194], [80.15967, 13.24282], [80.15966, 13.24284], [80.15907, 13.24419], [80.15788, 13.24638], [80.15756, 13.247], [80.15757, 13.247], [80.15631, 13.24948], [80.15579, 13.25052], [80.1555, 13.25134], [80.15541, 13.2521], [80.15534, 13.25292], [80.15531, 13.25345], [80.15528, 13.25359], [80.15524, 13.25371], [80.15498, 13.25402], [80.15484, 13.25412], [80.15494, 13.2544], [80.155, 13.25471], [80.15502, 13.25526], [80.15511, 13.25579], [80.15521, 13.25686], [80.1553, 13.25778], [80.15537, 13.25847], [80.15548, 13.25959], [80.15546, 13.25996], [80.15541, 13.26024], [80.15494, 13.26175], [80.15489, 13.26203], [80.15485, 13.26231], [80.15473, 13.26279], [80.15435, 13.26414], [80.15394, 13.26554], [80.15358, 13.2669], [80.15332, 13.2678], [80.15316, 13.26834], [80.15263, 13.27013], [80.15215, 13.27154], [80.15194, 13.27217], [80.1517, 13.27278], [80.15109, 13.27454], [80.15039, 13.27648], [80.15021, 13.2771], [80.15016, 13.27737], [80.14981, 13.27972], [80.1496, 13.28116], [80.14885, 13.28649], [80.14883, 13.28668], [80.14874, 13.28672], [80.14867, 13.28689], [80.14846, 13.28885], [80.14816, 13.29153], [80.14774, 13.29534], [80.1476, 13.29661], [80.14749, 13.29722], [80.14729, 13.2993], [80.14708, 13.30129], [80.1467, 13.30456], [80.14658, 13.30575], [80.14651, 13.30644], [80.14639, 13.30745], [80.14579, 13.31313], [80.14563, 13.31463], [80.14525, 13.31816], [80.14508, 13.31959], [80.14484, 13.32174], [80.14474, 13.32253], [80.14468, 13.32321], [80.14442, 13.32546], [80.14437, 13.32621], [80.14436, 13.32649], [80.14433, 13.32666], [80.14423, 13.32737], [80.14417, 13.32829], [80.14411, 13.32884], [80.14411, 13.32893], [80.14417, 13.32903], [80.14411, 13.32951], [80.14404, 13.33025], [80.14399, 13.3307], [80.14394, 13.33137], [80.14388, 13.33142], [80.14382, 13.33154], [80.14379, 13.33172], [80.14356, 13.33287], [80.14318, 13.33439], [80.14312, 13.33479], [80.1432, 13.33478], [80.14315, 13.33622], [80.14314, 13.33773], [80.14343, 13.33774], [80.14394, 13.33777], [80.14459, 13.33769], [80.14587, 13.33767], [80.14665, 13.33771], [80.14879, 13.33766], [80.14939, 13.33769], [80.15004, 13.33774], [80.15085, 13.33773], [80.15167, 13.33772], [80.15246, 13.33773], [80.15367, 13.33775], [80.15526, 13.33778], [80.15562, 13.33781], [80.15596, 13.33788], [80.15752, 13.33837], [80.15917, 13.33883], [80.15987, 13.33899], [80.16058, 13.33909], [80.1614, 13.33921], [80.1615, 13.33923], [80.16143, 13.33972], [80.16134, 13.34037], [80.16129, 13.34076], [80.16133, 13.34111], [80.16137, 13.34172]]}}]}