{"type": "FeatureCollection", "features": [{"type": "Feature", "properties": {"route_name": "S21C", "stop_id": "gbxdgQQp", "name": "Mylapore Tank", "city": "CHENNAI"}, "geometry": {"type": "Point", "coordinates": [80.26785275508485, 13.034013425861204]}}, {"type": "Feature", "properties": {"route_name": "S21C", "stop_id": "FYNyHfeM", "name": "Mylapore", "city": "CHENNAI"}, "geometry": {"type": "Point", "coordinates": [80.26761112897493, 13.036619113540565]}}, {"type": "Feature", "properties": {"route_name": "S21C", "stop_id": "UwPVTdeZ", "name": "Luz Corner", "city": "CHENNAI"}, "geometry": {"type": "Point", "coordinates": [80.26754805032942, 13.038551268657738]}}, {"type": "Feature", "properties": {"route_name": "S21C", "stop_id": "WAnDToyk", "name": "Thiruvalluvar Statue", "city": "CHENNAI"}, "geometry": {"type": "Point", "coordinates": [80.2681016326244, 13.041656359364142]}}, {"type": "Feature", "properties": {"route_name": "S21C", "stop_id": "KHrhIPzf", "name": "VMC Street", "city": "CHENNAI"}, "geometry": {"type": "Point", "coordinates": [80.26680598285134, 13.044430645040535]}}, {"type": "Feature", "properties": {"route_name": "S21C", "stop_id": "QjBtnCad", "name": "Ajantha", "city": "CHENNAI"}, "geometry": {"type": "Point", "coordinates": [80.26623441909032, 13.047141979317374]}}, {"type": "Feature", "properties": {"route_name": "S21C", "stop_id": "YEqGDaQm", "name": "PF Office", "city": "CHENNAI"}, "geometry": {"type": "Point", "coordinates": [80.26424211020014, 13.049137270161834]}}, {"type": "Feature", "properties": {"route_name": "S21C", "stop_id": "yQfeHodw", "name": "Pilot Theatre", "city": "CHENNAI"}, "geometry": {"type": "Point", "coordinates": [80.26408374314076, 13.050875522604436]}}, {"type": "Feature", "properties": {"route_name": "S21C", "stop_id": "rlRRFZPO", "name": "Royapettah Police Station", "city": "CHENNAI"}, "geometry": {"type": "Point", "coordinates": [80.26374885555231, 13.05238860597544]}}, {"type": "Feature", "properties": {"route_name": "S21C", "stop_id": "eYoPTdNP", "name": "Royapettah Hospital", "city": "CHENNAI"}, "geometry": {"type": "Point", "coordinates": [80.26414354148699, 13.054358778176564]}}, {"type": "Feature", "properties": {"route_name": "S21C", "stop_id": "ZpgoacOO", "name": "Westly School", "city": "CHENNAI"}, "geometry": {"type": "Point", "coordinates": [80.26472775658692, 13.057252695297384]}}, {"type": "Feature", "properties": {"route_name": "S21C", "stop_id": "iLaGOhZk", "name": "Express Avenue", "city": "CHENNAI"}, "geometry": {"type": "Point", "coordinates": [80.26536697055532, 13.060479037000425]}}, {"type": "Feature", "properties": {"route_name": "S21C", "stop_id": "lctVuVOk", "name": "Shanthi Theatre", "city": "CHENNAI"}, "geometry": {"type": "Point", "coordinates": [80.2689268934987, 13.067733478670458]}}, {"type": "Feature", "properties": {"route_name": "S21C", "stop_id": "IHIMqhgS", "name": "Kareem Mohideensahob Street", "city": "CHENNAI"}, "geometry": {"type": "Point", "coordinates": [80.26957150152921, 13.069117635957921]}}, {"type": "Feature", "properties": {"route_name": "S21C", "stop_id": "eRzIkXzB", "name": "Swamy Naiken Street", "city": "CHENNAI"}, "geometry": {"type": "Point", "coordinates": [80.26897169969418, 13.071323000000003]}}, {"type": "Feature", "properties": {"route_name": "S21C", "stop_id": "WyyRqCTd", "name": "Guruvappa Street", "city": "CHENNAI"}, "geometry": {"type": "Point", "coordinates": [80.266848682209, 13.07372595951425]}}, {"type": "Feature", "properties": {"route_name": "S21C", "stop_id": "NjZRsFiy", "name": "Swamy Pandaram Street", "city": "CHENNAI"}, "geometry": {"type": "Point", "coordinates": [80.26620369969417, 13.075602205081239]}}, {"type": "Feature", "properties": {"route_name": "S21C", "stop_id": "hgHcWJof", "name": "Chindadripet Podikkadai", "city": "CHENNAI"}, "geometry": {"type": "Point", "coordinates": [80.26622288095461, 13.076303450299395]}}, {"type": "Feature", "properties": {"route_name": "S21C", "stop_id": "ifLglfbO", "name": "Chintadripet", "city": "CHENNAI"}, "geometry": {"type": "Point", "coordinates": [80.27039345446428, 13.078880287258576]}}, {"type": "Feature", "properties": {"route_name": "S21C", "stop_id": "vkAUVqtk", "name": "Chinthathripet Railway Station", "city": "CHENNAI"}, "geometry": {"type": "Point", "coordinates": [80.27344887691741, 13.07459044076293]}}, {"type": "Feature", "properties": {"route_name": "S21C", "stop_id": "oeGMQkdJ", "name": "Simpsons Chintadripet", "city": "CHENNAI"}, "geometry": {"type": "Point", "coordinates": [80.27363903687638, 13.072988198363827]}}, {"type": "Feature", "properties": {"route_name": "S21C", "stop_id": "NQaaFyOm", "name": "Pallavan Salai", "city": "CHENNAI"}, "geometry": {"type": "Point", "coordinates": [80.27618439, 13.0754805]}}, {"type": "Feature", "properties": {"route_name": "S21C", "stop_id": "gzZgDndk", "name": "MGR Central Station", "city": "CHENNAI"}, "geometry": {"type": "Point", "coordinates": [80.27560345417622, 13.082012529953504]}}, {"type": "Feature", "properties": {"name": "S21C"}, "geometry": {"type": "LineString", "coordinates": [[80.26791, 13.034], [80.268, 13.03444], [80.26791, 13.03476], [80.26781, 13.03549], [80.2677, 13.03606], [80.26763, 13.03662], [80.26758, 13.03695], [80.26756, 13.03722], [80.26758, 13.03813], [80.26758, 13.03835], [80.26758, 13.03855], [80.26764, 13.03924], [80.2677, 13.03958], [80.26774, 13.03976], [80.2679, 13.04021], [80.26797, 13.0404], [80.26804, 13.04063], [80.26805, 13.04068], [80.2681, 13.04092], [80.26815, 13.04113], [80.26818, 13.04139], [80.26816, 13.04166], [80.26807, 13.0423], [80.26799, 13.04253], [80.26792, 13.0427], [80.26782, 13.04285], [80.26764, 13.04308], [80.26709, 13.04398], [80.26684, 13.04445], [80.26672, 13.04468], [80.26665, 13.04489], [80.26654, 13.04558], [80.26647, 13.04593], [80.26636, 13.04625], [80.26627, 13.04686], [80.26625, 13.04714], [80.26625, 13.04737], [80.2662, 13.04765], [80.26617, 13.04776], [80.26619, 13.04785], [80.26558, 13.04852], [80.26525, 13.04879], [80.26503, 13.04891], [80.26436, 13.04911], [80.26425, 13.04915], [80.26412, 13.04925], [80.26406, 13.04935], [80.26403, 13.04946], [80.26401, 13.04967], [80.26408, 13.05008], [80.26412, 13.05014], [80.2641, 13.05088], [80.2641, 13.0509], [80.26404, 13.05134], [80.26377, 13.05235], [80.26378, 13.0524], [80.26383, 13.05286], [80.26388, 13.05333], [80.26392, 13.05355], [80.26397, 13.05382], [80.26409, 13.05411], [80.26416, 13.05435], [80.26439, 13.05538], [80.26453, 13.05647], [80.26467, 13.05701], [80.26478, 13.05723], [80.26481, 13.05729], [80.2651, 13.05789], [80.26527, 13.05817], [80.26533, 13.05835], [80.2654, 13.05846], [80.26551, 13.05922], [80.26557, 13.05956], [80.26559, 13.0598], [80.26556, 13.0601], [80.26554, 13.06019], [80.26519, 13.06086], [80.26517, 13.06088], [80.26516, 13.06096], [80.26519, 13.06116], [80.26524, 13.06124], [80.26578, 13.06166], [80.26648, 13.06224], [80.26701, 13.06267], [80.26706, 13.06273], [80.26716, 13.06289], [80.26725, 13.06335], [80.26735, 13.06399], [80.2675, 13.0648], [80.26764, 13.06551], [80.26764, 13.06559], [80.2676, 13.06566], [80.26746, 13.06582], [80.26781, 13.06609], [80.26814, 13.06631], [80.26817, 13.06636], [80.26823, 13.06648], [80.26832, 13.06663], [80.26837, 13.0667], [80.26841, 13.06682], [80.2686, 13.06711], [80.2689, 13.06756], [80.26898, 13.06771], [80.26934, 13.06836], [80.26947, 13.06866], [80.26959, 13.06911], [80.26962, 13.06945], [80.26947, 13.07002], [80.26905, 13.07124], [80.26899, 13.07133], [80.26856, 13.07186], [80.26827, 13.07219], [80.26775, 13.07271], [80.2675, 13.07294], [80.2669, 13.07369], [80.26686, 13.07374], [80.26664, 13.07407], [80.26647, 13.07438], [80.26633, 13.07482], [80.26629, 13.07503], [80.26622, 13.07547], [80.26622, 13.0756], [80.26632, 13.07618], [80.26569, 13.07632], [80.26546, 13.07633], [80.26539, 13.07628], [80.26529, 13.07628], [80.26521, 13.07638], [80.26523, 13.07647], [80.26532, 13.0765], [80.2654, 13.07649], [80.26544, 13.07646], [80.26555, 13.07641], [80.26564, 13.07637], [80.26622, 13.07625], [80.26621, 13.07624], [80.26634, 13.07621], [80.26654, 13.07707], [80.26664, 13.07747], [80.26697, 13.07819], [80.26702, 13.07831], [80.26719, 13.07852], [80.26724, 13.07858], [80.26756, 13.0789], [80.26783, 13.07909], [80.26793, 13.07914], [80.26833, 13.07929], [80.26862, 13.07933], [80.2693, 13.07927], [80.26948, 13.07924], [80.26964, 13.07919], [80.27011, 13.07899], [80.27039, 13.07887], [80.27106, 13.07853], [80.27159, 13.07827], [80.27194, 13.07804], [80.27217, 13.07792], [80.27226, 13.07786], [80.2723, 13.07782], [80.27241, 13.07764], [80.27271, 13.07692], [80.27306, 13.07604], [80.27319, 13.07561], [80.2734, 13.07458], [80.27352, 13.07385], [80.2736, 13.07302], [80.2736, 13.07298], [80.27366, 13.07277], [80.27374, 13.07255], [80.27384, 13.07241], [80.27392, 13.0723], [80.27416, 13.07211], [80.27426, 13.07203], [80.27437, 13.07201], [80.27449, 13.07203], [80.27459, 13.07208], [80.27545, 13.07287], [80.27636, 13.07371], [80.27632, 13.07398], [80.27623, 13.07516], [80.27622, 13.07548], [80.27612, 13.07789], [80.27608, 13.07801], [80.27601, 13.07809], [80.27588, 13.07815], [80.27556, 13.07825], [80.27533, 13.07835], [80.27518, 13.07851], [80.27514, 13.07859], [80.2751, 13.07872], [80.2751, 13.07889], [80.27516, 13.0792], [80.27524, 13.07962], [80.27527, 13.07988], [80.27527, 13.08001], [80.27518, 13.08143], [80.27516, 13.08172], [80.27524, 13.08193], [80.2754, 13.08198], [80.2756, 13.08201]]}}]}