{"type": "FeatureCollection", "features": [{"type": "Feature", "properties": {"route_name": "G18", "stop_id": "eTJQHplR", "name": "Thiyagaraya Nagar Bus Depot", "city": "CHENNAI"}, "geometry": {"type": "Point", "coordinates": [80.23005108, 13.03449501]}}, {"type": "Feature", "properties": {"route_name": "G18", "stop_id": "nEXpIbiD", "name": "CIT Nagar", "city": "CHENNAI"}, "geometry": {"type": "Point", "coordinates": [80.23084860962217, 13.029891933620636]}}, {"type": "Feature", "properties": {"route_name": "G18", "stop_id": "fubLBmAl", "name": "Saidapet Veterinary Hospital Or Raja Hostel", "city": "CHENNAI"}, "geometry": {"type": "Point", "coordinates": [80.22976399085928, 13.025144344408464]}}, {"type": "Feature", "properties": {"route_name": "G18", "stop_id": "DOGyniWl", "name": "Saidapet Metro", "city": "CHENNAI"}, "geometry": {"type": "Point", "coordinates": [80.2281859358351, 13.023758074666299]}}, {"type": "Feature", "properties": {"route_name": "G18", "stop_id": "GbYxEXTt", "name": "Tamil Nadu Open University Or Panagal Maligai", "city": "CHENNAI"}, "geometry": {"type": "Point", "coordinates": [80.22567676852101, 13.021143761114198]}}, {"type": "Feature", "properties": {"route_name": "G18", "stop_id": "YmkUpvHU", "name": "Chinnamalai B S or Saidapet Court", "city": "CHENNAI"}, "geometry": {"type": "Point", "coordinates": [80.22645940770053, 13.0139397637957]}}, {"type": "Feature", "properties": {"route_name": "G18", "stop_id": "GpnhEWuy", "name": "Concorde or Chellammal College", "city": "CHENNAI"}, "geometry": {"type": "Point", "coordinates": [80.22194994, 13.01186343]}}, {"type": "Feature", "properties": {"route_name": "G18", "stop_id": "QDIpIlEK", "name": "Guindy Railway Station", "city": "CHENNAI"}, "geometry": {"type": "Point", "coordinates": [80.21333453957197, 13.008223468910234]}}, {"type": "Feature", "properties": {"route_name": "G18", "stop_id": "tRncbstl", "name": "Maduvankarai", "city": "CHENNAI"}, "geometry": {"type": "Point", "coordinates": [80.21173369, 13.00366368]}}, {"type": "Feature", "properties": {"route_name": "G18", "stop_id": "WFZVQzrl", "name": "Guindy M K N Salai", "city": "CHENNAI"}, "geometry": {"type": "Point", "coordinates": [80.20971883, 13.00723642]}}, {"type": "Feature", "properties": {"route_name": "G18", "stop_id": "tecZNPfE", "name": "Kathipara Urban Square", "city": "CHENNAI"}, "geometry": {"type": "Point", "coordinates": [80.20284728953912, 13.005905526186854]}}, {"type": "Feature", "properties": {"route_name": "G18", "stop_id": "uhUmvvRs", "name": "Alandur Metro", "city": "CHENNAI"}, "geometry": {"type": "Point", "coordinates": [80.20129584, 13.00412247]}}, {"type": "Feature", "properties": {"route_name": "G18", "stop_id": "lQIpGOTn", "name": "St Thomas Mount Head Post Office", "city": "CHENNAI"}, "geometry": {"type": "Point", "coordinates": [80.1972223156829, 13.001938458082947]}}, {"type": "Feature", "properties": {"route_name": "G18", "stop_id": "GtMUYUwJ", "name": "Alandur Court", "city": "CHENNAI"}, "geometry": {"type": "Point", "coordinates": [80.19280664345685, 12.997692475842992]}}, {"type": "Feature", "properties": {"route_name": "G18", "stop_id": "lEwLedpG", "name": "Alandur", "city": "CHENNAI"}, "geometry": {"type": "Point", "coordinates": [80.1890026083795, 12.99562167829451]}}, {"type": "Feature", "properties": {"route_name": "G18", "stop_id": "ysSWNERo", "name": "Meeanambakkam International Airport", "city": "CHENNAI"}, "geometry": {"type": "Point", "coordinates": [80.17430849877292, 12.986066570693998]}}, {"type": "Feature", "properties": {"route_name": "G18", "stop_id": "jFRqfnFl", "name": "Thirusoolam National Airport", "city": "CHENNAI"}, "geometry": {"type": "Point", "coordinates": [80.16225610684478, 12.979372299463616]}}, {"type": "Feature", "properties": {"route_name": "G18", "stop_id": "qeXIqBgp", "name": "Pallavaram Bus Stand", "city": "CHENNAI"}, "geometry": {"type": "Point", "coordinates": [80.15020472965345, 12.969321927480118]}}, {"type": "Feature", "properties": {"route_name": "G18", "stop_id": "BZCtSmhk", "name": "Saravana Store Chromepet", "city": "CHENNAI"}, "geometry": {"type": "Point", "coordinates": [80.14344682, 12.95656648]}}, {"type": "Feature", "properties": {"route_name": "G18", "stop_id": "ywuGpANM", "name": "Chromepet", "city": "CHENNAI"}, "geometry": {"type": "Point", "coordinates": [80.14056159, 12.95162355]}}, {"type": "Feature", "properties": {"route_name": "G18", "stop_id": "hpACGGyB", "name": "TB Hospital", "city": "CHENNAI"}, "geometry": {"type": "Point", "coordinates": [80.13469781949811, 12.944093289066009]}}, {"type": "Feature", "properties": {"route_name": "G18", "stop_id": "eaNsVWDR", "name": "Tambaram Sanatorium Bus Stand", "city": "CHENNAI"}, "geometry": {"type": "Point", "coordinates": [80.12809022215106, 12.937055899909849]}}, {"type": "Feature", "properties": {"route_name": "G18", "stop_id": "ejMjPdTH", "name": "Tambaram West Bus Stand", "city": "CHENNAI"}, "geometry": {"type": "Point", "coordinates": [80.118864, 12.92758911]}}, {"type": "Feature", "properties": {"route_name": "G18", "stop_id": "AUmOMGnp", "name": "Irumbuliyur", "city": "CHENNAI"}, "geometry": {"type": "Point", "coordinates": [80.10666718, 12.91663681]}}, {"type": "Feature", "properties": {"route_name": "G18", "stop_id": "ALhaazBT", "name": "Perungalattur", "city": "CHENNAI"}, "geometry": {"type": "Point", "coordinates": [80.09644663992617, 12.906403356437842]}}, {"type": "Feature", "properties": {"route_name": "G18", "stop_id": "FZsFzszJ", "name": "Vandalur Gate", "city": "CHENNAI"}, "geometry": {"type": "Point", "coordinates": [80.08640892276996, 12.89311473169435]}}, {"type": "Feature", "properties": {"route_name": "G18", "stop_id": "gzTQJVMW", "name": "Vandalur Zoo", "city": "CHENNAI"}, "geometry": {"type": "Point", "coordinates": [80.0808152705822, 12.88055624912894]}}, {"type": "Feature", "properties": {"route_name": "G18", "stop_id": "RVEyrwjR", "name": "Kilambakkam Bus Terminus", "city": "CHENNAI"}, "geometry": {"type": "Point", "coordinates": [80.07837988343238, 12.874093789888684]}}, {"type": "Feature", "properties": {"route_name": "G18", "stop_id": "XLVjRryq", "name": "Urappakam", "city": "CHENNAI"}, "geometry": {"type": "Point", "coordinates": [80.07576903505412, 12.867815440896505]}}, {"type": "Feature", "properties": {"route_name": "G18", "stop_id": "NxbXiMUL", "name": "Urapakkam Or Ananthavalli SchoolAnanthavalli School", "city": "CHENNAI"}, "geometry": {"type": "Point", "coordinates": [80.07362946240994, 12.86209629173468]}}, {"type": "Feature", "properties": {"route_name": "G18", "stop_id": "vDFCntfg", "name": "Guduvancheri EB Office", "city": "CHENNAI"}, "geometry": {"type": "Point", "coordinates": [80.06579046, 12.85120776]}}, {"type": "Feature", "properties": {"route_name": "G18", "stop_id": "YvwuVYMF", "name": "Guduvancheri Bus Terminus", "city": "CHENNAI"}, "geometry": {"type": "Point", "coordinates": [80.06156057583712, 12.845099416050214]}}, {"type": "Feature", "properties": {"name": "G18"}, "geometry": {"type": "LineString", "coordinates": [[80.23002, 13.0345], [80.23002, 13.03423], [80.23038, 13.0342], [80.23046, 13.0342], [80.23046, 13.03403], [80.23055, 13.0331], [80.23062, 13.03229], [80.23079, 13.03022], [80.23081, 13.02989], [80.23097, 13.0283], [80.23104, 13.02766], [80.23105, 13.02764], [80.23113, 13.02762], [80.23174, 13.02771], [80.23281, 13.02796], [80.23295, 13.02704], [80.23306, 13.02657], [80.2326, 13.02635], [80.23215, 13.02622], [80.2314, 13.02603], [80.23108, 13.02592], [80.23089, 13.02586], [80.23051, 13.02571], [80.23024, 13.02557], [80.22973, 13.02518], [80.22835, 13.02408], [80.22809, 13.02386], [80.22772, 13.02352], [80.22757, 13.02338], [80.22631, 13.02197], [80.22569, 13.02114], [80.22513, 13.02039], [80.22497, 13.02023], [80.22468, 13.01979], [80.22459, 13.01965], [80.22452, 13.01949], [80.22446, 13.01919], [80.22447, 13.01893], [80.22514, 13.01725], [80.22537, 13.01666], [80.22545, 13.01641], [80.22569, 13.01577], [80.22622, 13.01442], [80.22641, 13.01392], [80.22677, 13.01294], [80.22751, 13.01108], [80.22792, 13.01013], [80.22796, 13.00986], [80.22794, 13.00965], [80.22789, 13.00958], [80.22779, 13.00953], [80.22769, 13.00952], [80.22747, 13.00959], [80.22629, 13.01014], [80.22615, 13.01018], [80.22607, 13.01018], [80.22541, 13.0105], [80.22492, 13.01074], [80.22486, 13.01075], [80.22467, 13.01083], [80.22409, 13.01106], [80.22323, 13.01137], [80.22196, 13.0119], [80.22136, 13.01211], [80.22113, 13.01219], [80.22101, 13.01216], [80.22021, 13.01189], [80.21913, 13.01155], [80.21816, 13.01123], [80.21773, 13.01106], [80.21689, 13.01073], [80.21656, 13.01056], [80.21619, 13.01039], [80.21618, 13.01034], [80.21613, 13.01029], [80.21601, 13.01021], [80.21542, 13.00995], [80.21501, 13.00972], [80.21487, 13.00962], [80.21468, 13.00946], [80.21413, 13.00903], [80.21362, 13.00864], [80.21343, 13.00842], [80.21332, 13.00823], [80.21331, 13.00824], [80.21331, 13.00823], [80.21321, 13.00803], [80.21296, 13.00771], [80.21291, 13.00763], [80.21285, 13.00747], [80.21275, 13.00692], [80.21274, 13.00682], [80.21275, 13.00661], [80.21277, 13.00642], [80.21294, 13.00603], [80.213, 13.00587], [80.21297, 13.00571], [80.21293, 13.00562], [80.21283, 13.00553], [80.21263, 13.00522], [80.2123, 13.00467], [80.2122, 13.00445], [80.21209, 13.00411], [80.21201, 13.00378], [80.21201, 13.00372], [80.21173, 13.0037], [80.2115, 13.00369], [80.21117, 13.00374], [80.21006, 13.00358], [80.20961, 13.00355], [80.20915, 13.00363], [80.20876, 13.00372], [80.20868, 13.00376], [80.20861, 13.00388], [80.2086, 13.00405], [80.20922, 13.0054], [80.20949, 13.00605], [80.20969, 13.00679], [80.20979, 13.00722], [80.20998, 13.00808], [80.20996, 13.00816], [80.20991, 13.00822], [80.20984, 13.00827], [80.20972, 13.00822], [80.20946, 13.00813], [80.20919, 13.00805], [80.20866, 13.00798], [80.20706, 13.00774], [80.20595, 13.00761], [80.20589, 13.00756], [80.20565, 13.00748], [80.20535, 13.00739], [80.20493, 13.00723], [80.20468, 13.0071], [80.20435, 13.00688], [80.20413, 13.00675], [80.20368, 13.0065], [80.20329, 13.00621], [80.20286, 13.00592], [80.20283, 13.00591], [80.20246, 13.00573], [80.20223, 13.00563], [80.20205, 13.00551], [80.20185, 13.00538], [80.20172, 13.00526], [80.20159, 13.00511], [80.20144, 13.005], [80.20135, 13.00486], [80.20121, 13.00459], [80.20109, 13.00417], [80.20089, 13.00341], [80.20075, 13.00282], [80.20057, 13.00233], [80.20045, 13.00216], [80.2003, 13.00201], [80.20005, 13.00184], [80.1998, 13.00179], [80.19944, 13.00174], [80.19913, 13.00172], [80.19894, 13.00175], [80.19825, 13.00186], [80.19731, 13.00197], [80.19722, 13.00198], [80.19722, 13.00197], [80.19722, 13.00198], [80.19695, 13.00195], [80.19667, 13.00186], [80.19633, 13.00164], [80.196, 13.00139], [80.19447, 13.00017], [80.19371, 12.99957], [80.19294, 12.99899], [80.19233, 12.99848], [80.1922, 12.99838], [80.19227, 12.99829], [80.1928, 12.99768], [80.19315, 12.99724], [80.19324, 12.99707], [80.19331, 12.99697], [80.19335, 12.99695], [80.19338, 12.99687], [80.19334, 12.99678], [80.19326, 12.99675], [80.19321, 12.99676], [80.19318, 12.99678], [80.19316, 12.99682], [80.19316, 12.99684], [80.1929, 12.99677], [80.19244, 12.99665], [80.18993, 12.99598], [80.18962, 12.99593], [80.1894, 12.99593], [80.18935, 12.99602], [80.18913, 12.99585], [80.18893, 12.99572], [80.18798, 12.99522], [80.18733, 12.99488], [80.18631, 12.99438], [80.18545, 12.99396], [80.18471, 12.99352], [80.18368, 12.99297], [80.18307, 12.99262], [80.18277, 12.99241], [80.18225, 12.99205], [80.18087, 12.99101], [80.17964, 12.99002], [80.17924, 12.98969], [80.17892, 12.98947], [80.17791, 12.98865], [80.17731, 12.98822], [80.17593, 12.98725], [80.17582, 12.98718], [80.17427, 12.98611], [80.17428, 12.9861], [80.17218, 12.98468], [80.17104, 12.98397], [80.17032, 12.98358], [80.1694, 12.98302], [80.16805, 12.9822], [80.16671, 12.98142], [80.16575, 12.98086], [80.16506, 12.9805], [80.16475, 12.98037], [80.16402, 12.98015], [80.1631, 12.97991], [80.16288, 12.97983], [80.16254, 12.97967], [80.1622, 12.97946], [80.1622, 12.97931], [80.16211, 12.9794], [80.16166, 12.9791], [80.16007, 12.97798], [80.15894, 12.97721], [80.15717, 12.97607], [80.15604, 12.97528], [80.15415, 12.97398], [80.15197, 12.97253], [80.15163, 12.97223], [80.15151, 12.9721], [80.1513, 12.97184], [80.15108, 12.97143], [80.15051, 12.97025], [80.15017, 12.96954], [80.1501, 12.96937], [80.14983, 12.96878], [80.14949, 12.96811], [80.14918, 12.9674], [80.14886, 12.96674], [80.14842, 12.96582], [80.14764, 12.96445], [80.14715, 12.96357], [80.14572, 12.96098], [80.14535, 12.96028], [80.144, 12.95773], [80.14366, 12.95707], [80.14341, 12.95658], [80.14296, 12.95575], [80.14253, 12.95492], [80.14175, 12.95349], [80.14143, 12.95292], [80.14134, 12.95278], [80.14092, 12.95225], [80.14049, 12.95167], [80.13904, 12.94979], [80.1384, 12.94908], [80.13785, 12.94834], [80.13693, 12.94704], [80.13542, 12.94508], [80.13467, 12.94411], [80.13444, 12.94384], [80.1339, 12.94326], [80.13335, 12.94267], [80.13315, 12.9425], [80.13272, 12.94208], [80.13165, 12.94106], [80.13109, 12.94047], [80.13096, 12.94032], [80.13073, 12.94013], [80.13011, 12.93946], [80.12946, 12.93873], [80.12854, 12.93766], [80.12804, 12.9371], [80.12706, 12.93597], [80.12528, 12.93403], [80.12294, 12.93174], [80.1212, 12.92995], [80.12043, 12.92921], [80.11972, 12.92848], [80.11884, 12.92761], [80.11694, 12.92571], [80.11496, 12.92377], [80.11432, 12.92308], [80.114, 12.92279], [80.11323, 12.92205], [80.11241, 12.92122], [80.11229, 12.92113], [80.11192, 12.92076], [80.1111, 12.92001], [80.11004, 12.91911], [80.10945, 12.91862], [80.10916, 12.9184], [80.10795, 12.91746], [80.10767, 12.91726], [80.10713, 12.91696], [80.10664, 12.91669], [80.10583, 12.91624], [80.10358, 12.91503], [80.10294, 12.91465], [80.10269, 12.91448], [80.10198, 12.91398], [80.10173, 12.91371], [80.10165, 12.91352], [80.10161, 12.91338], [80.10146, 12.91205], [80.1013, 12.91113], [80.10119, 12.91078], [80.10104, 12.91049], [80.10085, 12.91023], [80.10074, 12.91012], [80.10059, 12.91001], [80.10019, 12.9098], [80.09966, 12.90954], [80.09894, 12.90918], [80.09829, 12.90872], [80.09782, 12.90828], [80.09755, 12.90798], [80.09681, 12.90702], [80.09638, 12.90646], [80.09552, 12.90537], [80.09376, 12.90302], [80.09248, 12.90131], [80.09146, 12.90001], [80.09025, 12.89827], [80.08942, 12.89728], [80.08826, 12.89573], [80.08656, 12.89346], [80.08634, 12.89316], [80.08595, 12.89262], [80.08591, 12.89258], [80.08549, 12.89196], [80.08527, 12.89158], [80.08485, 12.8906], [80.08378, 12.88807], [80.08262, 12.88522], [80.08244, 12.88486], [80.08231, 12.88459], [80.08231, 12.88446], [80.08229, 12.88422], [80.08226, 12.88409], [80.0822, 12.8839], [80.08213, 12.88366], [80.08194, 12.88321], [80.08179, 12.88286], [80.08149, 12.88211], [80.08129, 12.88159], [80.08101, 12.88094], [80.08096, 12.88089], [80.08083, 12.88057], [80.07949, 12.87697], [80.07872, 12.87496], [80.07836, 12.87407], [80.07835, 12.8741], [80.07822, 12.87382], [80.07812, 12.87373], [80.07782, 12.87296], [80.07756, 12.87228], [80.07655, 12.86968], [80.07582, 12.8678], [80.07575, 12.86782], [80.07573, 12.86778], [80.0756, 12.86743], [80.0752, 12.8664], [80.07484, 12.86548], [80.0745, 12.86454], [80.07418, 12.86366], [80.07383, 12.86274], [80.0736, 12.86212], [80.07362, 12.8621], [80.07306, 12.86105], [80.07236, 12.85998], [80.07199, 12.85941], [80.07178, 12.85929], [80.07173, 12.85928], [80.07085, 12.85811], [80.06966, 12.8566], [80.0691, 12.85586], [80.06811, 12.85454], [80.06651, 12.85237], [80.06641, 12.85218], [80.06619, 12.85186], [80.0662, 12.85181], [80.0662, 12.85179], [80.06617, 12.85172], [80.066, 12.85145], [80.06582, 12.85119], [80.06531, 12.85045], [80.0646, 12.84946], [80.06412, 12.84881], [80.06392, 12.84853], [80.06382, 12.84861], [80.06236, 12.84664], [80.06201, 12.84623], [80.0615, 12.84563], [80.06151, 12.84551], [80.06148, 12.8454], [80.06164, 12.84515]]}}]}