{"type": "FeatureCollection", "features": [{"type": "Feature", "properties": {"route_name": "515K", "stop_id": "uaUalZjh", "name": "Kovalam Bus Stand", "city": "CHENNAI"}, "geometry": {"type": "Point", "coordinates": [80.24981696737393, 12.78675363011011]}}, {"type": "Feature", "properties": {"route_name": "515K", "stop_id": "beniIHzL", "name": "Kovalam Kelambakam Road Junction", "city": "CHENNAI"}, "geometry": {"type": "Point", "coordinates": [80.245277891197, 12.784971555290847]}}, {"type": "Feature", "properties": {"route_name": "515K", "stop_id": "BNQPEsdW", "name": "Salt Office", "city": "CHENNAI"}, "geometry": {"type": "Point", "coordinates": [80.22945035900148, 12.782128164855616]}}, {"type": "Feature", "properties": {"route_name": "515K", "stop_id": "qKwvXMmm", "name": "Kelambakkam School", "city": "CHENNAI"}, "geometry": {"type": "Point", "coordinates": [80.22138518145971, 12.78571819801175]}}, {"type": "Feature", "properties": {"route_name": "515K", "stop_id": "uxBjVsKf", "name": "Kelambakkmm Police Station", "city": "CHENNAI"}, "geometry": {"type": "Point", "coordinates": [80.21990367384092, 12.785399610431222]}}, {"type": "Feature", "properties": {"route_name": "515K", "stop_id": "ngtiheSM", "name": "Kelambakkmm General Hospital", "city": "CHENNAI"}, "geometry": {"type": "Point", "coordinates": [80.22043933846362, 12.786694812130275]}}, {"type": "Feature", "properties": {"route_name": "515K", "stop_id": "rPcYYZtd", "name": "AP Super Market", "city": "CHENNAI"}, "geometry": {"type": "Point", "coordinates": [80.22132770552253, 12.789027384331868]}}, {"type": "Feature", "properties": {"route_name": "515K", "stop_id": "zBPHjWVd", "name": "Samiyar Pannai", "city": "CHENNAI"}, "geometry": {"type": "Point", "coordinates": [80.22083885104882, 12.79003563636055]}}, {"type": "Feature", "properties": {"route_name": "515K", "stop_id": "aNlaxeLS", "name": "Butterfly Company", "city": "CHENNAI"}, "geometry": {"type": "Point", "coordinates": [80.21738308935414, 12.79205911136289]}}, {"type": "Feature", "properties": {"route_name": "515K", "stop_id": "ZecyfkGE", "name": "Pudupakkam", "city": "CHENNAI"}, "geometry": {"type": "Point", "coordinates": [80.1978178323252, 12.799572651487257]}}, {"type": "Feature", "properties": {"route_name": "515K", "stop_id": "pFQacbfu", "name": "Anjaneyar Temple Pudupakkam", "city": "CHENNAI"}, "geometry": {"type": "Point", "coordinates": [80.18932639380637, 12.806008513614833]}}, {"type": "Feature", "properties": {"route_name": "515K", "stop_id": "AOtPxxNt", "name": "Military Camp Mambakkam", "city": "CHENNAI"}, "geometry": {"type": "Point", "coordinates": [80.18629871103985, 12.80859623287557]}}, {"type": "Feature", "properties": {"route_name": "515K", "stop_id": "pzScocJN", "name": "Mambakkam", "city": "CHENNAI"}, "geometry": {"type": "Point", "coordinates": [80.16493040472426, 12.827623874040325]}}, {"type": "Feature", "properties": {"route_name": "515K", "stop_id": "khOlLZay", "name": "Samathuvapuram", "city": "CHENNAI"}, "geometry": {"type": "Point", "coordinates": [80.15947302250481, 12.832542096449574]}}, {"type": "Feature", "properties": {"route_name": "515K", "stop_id": "CDXhVrrJ", "name": "Keelakottaiyur Or Malrosapuram", "city": "CHENNAI"}, "geometry": {"type": "Point", "coordinates": [80.15519815062589, 12.837350766407658]}}, {"type": "Feature", "properties": {"route_name": "515K", "stop_id": "yHCBRtBd", "name": "Melakottaiyur", "city": "CHENNAI"}, "geometry": {"type": "Point", "coordinates": [80.1488387323277, 12.845664691060307]}}, {"type": "Feature", "properties": {"route_name": "515K", "stop_id": "xnXFAboh", "name": "Kandigai", "city": "CHENNAI"}, "geometry": {"type": "Point", "coordinates": [80.14014813888787, 12.851216081007852]}}, {"type": "Feature", "properties": {"route_name": "515K", "stop_id": "NTCwKKsF", "name": "Rathinamangalam", "city": "CHENNAI"}, "geometry": {"type": "Point", "coordinates": [80.13365248841797, 12.857924696847444]}}, {"type": "Feature", "properties": {"route_name": "515K", "stop_id": "JKUqFAhf", "name": "Tagore Engineering College Rathinamangalam", "city": "CHENNAI"}, "geometry": {"type": "Point", "coordinates": [80.13089720370908, 12.860797972628758]}}, {"type": "Feature", "properties": {"route_name": "515K", "stop_id": "tkWZZFES", "name": "Vengambakkam Road Junction", "city": "CHENNAI"}, "geometry": {"type": "Point", "coordinates": [80.12683210566877, 12.862697082803901]}}, {"type": "Feature", "properties": {"route_name": "515K", "stop_id": "UTnQirag", "name": "Ramanujar Engg College Or Balaji Plytechnic", "city": "CHENNAI"}, "geometry": {"type": "Point", "coordinates": [80.11550883663176, 12.86712163562261]}}, {"type": "Feature", "properties": {"route_name": "515K", "stop_id": "GpOUDfXM", "name": "Kolapakkam Junction", "city": "CHENNAI"}, "geometry": {"type": "Point", "coordinates": [80.10696539721903, 12.870413402356698]}}, {"type": "Feature", "properties": {"route_name": "515K", "stop_id": "lOyAoICg", "name": "Anna Nagar Colony", "city": "CHENNAI"}, "geometry": {"type": "Point", "coordinates": [80.10180777627977, 12.871382151064015]}}, {"type": "Feature", "properties": {"route_name": "515K", "stop_id": "JWCrkssf", "name": "Vandalur Zoo", "city": "CHENNAI"}, "geometry": {"type": "Point", "coordinates": [80.08025569472647, 12.878908318749078]}}, {"type": "Feature", "properties": {"route_name": "515K", "stop_id": "RVEyrwjR", "name": "Kilambakkam Bus Terminus", "city": "CHENNAI"}, "geometry": {"type": "Point", "coordinates": [80.07837988343238, 12.874093789888684]}}, {"type": "Feature", "properties": {"name": "515K"}, "geometry": {"type": "LineString", "coordinates": [[80.24981, 12.7867], [80.24912, 12.78676], [80.24837, 12.78681], [80.24802, 12.78685], [80.24743, 12.787], [80.24676, 12.7872], [80.24654, 12.78727], [80.24642, 12.78727], [80.24624, 12.7872], [80.24616, 12.78708], [80.246, 12.78675], [80.24564, 12.78597], [80.24529, 12.78514], [80.24525, 12.78498], [80.2452, 12.78479], [80.24513, 12.78452], [80.24506, 12.7844], [80.24485, 12.78419], [80.24476, 12.78413], [80.24467, 12.78408], [80.24419, 12.78388], [80.24391, 12.78381], [80.24376, 12.78381], [80.24349, 12.78385], [80.24228, 12.78412], [80.24166, 12.78422], [80.24116, 12.78411], [80.2397, 12.78374], [80.2396, 12.78372], [80.23916, 12.78371], [80.23753, 12.78374], [80.2362, 12.78386], [80.2357, 12.78391], [80.23537, 12.78393], [80.23472, 12.78392], [80.23392, 12.78397], [80.23215, 12.78417], [80.23191, 12.78419], [80.2318, 12.78417], [80.23174, 12.78414], [80.23161, 12.78401], [80.23148, 12.78384], [80.2309, 12.78292], [80.23074, 12.78265], [80.23056, 12.78244], [80.2303, 12.78232], [80.23008, 12.78224], [80.22974, 12.78217], [80.22945, 12.78215], [80.22897, 12.78218], [80.22843, 12.78225], [80.22743, 12.78247], [80.22662, 12.78271], [80.22421, 12.78341], [80.2241, 12.78347], [80.22388, 12.78366], [80.22378, 12.78373], [80.22344, 12.78394], [80.22311, 12.78397], [80.22282, 12.78397], [80.22273, 12.78398], [80.22251, 12.78406], [80.22232, 12.78416], [80.22195, 12.78431], [80.22174, 12.78441], [80.22165, 12.78446], [80.22158, 12.78452], [80.22152, 12.78459], [80.22148, 12.7847], [80.22145, 12.78498], [80.22137, 12.78572], [80.22135, 12.78615], [80.22132, 12.7862], [80.22123, 12.78624], [80.22033, 12.78621], [80.22026, 12.78603], [80.22017, 12.78575], [80.21996, 12.78535], [80.21955, 12.78462], [80.2189, 12.7834], [80.21881, 12.78344], [80.21898, 12.78371], [80.21949, 12.78467], [80.21991, 12.78538], [80.22011, 12.78576], [80.2202, 12.78607], [80.22028, 12.78623], [80.22046, 12.78669], [80.22092, 12.78794], [80.22135, 12.78902], [80.22155, 12.78961], [80.22139, 12.78972], [80.22086, 12.79006], [80.21786, 12.79186], [80.2174, 12.79209], [80.21711, 12.79221], [80.21693, 12.79229], [80.21666, 12.79237], [80.21579, 12.79257], [80.21533, 12.79268], [80.21322, 12.79317], [80.21114, 12.79366], [80.2106, 12.79379], [80.21031, 12.79388], [80.20905, 12.79441], [80.20755, 12.79506], [80.20568, 12.79588], [80.20471, 12.79632], [80.20113, 12.79785], [80.19954, 12.79854], [80.19933, 12.79865], [80.1988, 12.79897], [80.19852, 12.79915], [80.19795, 12.79956], [80.19786, 12.79963], [80.19783, 12.79965], [80.19677, 12.8004], [80.1936, 12.80262], [80.19156, 12.80406], [80.1912, 12.80434], [80.19068, 12.8048], [80.18935, 12.80604], [80.18751, 12.80761], [80.1863, 12.80863], [80.18161, 12.81263], [80.18064, 12.81346], [80.1799, 12.81413], [80.17832, 12.81555], [80.17315, 12.82023], [80.17003, 12.82307], [80.16672, 12.82605], [80.16555, 12.82713], [80.16496, 12.82766], [80.16413, 12.82841], [80.16392, 12.82857], [80.16358, 12.82889], [80.16264, 12.82975], [80.1622, 12.83014], [80.15991, 12.83218], [80.15949, 12.83256], [80.15717, 12.83466], [80.1558, 12.8359], [80.15549, 12.83622], [80.15537, 12.83644], [80.1553, 12.83662], [80.15528, 12.83679], [80.15521, 12.83734], [80.15521, 12.83735], [80.15518, 12.83748], [80.15512, 12.83761], [80.15503, 12.83779], [80.15485, 12.83805], [80.15425, 12.83871], [80.15294, 12.84008], [80.15115, 12.84198], [80.15024, 12.84295], [80.14994, 12.84326], [80.14973, 12.84351], [80.14961, 12.8437], [80.14945, 12.84407], [80.14885, 12.84567], [80.14874, 12.84588], [80.14858, 12.84601], [80.14843, 12.84608], [80.14818, 12.84616], [80.14699, 12.84648], [80.14669, 12.84658], [80.14644, 12.8467], [80.14483, 12.84758], [80.14287, 12.84877], [80.14209, 12.84927], [80.14105, 12.85033], [80.14017, 12.85124], [80.13965, 12.85177], [80.13884, 12.85262], [80.13834, 12.8531], [80.13603, 12.8555], [80.13495, 12.85663], [80.13442, 12.85717], [80.13369, 12.85796], [80.13322, 12.85843], [80.13211, 12.85962], [80.13113, 12.8606], [80.13091, 12.86081], [80.13051, 12.86118], [80.13032, 12.8613], [80.12977, 12.86157], [80.12915, 12.86183], [80.12692, 12.86269], [80.12684, 12.86272], [80.12144, 12.86482], [80.11975, 12.86548], [80.11712, 12.86652], [80.11552, 12.86715], [80.11438, 12.8676], [80.11373, 12.86789], [80.11326, 12.86807], [80.11269, 12.86829], [80.11139, 12.86884], [80.11078, 12.86908], [80.10917, 12.86975], [80.10806, 12.87017], [80.10762, 12.8703], [80.10697, 12.87044], [80.10544, 12.87074], [80.10185, 12.8714], [80.10181, 12.87141], [80.10089, 12.87158], [80.0997, 12.87174], [80.09637, 12.8722], [80.09613, 12.87225], [80.09566, 12.87241], [80.09228, 12.87365], [80.09054, 12.87431], [80.08976, 12.87458], [80.08921, 12.87482], [80.08887, 12.87501], [80.08866, 12.87513], [80.08786, 12.87567], [80.08612, 12.87684], [80.08575, 12.87704], [80.08521, 12.87728], [80.08471, 12.87749], [80.08058, 12.87897], [80.0803, 12.87902], [80.08025, 12.87891], [80.07872, 12.87495], [80.07847, 12.8744], [80.07835, 12.8741]]}}]}