{"type": "FeatureCollection", "features": [{"type": "Feature", "properties": {"route_name": "36V", "stop_id": "CKNrjFUU", "name": "Thiruvottiyur Bus Stand", "city": "CHENNAI"}, "geometry": {"type": "Point", "coordinates": [80.30608489118612, 13.175108753727507]}}, {"type": "Feature", "properties": {"route_name": "36V", "stop_id": "oftwwzSy", "name": "Wimco Nagar Or MRF Tyre Factory", "city": "CHENNAI"}, "geometry": {"type": "Point", "coordinates": [80.30712947778, 13.179016631462718]}}, {"type": "Feature", "properties": {"route_name": "36V", "stop_id": "lXZmsBCe", "name": "I T C", "city": "CHENNAI"}, "geometry": {"type": "Point", "coordinates": [80.30865324367096, 13.184064527233879]}}, {"type": "Feature", "properties": {"route_name": "36V", "stop_id": "XUEgpuYS", "name": "Lift Gate Police Station", "city": "CHENNAI"}, "geometry": {"type": "Point", "coordinates": [80.31165228939312, 13.184937368593031]}}, {"type": "Feature", "properties": {"route_name": "36V", "stop_id": "THUDGZDu", "name": "Mullai Nagar", "city": "CHENNAI"}, "geometry": {"type": "Point", "coordinates": [80.30306126854168, 13.185424246128271]}}, {"type": "Feature", "properties": {"route_name": "36V", "stop_id": "WSBJbplj", "name": "Murugappa Nagar", "city": "CHENNAI"}, "geometry": {"type": "Point", "coordinates": [80.30090017710802, 13.183306031613467]}}, {"type": "Feature", "properties": {"route_name": "36V", "stop_id": "qsoLaWuJ", "name": "Jothi Nagar", "city": "CHENNAI"}, "geometry": {"type": "Point", "coordinates": [80.2989013794662, 13.181282638284973]}}, {"type": "Feature", "properties": {"route_name": "36V", "stop_id": "ERIWLSEl", "name": "TKS Nagar", "city": "CHENNAI"}, "geometry": {"type": "Point", "coordinates": [80.29766815917776, 13.179882948148602]}}, {"type": "Feature", "properties": {"route_name": "36V", "stop_id": "lotPPedu", "name": "Sathya Moorthy Nagar", "city": "CHENNAI"}, "geometry": {"type": "Point", "coordinates": [80.29482738325714, 13.176571816549693]}}, {"type": "Feature", "properties": {"route_name": "36V", "stop_id": "nBYHMnkU", "name": "Sathangadu Police Station", "city": "CHENNAI"}, "geometry": {"type": "Point", "coordinates": [80.28655742566298, 13.175187860576454]}}, {"type": "Feature", "properties": {"route_name": "36V", "stop_id": "BldTZUAI", "name": "TPL", "city": "CHENNAI"}, "geometry": {"type": "Point", "coordinates": [80.27994989239255, 13.176224735528129]}}, {"type": "Feature", "properties": {"route_name": "36V", "stop_id": "CbblRkaH", "name": "Petro Araldit", "city": "CHENNAI"}, "geometry": {"type": "Point", "coordinates": [80.27751558376997, 13.176641667592062]}}, {"type": "Feature", "properties": {"route_name": "36V", "stop_id": "agmUQnfF", "name": "MFL", "city": "CHENNAI"}, "geometry": {"type": "Point", "coordinates": [80.27023111338644, 13.177463808475677]}}, {"type": "Feature", "properties": {"route_name": "36V", "stop_id": "IuRRuHdp", "name": "MFL Labour Gate", "city": "CHENNAI"}, "geometry": {"type": "Point", "coordinates": [80.27197891999037, 13.169787988170839]}}, {"type": "Feature", "properties": {"route_name": "36V", "stop_id": "qVzVrWDp", "name": "Chennai Petroleum Corporation Limited", "city": "CHENNAI"}, "geometry": {"type": "Point", "coordinates": [80.26925574101415, 13.161178301354932]}}, {"type": "Feature", "properties": {"route_name": "36V", "stop_id": "LXDQjYxM", "name": "Manali Metro Water", "city": "CHENNAI"}, "geometry": {"type": "Point", "coordinates": [80.26413051069835, 13.161958698860879]}}, {"type": "Feature", "properties": {"route_name": "36V", "stop_id": "QeEdlYuU", "name": "Manali Meenakshi Theatre", "city": "CHENNAI"}, "geometry": {"type": "Point", "coordinates": [80.26244425367872, 13.16241398772022]}}, {"type": "Feature", "properties": {"route_name": "36V", "stop_id": "dKSFzIqs", "name": "Manali Market", "city": "CHENNAI"}, "geometry": {"type": "Point", "coordinates": [80.25864020601273, 13.163534692742978]}}, {"type": "Feature", "properties": {"route_name": "36V", "stop_id": "RVNzMGgw", "name": "Sasthiri Nagar Manali", "city": "CHENNAI"}, "geometry": {"type": "Point", "coordinates": [80.25348245992791, 13.165250353845108]}}, {"type": "Feature", "properties": {"route_name": "36V", "stop_id": "HNYicgCh", "name": "Mathur MMDA Third Main Road", "city": "CHENNAI"}, "geometry": {"type": "Point", "coordinates": [80.2499134899499, 13.166786019532736]}}, {"type": "Feature", "properties": {"route_name": "36V", "stop_id": "QaQvGPmN", "name": "Mathur Second Main Road", "city": "CHENNAI"}, "geometry": {"type": "Point", "coordinates": [80.24822047108546, 13.166818801558389]}}, {"type": "Feature", "properties": {"route_name": "36V", "stop_id": "yRpreQRc", "name": "Mathur Gate", "city": "CHENNAI"}, "geometry": {"type": "Point", "coordinates": [80.2455168143573, 13.166832439619041]}}, {"type": "Feature", "properties": {"route_name": "36V", "stop_id": "geoeexsQ", "name": "Periya Mathur", "city": "CHENNAI"}, "geometry": {"type": "Point", "coordinates": [80.24107830051969, 13.167160367237745]}}, {"type": "Feature", "properties": {"route_name": "36V", "stop_id": "ZpEHfPul", "name": "Mathur Village", "city": "CHENNAI"}, "geometry": {"type": "Point", "coordinates": [80.23929142007773, 13.168713229330582]}}, {"type": "Feature", "properties": {"route_name": "36V", "stop_id": "NcjHcLny", "name": "Kalyani Mahal", "city": "CHENNAI"}, "geometry": {"type": "Point", "coordinates": [80.23821597756489, 13.168049769036433]}}, {"type": "Feature", "properties": {"route_name": "36V", "stop_id": "FXuJEVFo", "name": "Mathur 100 Feet Road Junctiion", "city": "CHENNAI"}, "geometry": {"type": "Point", "coordinates": [80.23838725552946, 13.174007912012133]}}, {"type": "Feature", "properties": {"route_name": "36V", "stop_id": "dmAPiPeK", "name": "Kossapur School", "city": "CHENNAI"}, "geometry": {"type": "Point", "coordinates": [80.23547019990656, 13.176436283784328]}}, {"type": "Feature", "properties": {"route_name": "36V", "stop_id": "VVXTrukI", "name": "Kosappur Bus Stand", "city": "CHENNAI"}, "geometry": {"type": "Point", "coordinates": [80.23457023437231, 13.183570827238738]}}, {"type": "Feature", "properties": {"route_name": "36V", "stop_id": "wQzAWTmt", "name": "Chettipedu", "city": "CHENNAI"}, "geometry": {"type": "Point", "coordinates": [80.22980504460111, 13.183512211278332]}}, {"type": "Feature", "properties": {"route_name": "36V", "stop_id": "ijmqRmKp", "name": "Chettimedu", "city": "CHENNAI"}, "geometry": {"type": "Point", "coordinates": [80.22158673716183, 13.184585443252896]}}, {"type": "Feature", "properties": {"route_name": "36V", "stop_id": "roHCvggS", "name": "Vadaperumbakkam", "city": "CHENNAI"}, "geometry": {"type": "Point", "coordinates": [80.21525737368847, 13.17533477184461]}}, {"type": "Feature", "properties": {"route_name": "36V", "stop_id": "UIFNotIh", "name": "Vinayagapuram", "city": "CHENNAI"}, "geometry": {"type": "Point", "coordinates": [80.21146657650456, 13.178564140479201]}}, {"type": "Feature", "properties": {"route_name": "36V", "stop_id": "TXAdjSyo", "name": "Grand Line", "city": "CHENNAI"}, "geometry": {"type": "Point", "coordinates": [80.20283001470239, 13.185758557818493]}}, {"type": "Feature", "properties": {"route_name": "36V", "stop_id": "SmQHomzq", "name": "Vadakarai", "city": "CHENNAI"}, "geometry": {"type": "Point", "coordinates": [80.19979339383826, 13.186429413713267]}}, {"type": "Feature", "properties": {"route_name": "36V", "stop_id": "OUgQnZLY", "name": "Vadakarai High School", "city": "CHENNAI"}, "geometry": {"type": "Point", "coordinates": [80.19749596481142, 13.186528841063062]}}, {"type": "Feature", "properties": {"route_name": "36V", "stop_id": "LgyCGIBw", "name": "Vadakarai Rice Mill Or Vadakarai Bypass", "city": "CHENNAI"}, "geometry": {"type": "Point", "coordinates": [80.19279191809915, 13.186521631672246]}}, {"type": "Feature", "properties": {"route_name": "36V", "stop_id": "kKKRBhFF", "name": "Ayurveda Ashramam", "city": "CHENNAI"}, "geometry": {"type": "Point", "coordinates": [80.19141192703125, 13.184649591138788]}}, {"type": "Feature", "properties": {"route_name": "36V", "stop_id": "WdOwNGhj", "name": "Redhills Market", "city": "CHENNAI"}, "geometry": {"type": "Point", "coordinates": [80.18765184553399, 13.18925264696911]}}, {"type": "Feature", "properties": {"route_name": "36V", "stop_id": "xfbmoJHP", "name": "Redhills Bus Terminus", "city": "CHENNAI"}, "geometry": {"type": "Point", "coordinates": [80.18435172804377, 13.192823904116457]}}, {"type": "Feature", "properties": {"name": "36V"}, "geometry": {"type": "LineString", "coordinates": [[80.30608, 13.17511], [80.30621, 13.17562], [80.30717, 13.17901], [80.30715, 13.179], [80.3074, 13.17984], [80.30747, 13.18004], [80.30752, 13.18011], [80.30761, 13.18031], [80.30768, 13.18053], [80.30799, 13.18167], [80.30804, 13.18186], [80.30816, 13.18231], [80.30824, 13.18268], [80.30839, 13.18293], [80.30854, 13.18347], [80.30868, 13.18392], [80.30868, 13.18403], [80.30869, 13.18406], [80.30888, 13.18478], [80.30901, 13.18521], [80.30908, 13.18536], [80.30917, 13.18542], [80.30934, 13.1854], [80.31165, 13.18493], [80.31209, 13.18482], [80.31213, 13.18498], [80.30975, 13.18549], [80.30867, 13.18575], [80.30786, 13.18592], [80.30683, 13.18611], [80.30554, 13.18636], [80.3051, 13.18641], [80.30472, 13.1864], [80.30445, 13.18635], [80.3041, 13.18623], [80.30375, 13.18603], [80.3034, 13.18576], [80.30315, 13.18553], [80.30304, 13.18545], [80.30261, 13.18506], [80.30094, 13.18341], [80.30087, 13.18334], [80.29957, 13.18203], [80.29888, 13.1813], [80.29764, 13.17991], [80.29609, 13.17815], [80.29562, 13.17763], [80.29509, 13.17702], [80.29478, 13.17661], [80.29462, 13.17641], [80.29415, 13.17591], [80.29395, 13.17575], [80.2937, 13.17558], [80.29328, 13.17538], [80.29284, 13.17526], [80.29267, 13.17523], [80.29232, 13.17522], [80.29125, 13.17523], [80.28947, 13.17521], [80.28656, 13.17522], [80.28602, 13.17525], [80.28516, 13.17539], [80.28179, 13.17594], [80.27996, 13.17626], [80.27752, 13.17666], [80.27678, 13.17678], [80.27604, 13.17692], [80.27404, 13.17724], [80.27224, 13.17756], [80.27046, 13.17785], [80.27026, 13.17771], [80.2702, 13.17763], [80.27016, 13.1775], [80.27016, 13.17746], [80.27018, 13.1772], [80.27025, 13.17675], [80.27047, 13.17581], [80.27074, 13.17463], [80.27107, 13.17323], [80.27119, 13.17275], [80.27134, 13.17225], [80.27153, 13.17148], [80.27191, 13.16977], [80.27223, 13.16861], [80.27241, 13.16779], [80.27243, 13.16756], [80.27237, 13.16721], [80.27227, 13.16689], [80.27209, 13.16654], [80.27195, 13.16634], [80.2717, 13.1661], [80.27111, 13.16555], [80.27021, 13.16476], [80.26988, 13.16445], [80.26965, 13.16417], [80.26954, 13.16401], [80.26947, 13.16386], [80.26938, 13.16354], [80.26932, 13.16327], [80.26923, 13.16257], [80.26918, 13.16199], [80.26919, 13.16163], [80.26921, 13.16147], [80.26934, 13.1612], [80.26928, 13.16123], [80.26913, 13.16128], [80.26874, 13.16138], [80.26803, 13.16151], [80.26685, 13.16171], [80.26598, 13.1618], [80.26469, 13.16195], [80.26414, 13.16202], [80.26391, 13.16207], [80.26362, 13.16219], [80.26337, 13.16227], [80.26306, 13.16235], [80.26245, 13.16246], [80.2618, 13.16256], [80.26118, 13.16268], [80.26103, 13.16272], [80.26094, 13.16275], [80.26064, 13.16292], [80.26033, 13.16306], [80.25989, 13.16323], [80.25924, 13.16347], [80.25865, 13.16357], [80.25798, 13.1637], [80.2573, 13.16377], [80.25667, 13.16387], [80.25629, 13.16398], [80.25582, 13.16414], [80.25521, 13.1644], [80.25451, 13.1647], [80.25427, 13.16482], [80.25399, 13.16496], [80.2535, 13.16528], [80.25315, 13.16551], [80.25258, 13.16585], [80.25208, 13.1661], [80.25158, 13.16637], [80.25134, 13.16648], [80.25104, 13.16661], [80.25075, 13.1667], [80.25042, 13.16677], [80.25016, 13.16683], [80.24992, 13.16685], [80.24886, 13.1669], [80.24822, 13.16688], [80.24607, 13.16685], [80.24552, 13.16688], [80.24481, 13.16694], [80.24453, 13.16686], [80.24434, 13.16682], [80.24423, 13.16679], [80.24418, 13.16728], [80.24398, 13.16731], [80.24378, 13.16731], [80.24334, 13.16729], [80.24321, 13.1673], [80.2431, 13.16736], [80.24302, 13.16748], [80.24291, 13.1676], [80.24276, 13.16761], [80.24213, 13.16748], [80.24179, 13.16741], [80.24114, 13.16722], [80.24107, 13.16718], [80.2407, 13.16703], [80.24028, 13.16693], [80.24009, 13.1669], [80.23964, 13.16686], [80.23954, 13.1669], [80.23952, 13.16694], [80.23951, 13.16699], [80.23954, 13.16718], [80.23961, 13.1675], [80.23965, 13.16781], [80.23968, 13.16805], [80.23967, 13.16843], [80.23965, 13.16862], [80.23962, 13.16869], [80.23953, 13.16875], [80.23946, 13.16876], [80.23929, 13.16875], [80.23926, 13.16875], [80.23887, 13.16869], [80.23881, 13.16866], [80.23881, 13.16829], [80.23879, 13.1682], [80.23874, 13.16814], [80.23869, 13.16811], [80.23854, 13.1681], [80.23822, 13.1681], [80.2363, 13.16816], [80.23635, 13.16881], [80.23637, 13.16966], [80.23636, 13.17096], [80.23639, 13.1714], [80.23643, 13.17176], [80.23705, 13.17211], [80.23763, 13.17246], [80.23822, 13.17272], [80.23841, 13.17288], [80.23858, 13.17329], [80.23853, 13.17412], [80.23853, 13.17413], [80.23845, 13.17438], [80.23827, 13.17495], [80.23814, 13.17546], [80.23803, 13.17612], [80.23793, 13.17628], [80.2378, 13.17634], [80.23726, 13.17633], [80.23652, 13.17632], [80.23577, 13.17634], [80.23558, 13.17636], [80.2355, 13.17645], [80.23549, 13.17652], [80.23537, 13.17766], [80.2353, 13.17878], [80.23538, 13.17974], [80.23538, 13.18014], [80.23536, 13.18025], [80.23528, 13.18046], [80.23522, 13.18061], [80.2348, 13.18157], [80.23461, 13.18207], [80.23455, 13.18227], [80.23446, 13.18266], [80.2344, 13.18316], [80.23435, 13.1835], [80.23434, 13.1836], [80.23452, 13.18363], [80.23456, 13.18364], [80.23231, 13.18336], [80.23198, 13.18334], [80.23175, 13.18335], [80.23102, 13.18337], [80.23045, 13.18336], [80.23006, 13.18344], [80.22982, 13.18355], [80.22904, 13.18395], [80.22886, 13.18402], [80.22838, 13.18409], [80.22767, 13.18423], [80.22731, 13.18435], [80.22679, 13.18459], [80.22606, 13.18499], [80.22546, 13.18523], [80.2247, 13.18547], [80.22361, 13.18576], [80.2231, 13.18587], [80.22201, 13.18607], [80.22187, 13.18608], [80.22177, 13.18607], [80.2218, 13.186], [80.22186, 13.18582], [80.22188, 13.18573], [80.22187, 13.1856], [80.22171, 13.18507], [80.22157, 13.18459], [80.22156, 13.18457], [80.22141, 13.18415], [80.22132, 13.18404], [80.22112, 13.18386], [80.22097, 13.18373], [80.22061, 13.18335], [80.22037, 13.18302], [80.22016, 13.18267], [80.21988, 13.18224], [80.21981, 13.18207], [80.2198, 13.182], [80.21984, 13.18193], [80.2199, 13.18185], [80.22, 13.18175], [80.22009, 13.18158], [80.22016, 13.1814], [80.22018, 13.18123], [80.22016, 13.18094], [80.22013, 13.1809], [80.22008, 13.18087], [80.21998, 13.18086], [80.21987, 13.18087], [80.21974, 13.18087], [80.21969, 13.18086], [80.21954, 13.18075], [80.21902, 13.18016], [80.21878, 13.17989], [80.21863, 13.17969], [80.21857, 13.17954], [80.21853, 13.17905], [80.21847, 13.1784], [80.21841, 13.17823], [80.21833, 13.17809], [80.21812, 13.17787], [80.21808, 13.17778], [80.21804, 13.17759], [80.21803, 13.17713], [80.21792, 13.17659], [80.21783, 13.17605], [80.21778, 13.17577], [80.2177, 13.17557], [80.21675, 13.17553], [80.21618, 13.17548], [80.21559, 13.17538], [80.21544, 13.17536], [80.21542, 13.17534], [80.21537, 13.1753], [80.21528, 13.17536], [80.21489, 13.17562], [80.21469, 13.17577], [80.21448, 13.17597], [80.2143, 13.17618], [80.21412, 13.17644], [80.21391, 13.17671], [80.21359, 13.17703], [80.21321, 13.1773], [80.21288, 13.17751], [80.21243, 13.17779], [80.21222, 13.17795], [80.21205, 13.17812], [80.21185, 13.17834], [80.21169, 13.1785], [80.21145, 13.1787], [80.21142, 13.17858], [80.21145, 13.1787], [80.21139, 13.17876], [80.2111, 13.17899], [80.21058, 13.17935], [80.21037, 13.17953], [80.2101, 13.17977], [80.20993, 13.17989], [80.20974, 13.18], [80.20942, 13.18015], [80.20852, 13.18059], [80.20785, 13.18094], [80.20718, 13.18136], [80.2067, 13.1817], [80.20651, 13.18185], [80.20624, 13.18211], [80.20549, 13.18278], [80.20513, 13.18304], [80.20489, 13.18312], [80.20449, 13.18322], [80.20355, 13.18344], [80.20315, 13.18352], [80.20301, 13.18359], [80.20295, 13.18366], [80.20291, 13.1838], [80.20296, 13.18433], [80.20303, 13.18486], [80.20305, 13.18518], [80.20308, 13.18538], [80.20307, 13.18566], [80.20301, 13.18573], [80.20285, 13.18581], [80.1998, 13.18647], [80.19901, 13.18665], [80.19888, 13.18667], [80.19826, 13.18662], [80.19757, 13.1866], [80.1975, 13.1866], [80.19711, 13.1866], [80.19626, 13.18658], [80.19577, 13.18652], [80.19559, 13.1865], [80.19543, 13.18651], [80.19505, 13.18647], [80.19474, 13.18647], [80.19381, 13.18649], [80.1928, 13.18657], [80.19236, 13.18661], [80.19214, 13.18669], [80.1921, 13.18473], [80.19215, 13.18432], [80.19218, 13.18423], [80.19219, 13.18414], [80.19205, 13.18411], [80.19174, 13.18417], [80.19169, 13.1842], [80.19144, 13.18466], [80.19143, 13.18466], [80.1911, 13.18514], [80.19086, 13.18547], [80.19069, 13.18565], [80.19029, 13.18601], [80.19016, 13.18613], [80.19005, 13.18625], [80.18981, 13.18673], [80.18951, 13.18741], [80.18938, 13.18759], [80.18924, 13.18772], [80.18914, 13.18783], [80.18906, 13.18793], [80.18873, 13.18822], [80.18835, 13.18856], [80.18796, 13.18899], [80.1879, 13.18902], [80.18766, 13.18927], [80.18599, 13.19114], [80.18445, 13.19277], [80.18414, 13.19313]]}}]}