{"type": "FeatureCollection", "features": [{"type": "Feature", "properties": {"route_name": "29AET", "stop_id": "PnlUHDyC", "name": "Periyar Nagar Bus Terminal", "city": "CHENNAI"}, "geometry": {"type": "Point", "coordinates": [80.22406859465332, 13.116447406252435]}}, {"type": "Feature", "properties": {"route_name": "29AET", "stop_id": "QvJRXCKm", "name": "Murugan Temple Periyar Nagar", "city": "CHENNAI"}, "geometry": {"type": "Point", "coordinates": [80.22733241386106, 13.113401712743475]}}, {"type": "Feature", "properties": {"route_name": "29AET", "stop_id": "DYLgRRdw", "name": "Jawahar Nagar Periyar Nagar", "city": "CHENNAI"}, "geometry": {"type": "Point", "coordinates": [80.22964378835013, 13.112766435887737]}}, {"type": "Feature", "properties": {"route_name": "29AET", "stop_id": "ZIZoBDen", "name": "Agaram", "city": "CHENNAI"}, "geometry": {"type": "Point", "coordinates": [80.23137696241997, 13.112437218111415]}}, {"type": "Feature", "properties": {"route_name": "29AET", "stop_id": "QdIKKqKN", "name": "Peravallur", "city": "CHENNAI"}, "geometry": {"type": "Point", "coordinates": [80.2315727402165, 13.115933714991094]}}, {"type": "Feature", "properties": {"route_name": "29AET", "stop_id": "iRpWiLQH", "name": "Kamarajar Salai", "city": "CHENNAI"}, "geometry": {"type": "Point", "coordinates": [80.23256011587762, 13.115543661201807]}}, {"type": "Feature", "properties": {"route_name": "29AET", "stop_id": "TIoMzhxD", "name": "Venus Theatre", "city": "CHENNAI"}, "geometry": {"type": "Point", "coordinates": [80.23568310458847, 13.11357472543638]}}, {"type": "Feature", "properties": {"route_name": "29AET", "stop_id": "LoxEXWve", "name": "Chembium Old Post Office", "city": "CHENNAI"}, "geometry": {"type": "Point", "coordinates": [80.2382328643771, 13.112000827139674]}}, {"type": "Feature", "properties": {"route_name": "29AET", "stop_id": "dYaEdzoO", "name": "Ludthu School", "city": "CHENNAI"}, "geometry": {"type": "Point", "coordinates": [80.24098952761267, 13.110270489643057]}}, {"type": "Feature", "properties": {"route_name": "29AET", "stop_id": "GWhCmjED", "name": "Perambur Railway Station", "city": "CHENNAI"}, "geometry": {"type": "Point", "coordinates": [80.24422467684292, 13.108665095750816]}}, {"type": "Feature", "properties": {"route_name": "29AET", "stop_id": "blwWmPPo", "name": "Mangalapuri Or Perambu", "city": "CHENNAI"}, "geometry": {"type": "Point", "coordinates": [80.24616174058178, 13.107360110045454]}}, {"type": "Feature", "properties": {"route_name": "29AET", "stop_id": "ygKQkAfU", "name": "Jamalaya", "city": "CHENNAI"}, "geometry": {"type": "Point", "coordinates": [80.25040708091933, 13.106289884085358]}}, {"type": "Feature", "properties": {"route_name": "29AET", "stop_id": "RkIYOvZu", "name": "Mettupalayam Pearmbur", "city": "CHENNAI"}, "geometry": {"type": "Point", "coordinates": [80.25292644502338, 13.105173539941251]}}, {"type": "Feature", "properties": {"route_name": "29AET", "stop_id": "dulnZXnF", "name": "Binny Mill Canteen", "city": "CHENNAI"}, "geometry": {"type": "Point", "coordinates": [80.2527168067819, 13.102583863311784]}}, {"type": "Feature", "properties": {"route_name": "29AET", "stop_id": "mWygMrMb", "name": "Otteri Police Station", "city": "CHENNAI"}, "geometry": {"type": "Point", "coordinates": [80.25186656194023, 13.100405291260158]}}, {"type": "Feature", "properties": {"route_name": "29AET", "stop_id": "VpmqCJUB", "name": "Otteri", "city": "CHENNAI"}, "geometry": {"type": "Point", "coordinates": [80.25186811585115, 13.097904869435187]}}, {"type": "Feature", "properties": {"route_name": "29AET", "stop_id": "RHWjHSWx", "name": "Dasa Mahan", "city": "CHENNAI"}, "geometry": {"type": "Point", "coordinates": [80.25465796622802, 13.09768867531854]}}, {"type": "Feature", "properties": {"route_name": "29AET", "stop_id": "vISVJoyz", "name": "Pattalam", "city": "CHENNAI"}, "geometry": {"type": "Point", "coordinates": [80.25796924532733, 13.097456624475198]}}, {"type": "Feature", "properties": {"route_name": "29AET", "stop_id": "SMriOOgF", "name": "Barracks Road", "city": "CHENNAI"}, "geometry": {"type": "Point", "coordinates": [80.25891829976547, 13.09313693043534]}}, {"type": "Feature", "properties": {"route_name": "29AET", "stop_id": "pHNyFRmN", "name": "Bhuvaneshwari Theatre Or Vasanthi Theatre", "city": "CHENNAI"}, "geometry": {"type": "Point", "coordinates": [80.25874842820986, 13.090821023965825]}}, {"type": "Feature", "properties": {"route_name": "29AET", "stop_id": "SjZGieDS", "name": "Doveton", "city": "CHENNAI"}, "geometry": {"type": "Point", "coordinates": [80.25686663322415, 13.086440731301854]}}, {"type": "Feature", "properties": {"route_name": "29AET", "stop_id": "xkdRvtRu", "name": "Purasaivakkam Tank", "city": "CHENNAI"}, "geometry": {"type": "Point", "coordinates": [80.25459983015855, 13.083658031929831]}}, {"type": "Feature", "properties": {"route_name": "29AET", "stop_id": "JvhqCmbT", "name": "Alagappa Schools", "city": "CHENNAI"}, "geometry": {"type": "Point", "coordinates": [80.25451299, 13.08270776]}}, {"type": "Feature", "properties": {"route_name": "29AET", "stop_id": "FmTbQszJ", "name": "Dharma Prakash Or MCTM School", "city": "CHENNAI"}, "geometry": {"type": "Point", "coordinates": [80.25486360182936, 13.080794310517591]}}, {"type": "Feature", "properties": {"route_name": "29AET", "stop_id": "HTKZNJTs", "name": "Das Prakash Hotel Or Petrol Pump", "city": "CHENNAI"}, "geometry": {"type": "Point", "coordinates": [80.25462333184373, 13.079812230361082]}}, {"type": "Feature", "properties": {"route_name": "29AET", "stop_id": "FFLftRlg", "name": "T N Sports Authority", "city": "CHENNAI"}, "geometry": {"type": "Point", "coordinates": [80.2586635753139, 13.07561399657108]}}, {"type": "Feature", "properties": {"route_name": "29AET", "stop_id": "vBGGqNND", "name": "Egmore Railway Station", "city": "CHENNAI"}, "geometry": {"type": "Point", "coordinates": [80.26215448617404, 13.077874240888205]}}, {"type": "Feature", "properties": {"route_name": "29AET", "stop_id": "qSowWcvN", "name": "Albert Theatre", "city": "CHENNAI"}, "geometry": {"type": "Point", "coordinates": [80.2642657951535, 13.076224256633315]}}, {"type": "Feature", "properties": {"route_name": "29AET", "stop_id": "QRrhNfpu", "name": "Commissioner Office", "city": "CHENNAI"}, "geometry": {"type": "Point", "coordinates": [80.26171612841563, 13.073701724341005]}}, {"type": "Feature", "properties": {"route_name": "29AET", "stop_id": "BgYvcKFh", "name": "Egmore Court", "city": "CHENNAI"}, "geometry": {"type": "Point", "coordinates": [80.26200220209853, 13.073021989427929]}}, {"type": "Feature", "properties": {"route_name": "29AET", "stop_id": "bKKUjGhb", "name": "Pudupet", "city": "CHENNAI"}, "geometry": {"type": "Point", "coordinates": [80.26606998649197, 13.070223462861536]}}, {"type": "Feature", "properties": {"route_name": "29AET", "stop_id": "gFAsBeQM", "name": "D1 Police Station", "city": "CHENNAI"}, "geometry": {"type": "Point", "coordinates": [80.27244713439109, 13.067990578513818]}}, {"type": "Feature", "properties": {"route_name": "29AET", "stop_id": "UaWwvNMO", "name": "Kalaivanar Arangam", "city": "CHENNAI"}, "geometry": {"type": "Point", "coordinates": [80.27556276417477, 13.066227915962186]}}, {"type": "Feature", "properties": {"route_name": "29AET", "stop_id": "eeSdZFhf", "name": "Bells Road", "city": "CHENNAI"}, "geometry": {"type": "Point", "coordinates": [80.27828820578952, 13.064105843947184]}}, {"type": "Feature", "properties": {"route_name": "29AET", "stop_id": "NKCxdwhs", "name": "Gosha Or Kasthuribai Hospital", "city": "CHENNAI"}, "geometry": {"type": "Point", "coordinates": [80.27777776642802, 13.060957918253562]}}, {"type": "Feature", "properties": {"route_name": "29AET", "stop_id": "mYoRZvtc", "name": "Triplicane", "city": "CHENNAI"}, "geometry": {"type": "Point", "coordinates": [80.27777454405555, 13.058207414404125]}}, {"type": "Feature", "properties": {"route_name": "29AET", "stop_id": "RFaTWaew", "name": "Kannagi Statue Or Presidency College", "city": "CHENNAI"}, "geometry": {"type": "Point", "coordinates": [80.28155974114793, 13.057704419772119]}}, {"type": "Feature", "properties": {"route_name": "29AET", "stop_id": "FTwVCxQy", "name": "Marina Beach", "city": "CHENNAI"}, "geometry": {"type": "Point", "coordinates": [80.28275206242665, 13.061415983604778]}}, {"type": "Feature", "properties": {"route_name": "29AET", "stop_id": "FiMPvgnV", "name": "Ezhilagam", "city": "CHENNAI"}, "geometry": {"type": "Point", "coordinates": [80.2833629771802, 13.063923695905409]}}, {"type": "Feature", "properties": {"route_name": "29AET", "stop_id": "pSVDMeCH", "name": "Madras University", "city": "CHENNAI"}, "geometry": {"type": "Point", "coordinates": [80.2836325989881, 13.06540783148406]}}, {"type": "Feature", "properties": {"route_name": "29AET", "stop_id": "gaLZwYvS", "name": "Anna Square", "city": "CHENNAI"}, "geometry": {"type": "Point", "coordinates": [80.2844001598744, 13.066389593658073]}}, {"type": "Feature", "properties": {"name": "29AET"}, "geometry": {"type": "LineString", "coordinates": [[80.22297, 13.11676], [80.22029, 13.11796], [80.22018, 13.11804], [80.21945, 13.11797], [80.21932, 13.11773], [80.21925, 13.11713], [80.2194, 13.11584], [80.22082, 13.11581], [80.22288, 13.11505], [80.22473, 13.11432], [80.22682, 13.11351], [80.22732, 13.11336], [80.22964, 13.11274], [80.23066, 13.11248], [80.23106, 13.11241], [80.23128, 13.1124], [80.23138, 13.1124], [80.23161, 13.11241], [80.23173, 13.11246], [80.23162, 13.11292], [80.23154, 13.1133], [80.2315, 13.11391], [80.23146, 13.11435], [80.23146, 13.11446], [80.23146, 13.11462], [80.23152, 13.11498], [80.23153, 13.11525], [80.23155, 13.1156], [80.23161, 13.11593], [80.23164, 13.11605], [80.23228, 13.11571], [80.23248, 13.11558], [80.23254, 13.11553], [80.23265, 13.11538], [80.23267, 13.11527], [80.23269, 13.11498], [80.23272, 13.1149], [80.2328, 13.11482], [80.23293, 13.11476], [80.23358, 13.11456], [80.234, 13.11444], [80.23467, 13.11427], [80.23485, 13.1142], [80.23501, 13.11408], [80.23552, 13.11366], [80.23564, 13.11354], [80.23567, 13.11351], [80.23575, 13.11348], [80.23602, 13.11326], [80.23619, 13.11315], [80.23648, 13.11302], [80.23699, 13.11276], [80.23741, 13.11255], [80.23747, 13.11247], [80.23766, 13.11235], [80.23798, 13.11211], [80.23821, 13.11197], [80.23931, 13.11126], [80.24097, 13.11024], [80.24151, 13.10993], [80.24173, 13.10978], [80.2421, 13.10964], [80.24237, 13.10961], [80.24237, 13.10947], [80.24232, 13.10875], [80.24231, 13.10861], [80.24226, 13.1085], [80.24309, 13.10847], [80.24397, 13.10843], [80.24416, 13.10836], [80.24421, 13.10867], [80.24422, 13.10867], [80.24425, 13.10888], [80.24417, 13.10913], [80.24414, 13.10924], [80.24408, 13.10933], [80.24402, 13.10937], [80.24397, 13.10937], [80.2439, 13.10932], [80.24376, 13.10919], [80.24358, 13.109], [80.24341, 13.10881], [80.2433, 13.10869], [80.24323, 13.10863], [80.24316, 13.1086], [80.24304, 13.10858], [80.24257, 13.10859], [80.24247, 13.10857], [80.24228, 13.10852], [80.2422, 13.10847], [80.24213, 13.10839], [80.24207, 13.10826], [80.24205, 13.108], [80.24204, 13.10774], [80.24205, 13.10716], [80.24209, 13.10695], [80.24219, 13.10675], [80.24228, 13.10667], [80.2424, 13.10666], [80.2425, 13.10669], [80.2426, 13.10673], [80.24267, 13.10682], [80.24282, 13.10702], [80.24292, 13.10712], [80.24297, 13.10713], [80.24322, 13.10719], [80.24347, 13.1072], [80.24368, 13.10721], [80.24397, 13.10722], [80.24422, 13.10724], [80.24467, 13.10727], [80.24489, 13.10728], [80.24516, 13.1073], [80.24549, 13.1073], [80.24588, 13.10731], [80.24615, 13.10732], [80.24614, 13.10733], [80.24616, 13.10732], [80.24668, 13.1073], [80.2468, 13.10727], [80.24757, 13.10697], [80.24796, 13.10685], [80.24843, 13.10669], [80.24921, 13.10647], [80.2504, 13.10625], [80.25111, 13.10611], [80.25134, 13.10601], [80.2529, 13.10513], [80.25319, 13.10498], [80.25335, 13.10481], [80.25317, 13.1044], [80.25297, 13.1035], [80.25285, 13.1031], [80.25264, 13.10262], [80.25263, 13.10259], [80.25247, 13.10223], [80.25195, 13.10093], [80.25177, 13.10044], [80.25138, 13.09936], [80.25112, 13.09875], [80.25109, 13.0985], [80.2511, 13.09837], [80.25117, 13.09817], [80.25131, 13.09805], [80.25147, 13.09792], [80.25173, 13.09789], [80.25187, 13.09788], [80.25361, 13.09771], [80.2544, 13.09765], [80.25466, 13.09764], [80.25514, 13.09763], [80.25557, 13.09759], [80.25604, 13.0976], [80.25707, 13.09753], [80.25719, 13.09752], [80.25746, 13.0975], [80.2579, 13.09743], [80.25796, 13.09742], [80.2584, 13.09739], [80.25897, 13.0974], [80.25927, 13.0974], [80.25922, 13.09715], [80.25914, 13.09652], [80.25902, 13.09586], [80.25897, 13.09553], [80.2589, 13.09492], [80.25884, 13.09405], [80.25885, 13.09348], [80.25882, 13.09314], [80.25882, 13.09312], [80.2588, 13.09246], [80.25875, 13.09188], [80.25869, 13.09086], [80.25869, 13.09083], [80.25864, 13.09032], [80.25861, 13.08977], [80.25857, 13.08938], [80.25857, 13.08901], [80.25857, 13.08793], [80.25853, 13.08709], [80.25851, 13.08703], [80.25848, 13.08689], [80.25837, 13.08688], [80.25801, 13.08679], [80.2573, 13.08661], [80.25696, 13.0865], [80.25687, 13.08646], [80.2565, 13.08634], [80.25637, 13.08631], [80.25632, 13.0863], [80.25629, 13.08631], [80.25593, 13.08618], [80.25472, 13.08571], [80.25469, 13.08567], [80.25465, 13.08556], [80.25459, 13.08475], [80.25454, 13.08403], [80.25452, 13.08371], [80.2546, 13.0837], [80.25452, 13.08371], [80.25449, 13.08336], [80.25446, 13.08271], [80.25444, 13.08229], [80.25482, 13.08162], [80.25483, 13.08113], [80.25477, 13.08081], [80.25461, 13.07982], [80.25455, 13.07955], [80.25455, 13.07941], [80.25461, 13.079], [80.25571, 13.07908], [80.25651, 13.07917], [80.2566, 13.07918], [80.25662, 13.0791], [80.25664, 13.07847], [80.25666, 13.07795], [80.25672, 13.07749], [80.25683, 13.07721], [80.25696, 13.07696], [80.25718, 13.07668], [80.25776, 13.07605], [80.25826, 13.07548], [80.25867, 13.0756], [80.25907, 13.07569], [80.2593, 13.07581], [80.25952, 13.076], [80.25965, 13.07614], [80.25992, 13.07644], [80.2601, 13.07667], [80.26027, 13.07684], [80.26062, 13.07714], [80.26076, 13.07724], [80.26099, 13.07732], [80.26104, 13.0774], [80.26111, 13.07741], [80.26185, 13.07768], [80.26186, 13.07772], [80.26189, 13.07776], [80.26208, 13.07784], [80.26216, 13.07787], [80.26245, 13.07794], [80.26259, 13.07794], [80.2632, 13.07821], [80.2632, 13.07822], [80.2632, 13.07824], [80.26323, 13.07827], [80.26327, 13.0783], [80.26331, 13.07831], [80.26336, 13.07829], [80.2634, 13.07827], [80.26342, 13.07823], [80.26342, 13.07818], [80.26342, 13.07816], [80.26398, 13.07744], [80.26408, 13.07728], [80.26415, 13.07694], [80.26423, 13.07622], [80.26424, 13.07603], [80.26429, 13.07581], [80.26432, 13.07573], [80.26426, 13.07569], [80.26391, 13.07546], [80.2632, 13.07494], [80.26279, 13.07462], [80.26182, 13.07383], [80.2617, 13.07372], [80.26153, 13.07355], [80.26134, 13.07332], [80.26129, 13.07323], [80.26129, 13.07322], [80.2613, 13.0732], [80.26199, 13.07299], [80.26221, 13.0729], [80.26278, 13.07269], [80.26327, 13.07251], [80.26362, 13.07237], [80.26397, 13.07215], [80.26454, 13.07165], [80.2652, 13.07102], [80.26545, 13.07077], [80.26554, 13.07073], [80.26576, 13.07051], [80.26606, 13.07023], [80.26604, 13.0702], [80.26623, 13.07], [80.26701, 13.06924], [80.26727, 13.069], [80.2674, 13.06892], [80.26775, 13.0688], [80.26816, 13.06868], [80.26866, 13.06849], [80.26937, 13.06833], [80.26988, 13.06823], [80.27034, 13.06818], [80.27084, 13.06816], [80.27125, 13.06812], [80.27171, 13.06843], [80.27181, 13.06855], [80.2719, 13.06846], [80.27215, 13.06815], [80.27225, 13.06804], [80.27238, 13.06792], [80.27297, 13.06743], [80.27372, 13.06689], [80.27383, 13.06682], [80.27461, 13.06653], [80.27553, 13.06615], [80.27654, 13.06578], [80.27686, 13.06563], [80.2784, 13.06488], [80.27835, 13.06475], [80.27828, 13.06444], [80.27825, 13.06411], [80.27819, 13.06379], [80.27787, 13.06179], [80.27769, 13.06097], [80.27749, 13.05973], [80.2773, 13.05851], [80.27726, 13.05818], [80.27754, 13.05812], [80.27776, 13.05809], [80.27886, 13.05797], [80.27984, 13.05781], [80.28111, 13.05766], [80.28154, 13.0576], [80.28204, 13.05753], [80.28207, 13.05771], [80.28214, 13.05806], [80.28246, 13.05963], [80.28267, 13.06062], [80.28285, 13.06139], [80.28338, 13.06392], [80.2834, 13.06401], [80.28338, 13.06414], [80.2834, 13.06423], [80.28367, 13.0654], [80.28415, 13.06764], [80.28417, 13.06779], [80.2842, 13.06808], [80.28476, 13.07033], [80.2853, 13.07242], [80.28531, 13.07312], [80.28528, 13.07322], [80.28527, 13.07339], [80.28528, 13.0735], [80.28531, 13.0737], [80.28534, 13.07378], [80.28541, 13.07386], [80.28555, 13.07395], [80.28572, 13.07403], [80.28587, 13.07398], [80.28594, 13.07392], [80.28599, 13.07383], [80.28601, 13.07365], [80.28602, 13.07357], [80.28602, 13.07348], [80.28598, 13.0734], [80.28585, 13.07317], [80.28566, 13.07286], [80.28555, 13.07266], [80.28547, 13.07247], [80.28533, 13.07205], [80.28476, 13.06975], [80.28436, 13.06812], [80.28435, 13.06788], [80.28432, 13.0676], [80.28428, 13.06741], [80.28437, 13.06716], [80.28439, 13.06704], [80.2844, 13.06676], [80.28431, 13.06642]]}}]}