{"type": "FeatureCollection", "features": [{"type": "Feature", "properties": {"route_name": "565", "stop_id": "VYHZxBYO", "name": "Sriperumbudur Bus Terminal", "city": "CHENNAI"}, "geometry": {"type": "Point", "coordinates": [79.94479514414115, 12.966639841220163]}}, {"type": "Feature", "properties": {"route_name": "565", "stop_id": "bAUDGUNb", "name": "Sriperumbudur Theradi", "city": "CHENNAI"}, "geometry": {"type": "Point", "coordinates": [79.95081024527235, 12.96867802135353]}}, {"type": "Feature", "properties": {"route_name": "565", "stop_id": "fRZGgvoY", "name": "Sriperumbudur MGR Nagar", "city": "CHENNAI"}, "geometry": {"type": "Point", "coordinates": [79.95322783096714, 12.972490009590599]}}, {"type": "Feature", "properties": {"route_name": "565", "stop_id": "oXipkDtF", "name": "Beeman Thanhal", "city": "CHENNAI"}, "geometry": {"type": "Point", "coordinates": [79.95898032420973, 12.9764847050913]}}, {"type": "Feature", "properties": {"route_name": "565", "stop_id": "wSvecpjF", "name": "Sriperumbudur Toll Gate", "city": "CHENNAI"}, "geometry": {"type": "Point", "coordinates": [79.96853146587068, 12.981981320802097]}}, {"type": "Feature", "properties": {"route_name": "565", "stop_id": "IZqJbTkm", "name": "Pennalur EB Office", "city": "CHENNAI"}, "geometry": {"type": "Point", "coordinates": [79.97548916265805, 12.985051599237092]}}, {"type": "Feature", "properties": {"route_name": "565", "stop_id": "OCOnFIfy", "name": "Irungattukottai", "city": "CHENNAI"}, "geometry": {"type": "Point", "coordinates": [79.98866012829603, 12.995427550988241]}}, {"type": "Feature", "properties": {"route_name": "565", "stop_id": "kynUbZOw", "name": "Irungattukottai Sipcot", "city": "CHENNAI"}, "geometry": {"type": "Point", "coordinates": [79.99357511114181, 13.004086928661312]}}, {"type": "Feature", "properties": {"route_name": "565", "stop_id": "diQHouff", "name": "Thandalam", "city": "CHENNAI"}, "geometry": {"type": "Point", "coordinates": [80.00405131434763, 13.01536719725498]}}, {"type": "Feature", "properties": {"route_name": "565", "stop_id": "hEihXJEh", "name": "Thandalam Koot Road", "city": "CHENNAI"}, "geometry": {"type": "Point", "coordinates": [80.01068081273422, 13.018494446802848]}}, {"type": "Feature", "properties": {"route_name": "565", "stop_id": "zjKBXJki", "name": "Saveetha Medical College", "city": "CHENNAI"}, "geometry": {"type": "Point", "coordinates": [80.01687350009206, 13.022334851546518]}}, {"type": "Feature", "properties": {"route_name": "565", "stop_id": "NdHXpyCv", "name": "Chettipedu", "city": "CHENNAI"}, "geometry": {"type": "Point", "coordinates": [80.02354995449446, 13.02444466240511]}}, {"type": "Feature", "properties": {"route_name": "565", "stop_id": "EqKjvFoW", "name": "Queensland", "city": "CHENNAI"}, "geometry": {"type": "Point", "coordinates": [80.02911136802095, 13.027908404143671]}}, {"type": "Feature", "properties": {"route_name": "565", "stop_id": "laDYeHNU", "name": "Pappanchsthiram", "city": "CHENNAI"}, "geometry": {"type": "Point", "coordinates": [80.03724299244834, 13.032781141703081]}}, {"type": "Feature", "properties": {"route_name": "565", "stop_id": "gWHAQwVu", "name": "Irulapalayam Road Junction", "city": "CHENNAI"}, "geometry": {"type": "Point", "coordinates": [80.04401520725833, 13.036255242198848]}}, {"type": "Feature", "properties": {"route_name": "565", "stop_id": "thNcyzdj", "name": "L and T", "city": "CHENNAI"}, "geometry": {"type": "Point", "coordinates": [80.05296690622049, 13.039008567376682]}}, {"type": "Feature", "properties": {"route_name": "565", "stop_id": "KQaXxZDT", "name": "Chembarambakkam", "city": "CHENNAI"}, "geometry": {"type": "Point", "coordinates": [80.05771310655246, 13.040894222214721]}}, {"type": "Feature", "properties": {"route_name": "565", "stop_id": "zlRPdbBz", "name": "Chembarambakkam Koil", "city": "CHENNAI"}, "geometry": {"type": "Point", "coordinates": [80.06294854232783, 13.043385803440914]}}, {"type": "Feature", "properties": {"route_name": "565", "stop_id": "HxSbXXdZ", "name": "Nazarathpet Police Check Post", "city": "CHENNAI"}, "geometry": {"type": "Point", "coordinates": [80.06874587149287, 13.045297913101837]}}, {"type": "Feature", "properties": {"route_name": "565", "stop_id": "ByOODIxa", "name": "Jaya Jaya Sankara International School", "city": "CHENNAI"}, "geometry": {"type": "Point", "coordinates": [80.0740456414103, 13.046670125266072]}}, {"type": "Feature", "properties": {"route_name": "565", "stop_id": "yzzIynLu", "name": "Panimalar College", "city": "CHENNAI"}, "geometry": {"type": "Point", "coordinates": [80.0754165779623, 13.047009078304145]}}, {"type": "Feature", "properties": {"route_name": "565", "stop_id": "DhBIcFJB", "name": "Nazarathpet", "city": "CHENNAI"}, "geometry": {"type": "Point", "coordinates": [80.08077577641052, 13.047479160095621]}}, {"type": "Feature", "properties": {"route_name": "565", "stop_id": "tBPmVbcK", "name": "Varadaraja Puram", "city": "CHENNAI"}, "geometry": {"type": "Point", "coordinates": [80.08694447805271, 13.049182628920619]}}, {"type": "Feature", "properties": {"route_name": "565", "stop_id": "qflzswAf", "name": "Poonamallee Terminus", "city": "CHENNAI"}, "geometry": {"type": "Point", "coordinates": [80.09486902391961, 13.051775993180485]}}, {"type": "Feature", "properties": {"route_name": "565", "stop_id": "WIZPpGvl", "name": "Parivakkam Signal", "city": "CHENNAI"}, "geometry": {"type": "Point", "coordinates": [80.09796746340929, 13.056784832360787]}}, {"type": "Feature", "properties": {"route_name": "565", "stop_id": "MCZGGmLQ", "name": "Vathal Thottam", "city": "CHENNAI"}, "geometry": {"type": "Point", "coordinates": [80.11278558120034, 13.062303089566225]}}, {"type": "Feature", "properties": {"route_name": "565", "stop_id": "PAegbDaK", "name": "SA Engineering college", "city": "CHENNAI"}, "geometry": {"type": "Point", "coordinates": [80.11243539025281, 13.066193483483062]}}, {"type": "Feature", "properties": {"route_name": "565", "stop_id": "watqBVeC", "name": "Veeraraghavapuram", "city": "CHENNAI"}, "geometry": {"type": "Point", "coordinates": [80.11258387088401, 13.071047161605504]}}, {"type": "Feature", "properties": {"route_name": "565", "stop_id": "pKwZMigm", "name": "Panchayat Board", "city": "CHENNAI"}, "geometry": {"type": "Point", "coordinates": [80.11158162830054, 13.074854528149128]}}, {"type": "Feature", "properties": {"route_name": "565", "stop_id": "ZqROcYrU", "name": "Kaduvetti", "city": "CHENNAI"}, "geometry": {"type": "Point", "coordinates": [80.11047821550233, 13.078265711537929]}}, {"type": "Feature", "properties": {"route_name": "565", "stop_id": "MQIshiHv", "name": "Melpakkam", "city": "CHENNAI"}, "geometry": {"type": "Point", "coordinates": [80.10864831620302, 13.082528569158438]}}, {"type": "Feature", "properties": {"route_name": "565", "stop_id": "AayEawbi", "name": "Paruthipattu Road Junction", "city": "CHENNAI"}, "geometry": {"type": "Point", "coordinates": [80.10853643895416, 13.08683960861935]}}, {"type": "Feature", "properties": {"route_name": "565", "stop_id": "MyVorJBj", "name": "Iyankulam", "city": "CHENNAI"}, "geometry": {"type": "Point", "coordinates": [80.10831396291553, 13.094061276309722]}}, {"type": "Feature", "properties": {"route_name": "565", "stop_id": "STKMtPtJ", "name": "Govardanagiri", "city": "CHENNAI"}, "geometry": {"type": "Point", "coordinates": [80.10825269820373, 13.098467008912937]}}, {"type": "Feature", "properties": {"route_name": "565", "stop_id": "WjKdBsVK", "name": "Moorthy Nagar", "city": "CHENNAI"}, "geometry": {"type": "Point", "coordinates": [80.10823693710802, 13.102641076393473]}}, {"type": "Feature", "properties": {"route_name": "565", "stop_id": "sLYsFXAH", "name": "Vasantham Nagar", "city": "CHENNAI"}, "geometry": {"type": "Point", "coordinates": [80.10837108946464, 13.10586991916594]}}, {"type": "Feature", "properties": {"route_name": "565", "stop_id": "WEgiiGlQ", "name": "JB Estate", "city": "CHENNAI"}, "geometry": {"type": "Point", "coordinates": [80.10851775945821, 13.11142643878794]}}, {"type": "Feature", "properties": {"route_name": "565", "stop_id": "AFMSRepx", "name": "Avadi Mosque", "city": "CHENNAI"}, "geometry": {"type": "Point", "coordinates": [80.10807897013342, 13.114173156294681]}}, {"type": "Feature", "properties": {"route_name": "565", "stop_id": "pKQmWfSR", "name": "Avadi Market", "city": "CHENNAI"}, "geometry": {"type": "Point", "coordinates": [80.10515146935916, 13.115706616124246]}}, {"type": "Feature", "properties": {"route_name": "565", "stop_id": "JNybvbry", "name": "Kannigapuram", "city": "CHENNAI"}, "geometry": {"type": "Point", "coordinates": [80.10063784096542, 13.116478493126584]}}, {"type": "Feature", "properties": {"route_name": "565", "stop_id": "dJJmWSZi", "name": "Avadi Government Hospital", "city": "CHENNAI"}, "geometry": {"type": "Point", "coordinates": [80.09781053743143, 13.116920336692548]}}, {"type": "Feature", "properties": {"route_name": "565", "stop_id": "RBBxesxu", "name": "Ramarathna Theatre", "city": "CHENNAI"}, "geometry": {"type": "Point", "coordinates": [80.09648357000003, 13.1171287803616]}}, {"type": "Feature", "properties": {"route_name": "565", "stop_id": "WyfCQhSW", "name": "Avadi Check Post", "city": "CHENNAI"}, "geometry": {"type": "Point", "coordinates": [80.09599730127115, 13.119614409356354]}}, {"type": "Feature", "properties": {"route_name": "565", "stop_id": "ogOCBKAf", "name": "Avadi Terminal", "city": "CHENNAI"}, "geometry": {"type": "Point", "coordinates": [80.10204658205703, 13.120113061821396]}}, {"type": "Feature", "properties": {"name": "565"}, "geometry": {"type": "LineString", "coordinates": [[79.94477, 12.96689], [79.94592, 12.967], [79.94645, 12.96704], [79.9477, 12.96712], [79.94847, 12.96714], [79.94957, 12.96711], [79.95049, 12.96705], [79.95058, 12.96707], [79.95061, 12.96711], [79.95069, 12.96736], [79.95077, 12.96781], [79.95081, 12.9681], [79.95085, 12.96868], [79.95087, 12.96902], [79.95091, 12.96925], [79.95092, 12.96942], [79.95101, 12.9696], [79.95123, 12.97024], [79.95136, 12.97061], [79.95142, 12.97075], [79.95152, 12.97091], [79.95175, 12.97118], [79.95196, 12.9714], [79.95234, 12.97172], [79.95263, 12.97198], [79.95319, 12.97244], [79.95324, 12.97248], [79.95437, 12.97338], [79.95469, 12.97364], [79.95588, 12.9745], [79.95659, 12.97496], [79.95688, 12.97515], [79.95701, 12.97521], [79.95733, 12.97535], [79.9576, 12.97544], [79.95789, 12.97572], [79.95875, 12.9763], [79.959, 12.97646], [79.9612, 12.97791], [79.96316, 12.97945], [79.9635, 12.97969], [79.96388, 12.97991], [79.96426, 12.98009], [79.96554, 12.98053], [79.96602, 12.9807], [79.96671, 12.98098], [79.96719, 12.9812], [79.96781, 12.98151], [79.96854, 12.98191], [79.96856, 12.98192], [79.96943, 12.98232], [79.97118, 12.98303], [79.97292, 12.98374], [79.97437, 12.98439], [79.97551, 12.98502], [79.97625, 12.98548], [79.97738, 12.98628], [79.97999, 12.98814], [79.98103, 12.9889], [79.9853, 12.99207], [79.9862, 12.99268], [79.98671, 12.99306], [79.98719, 12.99341], [79.98786, 12.99406], [79.98824, 12.99455], [79.98822, 12.99463], [79.98849, 12.99505], [79.98867, 12.99542], [79.98896, 12.99603], [79.98915, 12.99651], [79.98933, 12.99704], [79.98952, 12.99762], [79.98964, 12.9979], [79.98972, 12.99801], [79.98996, 12.99853], [79.99021, 12.99909], [79.99057, 12.99974], [79.99103, 13.00044], [79.99145, 13.00104], [79.9922, 13.00211], [79.99233, 13.00228], [79.99275, 13.00283], [79.99359, 13.00408], [79.99459, 13.00557], [79.99463, 13.0056], [79.99474, 13.00566], [79.99497, 13.00602], [79.9959, 13.00747], [79.99628, 13.00806], [79.99674, 13.00873], [79.9971, 13.00923], [79.99773, 13.01007], [79.99845, 13.01107], [79.99902, 13.01173], [79.99949, 13.01216], [79.99968, 13.01231], [79.99991, 13.01249], [80.00042, 13.01281], [80.00292, 13.01456], [80.00378, 13.01515], [80.00406, 13.01535], [80.00444, 13.01557], [80.00523, 13.01595], [80.00641, 13.01641], [80.00795, 13.01705], [80.00851, 13.01731], [80.01012, 13.01814], [80.01069, 13.01847], [80.01194, 13.01921], [80.01293, 13.01983], [80.01364, 13.02031], [80.01532, 13.02143], [80.01596, 13.02185], [80.01634, 13.02207], [80.01688, 13.0223], [80.0173, 13.02241], [80.0178, 13.02249], [80.01948, 13.02264], [80.02022, 13.02276], [80.02064, 13.02287], [80.0217, 13.02329], [80.02201, 13.02346], [80.02283, 13.02394], [80.02325, 13.02423], [80.02348, 13.02436], [80.02357, 13.02441], [80.02439, 13.0249], [80.02581, 13.02578], [80.02746, 13.02681], [80.0291, 13.02788], [80.02912, 13.02789], [80.03089, 13.02898], [80.0335, 13.03052], [80.03681, 13.03247], [80.03727, 13.03273], [80.03904, 13.0337], [80.03981, 13.03418], [80.04103, 13.03491], [80.04176, 13.03529], [80.04255, 13.03565], [80.04362, 13.03609], [80.04403, 13.03621], [80.04543, 13.0366], [80.04661, 13.03692], [80.04733, 13.03709], [80.04842, 13.0374], [80.04962, 13.03776], [80.05062, 13.03803], [80.05235, 13.03866], [80.053, 13.03892], [80.05372, 13.0392], [80.05581, 13.04011], [80.05602, 13.04021], [80.05636, 13.04031], [80.05702, 13.04059], [80.05773, 13.04086], [80.0593, 13.0415], [80.06054, 13.0421], [80.0616, 13.04269], [80.06269, 13.04324], [80.06296, 13.04336], [80.06339, 13.04354], [80.06364, 13.04364], [80.06427, 13.04382], [80.06532, 13.04416], [80.06693, 13.04465], [80.06877, 13.04523], [80.07004, 13.04558], [80.07126, 13.04595], [80.0716, 13.04602], [80.07234, 13.04608], [80.07285, 13.04615], [80.07335, 13.0463], [80.07407, 13.04661], [80.07458, 13.04683], [80.07484, 13.0469], [80.07499, 13.04694], [80.07537, 13.04697], [80.07542, 13.04698], [80.07645, 13.04702], [80.07863, 13.04708], [80.07931, 13.04713], [80.07993, 13.04724], [80.08046, 13.04738], [80.08078, 13.04746], [80.08198, 13.04779], [80.08302, 13.04816], [80.08382, 13.04849], [80.08416, 13.04863], [80.08482, 13.04886], [80.0851, 13.04893], [80.08566, 13.04903], [80.08695, 13.04915], [80.0887, 13.04952], [80.08959, 13.04973], [80.09033, 13.0499], [80.09104, 13.05002], [80.0923, 13.05027], [80.09404, 13.05085], [80.09424, 13.0517], [80.09461, 13.05207], [80.09515, 13.05205], [80.0949, 13.05178], [80.09491, 13.05207], [80.09506, 13.05207], [80.09546, 13.05209], [80.09562, 13.05209], [80.09566, 13.05207], [80.09571, 13.05203], [80.09573, 13.05197], [80.09575, 13.05184], [80.09585, 13.05183], [80.09687, 13.05191], [80.09678, 13.05278], [80.09677, 13.05315], [80.09678, 13.05354], [80.0968, 13.05369], [80.09686, 13.05391], [80.09699, 13.05426], [80.09705, 13.05449], [80.09713, 13.05522], [80.09721, 13.05566], [80.09733, 13.05607], [80.0975, 13.05639], [80.09756, 13.0566], [80.09758, 13.0567], [80.09797, 13.05677], [80.09877, 13.05693], [80.10056, 13.05737], [80.10131, 13.05749], [80.10175, 13.05751], [80.10255, 13.0575], [80.1043, 13.05741], [80.1057, 13.05734], [80.10621, 13.0573], [80.10726, 13.05718], [80.10854, 13.05706], [80.11001, 13.05697], [80.11068, 13.05694], [80.11124, 13.05693], [80.1122, 13.05697], [80.11346, 13.05701], [80.11381, 13.05703], [80.1138, 13.05735], [80.11374, 13.0581], [80.11371, 13.05846], [80.11364, 13.05886], [80.11343, 13.05977], [80.11282, 13.06231], [80.11257, 13.06315], [80.11246, 13.0636], [80.11244, 13.06372], [80.11246, 13.06386], [80.11257, 13.06409], [80.11263, 13.06424], [80.11264, 13.06437], [80.11262, 13.06449], [80.11256, 13.06469], [80.11248, 13.06486], [80.11242, 13.06495], [80.11242, 13.0654], [80.11246, 13.06619], [80.11247, 13.06653], [80.11255, 13.06802], [80.11263, 13.06936], [80.11263, 13.06977], [80.11265, 13.07032], [80.11264, 13.07084], [80.11262, 13.07105], [80.1123, 13.07244], [80.11204, 13.0735], [80.11183, 13.07425], [80.11163, 13.07487], [80.11162, 13.0749], [80.1105, 13.07827], [80.11023, 13.07909], [80.10992, 13.07989], [80.10939, 13.08117], [80.10898, 13.08219], [80.10875, 13.0828], [80.1087, 13.08301], [80.10867, 13.0833], [80.10866, 13.08383], [80.10857, 13.08643], [80.10856, 13.08684], [80.1084, 13.09229], [80.10836, 13.09406], [80.1083, 13.09695], [80.10828, 13.09847], [80.10824, 13.09966], [80.10822, 13.10005], [80.10818, 13.10028], [80.1082, 13.10136], [80.10826, 13.10264], [80.10832, 13.10435], [80.1084, 13.10587], [80.10845, 13.10708], [80.10856, 13.11059], [80.10856, 13.11098], [80.10854, 13.11143], [80.10844, 13.11222], [80.10816, 13.11389], [80.10811, 13.11418], [80.10789, 13.11536], [80.1079, 13.11543], [80.10789, 13.11553], [80.1078, 13.1156], [80.10772, 13.11562], [80.10656, 13.11561], [80.10559, 13.11564], [80.10521, 13.11571], [80.10516, 13.11573], [80.10495, 13.11582], [80.10398, 13.11596], [80.10365, 13.116], [80.10308, 13.11609], [80.10176, 13.11633], [80.10064, 13.1165], [80.09928, 13.11673], [80.09866, 13.11685], [80.09781, 13.11695], [80.09747, 13.117], [80.09666, 13.11711], [80.09654, 13.11716], [80.09649, 13.11717], [80.09609, 13.11722], [80.09564, 13.11728], [80.09541, 13.11734], [80.09526, 13.11742], [80.09514, 13.11752], [80.09507, 13.11762], [80.095, 13.11776], [80.09494, 13.118], [80.09494, 13.11827], [80.09496, 13.11875], [80.09492, 13.11898], [80.09489, 13.11945], [80.096, 13.11951], [80.09737, 13.11956], [80.09795, 13.11954], [80.09845, 13.11956], [80.09966, 13.11961], [80.10036, 13.11966], [80.10099, 13.11975], [80.10128, 13.11978], [80.10179, 13.11976], [80.10202, 13.11974]]}}]}