{"type": "FeatureCollection", "features": [{"type": "Feature", "properties": {"route_name": "42D", "stop_id": "EkWBPXmr", "name": "Broadway", "city": "CHENNAI"}, "geometry": {"type": "Point", "coordinates": [80.28388983, 13.08820568]}}, {"type": "Feature", "properties": {"route_name": "42D", "stop_id": "zVYhNTdK", "name": "Flower Bazzar", "city": "CHENNAI"}, "geometry": {"type": "Point", "coordinates": [80.28141873, 13.08750696]}}, {"type": "Feature", "properties": {"route_name": "42D", "stop_id": "xbiDwIOu", "name": "Payaigada Evening Bazar", "city": "CHENNAI"}, "geometry": {"type": "Point", "coordinates": [80.28017343, 13.08554921]}}, {"type": "Feature", "properties": {"route_name": "42D", "stop_id": "dkEskUud", "name": "MGR Central Station", "city": "CHENNAI"}, "geometry": {"type": "Point", "coordinates": [80.27761846, 13.08187667]}}, {"type": "Feature", "properties": {"route_name": "42D", "stop_id": "rqBqDfoZ", "name": "Periyamedu", "city": "CHENNAI"}, "geometry": {"type": "Point", "coordinates": [80.27043776, 13.08392761]}}, {"type": "Feature", "properties": {"route_name": "42D", "stop_id": "PaLbQtln", "name": "Nehru Stadium Or Taluka Office", "city": "CHENNAI"}, "geometry": {"type": "Point", "coordinates": [80.26995180186987, 13.086992249560762]}}, {"type": "Feature", "properties": {"route_name": "42D", "stop_id": "zOQhKaAF", "name": "Choolai Rountana", "city": "CHENNAI"}, "geometry": {"type": "Point", "coordinates": [80.26930782820705, 13.091287428125854]}}, {"type": "Feature", "properties": {"route_name": "42D", "stop_id": "eVGAINdZ", "name": "Natraj Theatre", "city": "CHENNAI"}, "geometry": {"type": "Point", "coordinates": [80.26872048783537, 13.093290785058151]}}, {"type": "Feature", "properties": {"route_name": "42D", "stop_id": "SUoxgoEf", "name": "Kesavan Park", "city": "CHENNAI"}, "geometry": {"type": "Point", "coordinates": [80.26617793232674, 13.095088545283776]}}, {"type": "Feature", "properties": {"route_name": "42D", "stop_id": "MlQcmexA", "name": "Pulianthope Police station P1", "city": "CHENNAI"}, "geometry": {"type": "Point", "coordinates": [80.2596518557333, 13.099841913213233]}}, {"type": "Feature", "properties": {"route_name": "42D", "stop_id": "IMtkgxTU", "name": "Madhavaram Aaduthotti", "city": "CHENNAI"}, "geometry": {"type": "Point", "coordinates": [80.26091360760006, 13.104248740837903]}}, {"type": "Feature", "properties": {"route_name": "42D", "stop_id": "XXPGaRGh", "name": "Kannigapuram", "city": "CHENNAI"}, "geometry": {"type": "Point", "coordinates": [80.2602584156947, 13.108079870979415]}}, {"type": "Feature", "properties": {"route_name": "42D", "stop_id": "PrdzzRyE", "name": "Ganeshapuram", "city": "CHENNAI"}, "geometry": {"type": "Point", "coordinates": [80.25841262656604, 13.109643361706837]}}, {"type": "Feature", "properties": {"route_name": "42D", "stop_id": "uTcsgvmK", "name": "BSNL Telephone Quarters Or Jeeva Railway Station", "city": "CHENNAI"}, "geometry": {"type": "Point", "coordinates": [80.25511219493637, 13.108984233997353]}}, {"type": "Feature", "properties": {"route_name": "42D", "stop_id": "bCOJrgoA", "name": "BB Road", "city": "CHENNAI"}, "geometry": {"type": "Point", "coordinates": [80.25194334125763, 13.108603782998246]}}, {"type": "Feature", "properties": {"route_name": "42D", "stop_id": "qDeoslSZ", "name": "Perambur Bus Terminus", "city": "CHENNAI"}, "geometry": {"type": "Point", "coordinates": [80.24821169990753, 13.108383786642765]}}, {"type": "Feature", "properties": {"route_name": "42D", "stop_id": "hLEWSLqw", "name": "Perambur Railway Station", "city": "CHENNAI"}, "geometry": {"type": "Point", "coordinates": [80.24475608932096, 13.108002213683353]}}, {"type": "Feature", "properties": {"route_name": "42D", "stop_id": "FDCDnriY", "name": "Perambur Church", "city": "CHENNAI"}, "geometry": {"type": "Point", "coordinates": [80.24175116795834, 13.108857500545144]}}, {"type": "Feature", "properties": {"route_name": "42D", "stop_id": "yYSDLmlm", "name": "Chembium Old Post Office", "city": "CHENNAI"}, "geometry": {"type": "Point", "coordinates": [80.23871767365654, 13.111557392255834]}}, {"type": "Feature", "properties": {"route_name": "42D", "stop_id": "ydoNqUsu", "name": "Venus Theatre", "city": "CHENNAI"}, "geometry": {"type": "Point", "coordinates": [80.23547154535242, 13.113637093207927]}}, {"type": "Feature", "properties": {"route_name": "42D", "stop_id": "OyNIynZV", "name": "Peravallur", "city": "CHENNAI"}, "geometry": {"type": "Point", "coordinates": [80.23173400803353, 13.115951347596681]}}, {"type": "Feature", "properties": {"route_name": "42D", "stop_id": "NcLanIdZ", "name": "S R B Colony", "city": "CHENNAI"}, "geometry": {"type": "Point", "coordinates": [80.22606365982938, 13.118486583665414]}}, {"type": "Feature", "properties": {"route_name": "42D", "stop_id": "SyrqOGJb", "name": "Kolathur Anna Salai", "city": "CHENNAI"}, "geometry": {"type": "Point", "coordinates": [80.22403467491631, 13.120712907830914]}}, {"type": "Feature", "properties": {"route_name": "42D", "stop_id": "IvqxNjHK", "name": "Welding Shop Kolathur", "city": "CHENNAI"}, "geometry": {"type": "Point", "coordinates": [80.22206191388045, 13.1240055850199]}}, {"type": "Feature", "properties": {"route_name": "42D", "stop_id": "XjEyEHqT", "name": "Moogambigai Kolathur", "city": "CHENNAI"}, "geometry": {"type": "Point", "coordinates": [80.21944982334253, 13.125942645973641]}}, {"type": "Feature", "properties": {"route_name": "42D", "stop_id": "tUuhPwYa", "name": "South Mada Street", "city": "CHENNAI"}, "geometry": {"type": "Point", "coordinates": [80.21655621028299, 13.124699036684751]}}, {"type": "Feature", "properties": {"route_name": "42D", "stop_id": "lqYeKJIu", "name": "Mariamman Koil", "city": "CHENNAI"}, "geometry": {"type": "Point", "coordinates": [80.21208231391506, 13.123921926462595]}}, {"type": "Feature", "properties": {"route_name": "42D", "stop_id": "GhywBjSu", "name": "Srinivasa Nagar", "city": "CHENNAI"}, "geometry": {"type": "Point", "coordinates": [80.20493893226194, 13.118573780638666]}}, {"type": "Feature", "properties": {"name": "42D"}, "geometry": {"type": "LineString", "coordinates": [[80.28388, 13.08836], [80.28347, 13.08833], [80.28293, 13.08832], [80.28263, 13.08833], [80.2823, 13.08828], [80.28206, 13.08823], [80.28184, 13.08815], [80.28156, 13.08799], [80.28153, 13.08794], [80.28145, 13.08769], [80.2814, 13.08751], [80.28095, 13.08603], [80.28087, 13.08583], [80.28083, 13.08578], [80.28076, 13.08575], [80.28024, 13.0856], [80.28016, 13.08559], [80.27982, 13.08551], [80.27957, 13.08537], [80.27943, 13.08516], [80.27937, 13.08497], [80.27928, 13.08459], [80.27917, 13.08384], [80.27914, 13.08376], [80.27903, 13.08352], [80.27895, 13.08333], [80.27856, 13.08243], [80.27848, 13.08218], [80.27845, 13.08204], [80.27834, 13.08202], [80.27761, 13.08193], [80.27642, 13.08181], [80.27572, 13.0817], [80.27508, 13.08162], [80.27438, 13.08159], [80.27301, 13.08137], [80.27196, 13.08117], [80.27153, 13.08107], [80.271, 13.08091], [80.27094, 13.08088], [80.2709, 13.08098], [80.27077, 13.08184], [80.27068, 13.08269], [80.27057, 13.08347], [80.27049, 13.08394], [80.27044, 13.08395], [80.27049, 13.08394], [80.27042, 13.08428], [80.27036, 13.08459], [80.27029, 13.08498], [80.2703, 13.0852], [80.27021, 13.08553], [80.27016, 13.08577], [80.27018, 13.086], [80.27018, 13.0865], [80.27015, 13.08668], [80.26998, 13.08701], [80.26978, 13.08741], [80.26973, 13.08753], [80.2697, 13.08767], [80.26973, 13.08827], [80.26985, 13.09], [80.26985, 13.09018], [80.26983, 13.09028], [80.26981, 13.09033], [80.26971, 13.09045], [80.26959, 13.09054], [80.26949, 13.09058], [80.26946, 13.09058], [80.2694, 13.09059], [80.26935, 13.09063], [80.26932, 13.0907], [80.26933, 13.09075], [80.26934, 13.09078], [80.26934, 13.09087], [80.26934, 13.09129], [80.26943, 13.09219], [80.26945, 13.09229], [80.26941, 13.09233], [80.26927, 13.09244], [80.26909, 13.09265], [80.26875, 13.09331], [80.26838, 13.09402], [80.26813, 13.09423], [80.26807, 13.09434], [80.26793, 13.09443], [80.26722, 13.09477], [80.26657, 13.09503], [80.2662, 13.09514], [80.26544, 13.09541], [80.26498, 13.09574], [80.26425, 13.0963], [80.26399, 13.09644], [80.26351, 13.09666], [80.26302, 13.09691], [80.26242, 13.09719], [80.2624, 13.0971], [80.26236, 13.09695], [80.26236, 13.09673], [80.26109, 13.09701], [80.26049, 13.09719], [80.2595, 13.09736], [80.25927, 13.0974], [80.25939, 13.09792], [80.2595, 13.09844], [80.2595, 13.09863], [80.25959, 13.09921], [80.25968, 13.09966], [80.25971, 13.09983], [80.25972, 13.09987], [80.25989, 13.10072], [80.26035, 13.10216], [80.26041, 13.10223], [80.26045, 13.10244], [80.26065, 13.10315], [80.261, 13.10414], [80.26102, 13.10422], [80.26104, 13.10433], [80.26106, 13.1046], [80.26103, 13.10496], [80.261, 13.10518], [80.26091, 13.10537], [80.26086, 13.10575], [80.26081, 13.10589], [80.26077, 13.10593], [80.26077, 13.106], [80.2607, 13.10647], [80.26062, 13.10702], [80.26059, 13.10752], [80.26057, 13.10763], [80.26049, 13.10782], [80.26039, 13.10806], [80.26036, 13.10813], [80.26016, 13.1085], [80.26004, 13.1086], [80.25993, 13.10878], [80.25983, 13.10892], [80.25978, 13.10902], [80.25976, 13.1091], [80.25975, 13.10915], [80.25972, 13.10978], [80.2593, 13.10976], [80.25862, 13.10974], [80.25841, 13.10973], [80.25725, 13.10968], [80.25713, 13.10934], [80.25708, 13.10931], [80.25688, 13.10927], [80.25511, 13.109], [80.25431, 13.10899], [80.25332, 13.10888], [80.25193, 13.10869], [80.25004, 13.10841], [80.24856, 13.10826], [80.24823, 13.10823], [80.24765, 13.10818], [80.24591, 13.108], [80.24562, 13.10797], [80.24541, 13.10798], [80.24477, 13.10808], [80.2446, 13.10814], [80.24435, 13.10826], [80.24416, 13.10834], [80.24404, 13.1084], [80.24399, 13.10838], [80.24394, 13.10836], [80.24269, 13.1084], [80.24232, 13.10841], [80.24204, 13.10845], [80.24196, 13.10846], [80.24193, 13.10852], [80.24183, 13.10877], [80.24181, 13.10887], [80.2418, 13.10908], [80.24181, 13.1094], [80.2418, 13.10963], [80.24173, 13.10978], [80.24099, 13.11023], [80.23931, 13.11126], [80.23875, 13.1116], [80.23779, 13.11225], [80.23737, 13.11252], [80.23694, 13.11276], [80.23646, 13.11298], [80.23603, 13.11322], [80.23571, 13.11348], [80.23552, 13.11366], [80.2355, 13.11367], [80.23501, 13.11408], [80.23485, 13.1142], [80.23467, 13.11427], [80.234, 13.11444], [80.23358, 13.11456], [80.23293, 13.11476], [80.2328, 13.11482], [80.23272, 13.1149], [80.23269, 13.11498], [80.23267, 13.11527], [80.23265, 13.11538], [80.23253, 13.11554], [80.23239, 13.11564], [80.23175, 13.11599], [80.23108, 13.11643], [80.23067, 13.11662], [80.22947, 13.11727], [80.22874, 13.11761], [80.22842, 13.11774], [80.22825, 13.11784], [80.22784, 13.11795], [80.22743, 13.11808], [80.22696, 13.11822], [80.22609, 13.11855], [80.226, 13.11858], [80.22572, 13.1188], [80.22522, 13.11939], [80.2248, 13.11982], [80.2244, 13.12022], [80.2242, 13.12049], [80.22406, 13.12073], [80.224, 13.12082], [80.22395, 13.12107], [80.22386, 13.12142], [80.22376, 13.12177], [80.22362, 13.12217], [80.22341, 13.12259], [80.22322, 13.12286], [80.22302, 13.12309], [80.22272, 13.12345], [80.22235, 13.12385], [80.22209, 13.12404], [80.22164, 13.12436], [80.22117, 13.1247], [80.22049, 13.12519], [80.21983, 13.12571], [80.21947, 13.12597], [80.21929, 13.12609], [80.21917, 13.1259], [80.21897, 13.1256], [80.21887, 13.12546], [80.21882, 13.12542], [80.21861, 13.12535], [80.21751, 13.12528], [80.21684, 13.12526], [80.21674, 13.12526], [80.21663, 13.12521], [80.21658, 13.12517], [80.21657, 13.12512], [80.21655, 13.12495], [80.21653, 13.1247], [80.21649, 13.12445], [80.21643, 13.12426], [80.2159, 13.12425], [80.21527, 13.12427], [80.21465, 13.1243], [80.21453, 13.12429], [80.21448, 13.12428], [80.21426, 13.12414], [80.21393, 13.12392], [80.21368, 13.12392], [80.21321, 13.12405], [80.21303, 13.12408], [80.21284, 13.12408], [80.21259, 13.12406], [80.21221, 13.12397], [80.21208, 13.12394], [80.21179, 13.12385], [80.21158, 13.12373], [80.21129, 13.12353], [80.21093, 13.12336], [80.2103, 13.1231], [80.20998, 13.123], [80.20976, 13.12289], [80.20868, 13.12225], [80.20847, 13.1221], [80.20844, 13.12206], [80.20833, 13.12209], [80.20818, 13.1221], [80.20782, 13.1221], [80.20665, 13.12211], [80.20539, 13.12212], [80.20542, 13.12168], [80.20548, 13.1213], [80.20557, 13.12088], [80.20563, 13.12053], [80.20576, 13.11879], [80.20576, 13.11874], [80.20572, 13.11873], [80.20537, 13.11871], [80.20493, 13.11866]]}}]}