{"type": "FeatureCollection", "features": [{"type": "Feature", "properties": {"route_name": "597A", "stop_id": "BDmybVdG", "name": "Thiruvallur Terminal", "city": "CHENNAI"}, "geometry": {"type": "Point", "coordinates": [79.90810952313655, 13.140406485250358]}}, {"type": "Feature", "properties": {"route_name": "597A", "stop_id": "iIARpDWU", "name": "Thiruvallur", "city": "CHENNAI"}, "geometry": {"type": "Point", "coordinates": [79.90756440527718, 13.138968309237484]}}, {"type": "Feature", "properties": {"route_name": "597A", "stop_id": "YIEuAZyW", "name": "TNSTC Bus Depot", "city": "CHENNAI"}, "geometry": {"type": "Point", "coordinates": [79.90867399386718, 13.135407650373603]}}, {"type": "Feature", "properties": {"route_name": "597A", "stop_id": "dIzWcSEA", "name": "Goverment Hospital Tiruvallur", "city": "CHENNAI"}, "geometry": {"type": "Point", "coordinates": [79.91054301542431, 13.127560278446003]}}, {"type": "Feature", "properties": {"route_name": "597A", "stop_id": "JYjcxadu", "name": "Thiruvallur Oil Mill", "city": "CHENNAI"}, "geometry": {"type": "Point", "coordinates": [79.91173175265783, 13.122443195795048]}}, {"type": "Feature", "properties": {"route_name": "597A", "stop_id": "tKHOTHLP", "name": "Manavala Nagar Junction", "city": "CHENNAI"}, "geometry": {"type": "Point", "coordinates": [79.91026634865625, 13.11099290468358]}}, {"type": "Feature", "properties": {"route_name": "597A", "stop_id": "PRqBOnQV", "name": "Ondikuppam", "city": "CHENNAI"}, "geometry": {"type": "Point", "coordinates": [79.9181202411346, 13.110442125674838]}}, {"type": "Feature", "properties": {"route_name": "597A", "stop_id": "TKdEYLTT", "name": "Venkathur", "city": "CHENNAI"}, "geometry": {"type": "Point", "coordinates": [79.93007446234776, 13.107502509824743]}}, {"type": "Feature", "properties": {"route_name": "597A", "stop_id": "oFutYOve", "name": "Putlur", "city": "CHENNAI"}, "geometry": {"type": "Point", "coordinates": [79.93798475712538, 13.107749879566562]}}, {"type": "Feature", "properties": {"route_name": "597A", "stop_id": "FcIwyDhH", "name": "Tirur", "city": "CHENNAI"}, "geometry": {"type": "Point", "coordinates": [79.95885149162075, 13.10654166838971]}}, {"type": "Feature", "properties": {"route_name": "597A", "stop_id": "PslqBzpy", "name": "Aranvoyal", "city": "CHENNAI"}, "geometry": {"type": "Point", "coordinates": [79.96705793817159, 13.10080832131541]}}, {"type": "Feature", "properties": {"route_name": "597A", "stop_id": "NcDEDzEB", "name": "Aranvoyal Kuppam", "city": "CHENNAI"}, "geometry": {"type": "Point", "coordinates": [79.97512335315992, 13.099263818594089]}}, {"type": "Feature", "properties": {"route_name": "597A", "stop_id": "BOpyePJp", "name": "Murukanchery", "city": "CHENNAI"}, "geometry": {"type": "Point", "coordinates": [79.97920854895051, 13.098165531956607]}}, {"type": "Feature", "properties": {"route_name": "597A", "stop_id": "kyzXrTZq", "name": "Mettukandigai", "city": "CHENNAI"}, "geometry": {"type": "Point", "coordinates": [79.99301634605308, 13.09546085995284]}}, {"type": "Feature", "properties": {"route_name": "597A", "stop_id": "zIFSdUXT", "name": "Puduchatram Bridge", "city": "CHENNAI"}, "geometry": {"type": "Point", "coordinates": [80.00565850241355, 13.090469882645104]}}, {"type": "Feature", "properties": {"route_name": "597A", "stop_id": "CSwPNDqz", "name": "Puduchatram", "city": "CHENNAI"}, "geometry": {"type": "Point", "coordinates": [80.00926718359392, 13.089335377804547]}}, {"type": "Feature", "properties": {"route_name": "597A", "stop_id": "qgzMfcCH", "name": "IMA College", "city": "CHENNAI"}, "geometry": {"type": "Point", "coordinates": [80.01699106250726, 13.087005612108515]}}, {"type": "Feature", "properties": {"route_name": "597A", "stop_id": "UgnVLYPx", "name": "Jamin Korattur", "city": "CHENNAI"}, "geometry": {"type": "Point", "coordinates": [80.0222517440543, 13.081504712309181]}}, {"type": "Feature", "properties": {"route_name": "597A", "stop_id": "KpBBeKJM", "name": "Nemam", "city": "CHENNAI"}, "geometry": {"type": "Point", "coordinates": [80.02548139598775, 13.078398521838697]}}, {"type": "Feature", "properties": {"route_name": "597A", "stop_id": "yLXUQkCh", "name": "Andersonpet", "city": "CHENNAI"}, "geometry": {"type": "Point", "coordinates": [80.0275464920021, 13.076876452461411]}}, {"type": "Feature", "properties": {"route_name": "597A", "stop_id": "BoavYDPS", "name": "Coca Cola Company", "city": "CHENNAI"}, "geometry": {"type": "Point", "coordinates": [80.03319459172485, 13.071247263029973]}}, {"type": "Feature", "properties": {"route_name": "597A", "stop_id": "RHzXTuOU", "name": "Vellavedu", "city": "CHENNAI"}, "geometry": {"type": "Point", "coordinates": [80.03696093936401, 13.068000448895695]}}, {"type": "Feature", "properties": {"route_name": "597A", "stop_id": "PzVFlDkT", "name": "Mel Menambedu", "city": "CHENNAI"}, "geometry": {"type": "Point", "coordinates": [80.03976899890768, 13.066662225066008]}}, {"type": "Feature", "properties": {"route_name": "597A", "stop_id": "dJdTBATy", "name": "Keelmanabedu", "city": "CHENNAI"}, "geometry": {"type": "Point", "coordinates": [80.04510613187608, 13.06409763497351]}}, {"type": "Feature", "properties": {"route_name": "597A", "stop_id": "XsvFZXJo", "name": "Thirumazhisai Bus Stand", "city": "CHENNAI"}, "geometry": {"type": "Point", "coordinates": [80.05659193716133, 13.055539114794586]}}, {"type": "Feature", "properties": {"route_name": "597A", "stop_id": "DpfRSiIE", "name": "Thirumazhisai Koil", "city": "CHENNAI"}, "geometry": {"type": "Point", "coordinates": [80.0615692247502, 13.054565018690402]}}, {"type": "Feature", "properties": {"route_name": "597A", "stop_id": "qDNcQeuw", "name": "Kundumedu", "city": "CHENNAI"}, "geometry": {"type": "Point", "coordinates": [80.06517834972556, 13.051461725718537]}}, {"type": "Feature", "properties": {"route_name": "597A", "stop_id": "Ngsxsfae", "name": "Nazarathpet Police Check Post", "city": "CHENNAI"}, "geometry": {"type": "Point", "coordinates": [80.07073238254452, 13.045843373397709]}}, {"type": "Feature", "properties": {"route_name": "597A", "stop_id": "ByOODIxa", "name": "Jaya Jaya Sankara International School", "city": "CHENNAI"}, "geometry": {"type": "Point", "coordinates": [80.0740456414103, 13.046670125266072]}}, {"type": "Feature", "properties": {"route_name": "597A", "stop_id": "yzzIynLu", "name": "Panimalar College", "city": "CHENNAI"}, "geometry": {"type": "Point", "coordinates": [80.0754165779623, 13.047009078304145]}}, {"type": "Feature", "properties": {"route_name": "597A", "stop_id": "DhBIcFJB", "name": "Nazarathpet", "city": "CHENNAI"}, "geometry": {"type": "Point", "coordinates": [80.08077577641052, 13.047479160095621]}}, {"type": "Feature", "properties": {"route_name": "597A", "stop_id": "tBPmVbcK", "name": "Varadaraja Puram", "city": "CHENNAI"}, "geometry": {"type": "Point", "coordinates": [80.08694447805271, 13.049182628920619]}}, {"type": "Feature", "properties": {"route_name": "597A", "stop_id": "QoKDjrWo", "name": "Poonamallee", "city": "CHENNAI"}, "geometry": {"type": "Point", "coordinates": [80.09370847310265, 13.050864047356814]}}, {"type": "Feature", "properties": {"route_name": "597A", "stop_id": "qflzswAf", "name": "Poonamallee Terminus", "city": "CHENNAI"}, "geometry": {"type": "Point", "coordinates": [80.09486902391961, 13.051775993180485]}}, {"type": "Feature", "properties": {"name": "597A"}, "geometry": {"type": "LineString", "coordinates": [[79.90798, 13.14046], [79.9081, 13.14077], [79.90844, 13.14172], [79.90852, 13.14206], [79.90856, 13.14246], [79.9086, 13.14281], [79.90848, 13.14283], [79.90756, 13.14297], [79.90736, 13.14233], [79.90722, 13.14209], [79.90698, 13.14174], [79.90668, 13.14131], [79.90666, 13.14123], [79.90664, 13.14113], [79.90669, 13.14091], [79.90694, 13.14035], [79.90695, 13.14029], [79.90703, 13.1402], [79.90712, 13.13995], [79.90721, 13.13972], [79.90738, 13.13935], [79.90754, 13.13896], [79.90815, 13.13745], [79.90821, 13.13734], [79.9086, 13.13565], [79.90865, 13.1354], [79.9088, 13.13446], [79.90919, 13.13279], [79.90933, 13.13223], [79.90969, 13.13074], [79.90986, 13.13011], [79.91008, 13.12915], [79.91026, 13.12847], [79.9105, 13.12755], [79.91077, 13.12646], [79.91087, 13.12597], [79.91095, 13.12564], [79.91106, 13.12489], [79.91117, 13.12441], [79.91128, 13.12407], [79.91152, 13.12349], [79.91172, 13.12296], [79.91183, 13.12267], [79.9118, 13.12259], [79.91175, 13.12249], [79.91172, 13.12246], [79.9113, 13.12193], [79.91101, 13.12155], [79.91059, 13.12098], [79.91014, 13.1202], [79.90996, 13.11986], [79.90984, 13.11959], [79.90976, 13.11933], [79.90951, 13.11847], [79.9093, 13.11753], [79.90916, 13.1168], [79.90909, 13.11626], [79.90904, 13.1157], [79.90897, 13.11485], [79.90893, 13.11454], [79.9089, 13.11404], [79.90892, 13.11388], [79.90896, 13.11374], [79.90924, 13.11306], [79.9099, 13.11159], [79.91008, 13.11113], [79.91022, 13.11098], [79.91025, 13.11096], [79.91035, 13.1109], [79.91045, 13.11087], [79.91067, 13.11085], [79.91077, 13.11102], [79.91088, 13.11126], [79.91102, 13.11167], [79.91123, 13.11208], [79.91165, 13.11254], [79.91195, 13.11282], [79.91209, 13.11285], [79.91242, 13.11277], [79.91306, 13.11254], [79.91318, 13.11245], [79.91327, 13.11237], [79.91344, 13.1121], [79.91354, 13.11197], [79.91376, 13.11176], [79.91405, 13.11157], [79.9142, 13.11149], [79.91476, 13.11129], [79.91563, 13.11106], [79.91631, 13.11088], [79.91727, 13.11066], [79.91811, 13.11042], [79.91814, 13.11041], [79.91882, 13.11022], [79.92061, 13.10967], [79.9226, 13.10905], [79.92644, 13.10792], [79.92745, 13.10767], [79.92812, 13.10754], [79.9286, 13.10747], [79.92916, 13.10743], [79.93007, 13.10748], [79.93055, 13.10752], [79.93145, 13.10757], [79.93345, 13.10763], [79.93688, 13.10768], [79.93799, 13.1077], [79.94031, 13.10774], [79.94113, 13.10778], [79.94276, 13.10801], [79.9436, 13.10813], [79.9445, 13.10823], [79.94543, 13.1083], [79.94648, 13.10834], [79.94772, 13.10838], [79.94921, 13.10847], [79.94991, 13.1085], [79.95061, 13.10847], [79.95137, 13.10841], [79.95299, 13.10822], [79.954, 13.10812], [79.95487, 13.10802], [79.9555, 13.10791], [79.95649, 13.10778], [79.95714, 13.10769], [79.95751, 13.10759], [79.95767, 13.10753], [79.9578, 13.10746], [79.95792, 13.10737], [79.95858, 13.10675], [79.95882, 13.10651], [79.95923, 13.10613], [79.95956, 13.10585], [79.96042, 13.10526], [79.96155, 13.1045], [79.96279, 13.10369], [79.96348, 13.10326], [79.96412, 13.10284], [79.9649, 13.10225], [79.96672, 13.10101], [79.96704, 13.10079], [79.96729, 13.10065], [79.96788, 13.10038], [79.96841, 13.10022], [79.96886, 13.10012], [79.97012, 13.0999], [79.97176, 13.09965], [79.97295, 13.09954], [79.97442, 13.09937], [79.97512, 13.09924], [79.97671, 13.09887], [79.97792, 13.09847], [79.97838, 13.0983], [79.97867, 13.09821], [79.97897, 13.09816], [79.97921, 13.09814], [79.98087, 13.09805], [79.98344, 13.09793], [79.98514, 13.09784], [79.98567, 13.09776], [79.98701, 13.09743], [79.98919, 13.09685], [79.98997, 13.0966], [79.99191, 13.09584], [79.993, 13.09543], [79.99435, 13.0949], [79.99659, 13.09397], [79.99795, 13.09339], [79.99958, 13.09275], [80.00129, 13.09208], [80.0021, 13.09175], [80.00351, 13.09121], [80.00501, 13.09067], [80.00565, 13.09044], [80.00729, 13.08984], [80.00738, 13.08977], [80.00761, 13.08969], [80.00798, 13.08961], [80.0081, 13.08958], [80.00903, 13.08935], [80.00926, 13.0893], [80.00995, 13.08919], [80.01032, 13.08913], [80.01054, 13.08909], [80.01064, 13.08911], [80.01081, 13.08908], [80.01144, 13.08895], [80.01219, 13.08878], [80.01263, 13.08865], [80.01305, 13.0885], [80.01413, 13.08806], [80.01659, 13.08708], [80.01696, 13.08693], [80.01748, 13.0867], [80.01765, 13.0866], [80.01798, 13.08631], [80.01859, 13.08563], [80.01911, 13.08502], [80.0193, 13.08484], [80.01953, 13.08458], [80.01961, 13.08444], [80.0198, 13.084], [80.01989, 13.08386], [80.02015, 13.08358], [80.02147, 13.08221], [80.0222, 13.08146], [80.02319, 13.08042], [80.02371, 13.07988], [80.02409, 13.0795], [80.02472, 13.07899], [80.0252, 13.07862], [80.0254, 13.07848], [80.02545, 13.07839], [80.02546, 13.07838], [80.02688, 13.0773], [80.02745, 13.07687], [80.02753, 13.07684], [80.02755, 13.07683], [80.02877, 13.07587], [80.02915, 13.07553], [80.02953, 13.07511], [80.03027, 13.07431], [80.03168, 13.0728], [80.03217, 13.0723], [80.03243, 13.07201], [80.03316, 13.07122], [80.03326, 13.07111], [80.0343, 13.07], [80.0347, 13.0696], [80.03524, 13.06906], [80.03538, 13.06894], [80.03573, 13.0687], [80.03666, 13.06813], [80.03694, 13.06797], [80.037, 13.06793], [80.03712, 13.06791], [80.03764, 13.06793], [80.03786, 13.06788], [80.03839, 13.0675], [80.03913, 13.06692], [80.03943, 13.06673], [80.03971, 13.06662], [80.03975, 13.0666], [80.04144, 13.066], [80.04265, 13.06557], [80.0431, 13.06534], [80.04368, 13.06498], [80.04508, 13.06407], [80.04832, 13.06197], [80.04881, 13.06159], [80.04908, 13.06132], [80.04962, 13.06064], [80.05001, 13.06015], [80.05019, 13.05996], [80.0506, 13.05965], [80.05098, 13.0594], [80.05207, 13.05873], [80.05319, 13.05805], [80.05367, 13.05774], [80.05391, 13.05755], [80.05459, 13.05698], [80.05597, 13.05571], [80.05621, 13.05553], [80.0565, 13.05536], [80.05682, 13.05521], [80.05712, 13.05511], [80.05804, 13.05488], [80.05811, 13.05484], [80.05829, 13.05484], [80.05872, 13.05482], [80.05932, 13.05477], [80.06061, 13.05474], [80.06085, 13.05472], [80.06107, 13.05467], [80.06147, 13.05452], [80.06152, 13.05448], [80.06199, 13.05421], [80.06233, 13.05409], [80.06278, 13.05401], [80.06294, 13.054], [80.06309, 13.05395], [80.06327, 13.05384], [80.06372, 13.05328], [80.06481, 13.05193], [80.06502, 13.05163], [80.06514, 13.05144], [80.06546, 13.05095], [80.06587, 13.05023], [80.06611, 13.04994], [80.06635, 13.04968], [80.0691, 13.04661], [80.06989, 13.04575], [80.07011, 13.0457], [80.07045, 13.04571], [80.07075, 13.0458], [80.07148, 13.046], [80.07244, 13.04609], [80.07289, 13.04616], [80.07314, 13.04623], [80.07341, 13.04632], [80.07383, 13.0465], [80.07407, 13.04661], [80.07458, 13.04683], [80.07484, 13.0469], [80.07499, 13.04694], [80.07537, 13.04697], [80.07542, 13.04698], [80.07645, 13.04702], [80.07863, 13.04708], [80.07931, 13.04713], [80.07993, 13.04724], [80.08046, 13.04738], [80.08078, 13.04746], [80.08198, 13.04779], [80.08302, 13.04816], [80.08382, 13.04849], [80.08416, 13.04863], [80.08482, 13.04886], [80.0851, 13.04893], [80.08566, 13.04903], [80.08695, 13.04915], [80.08734, 13.04929], [80.0889, 13.04951], [80.09066, 13.04993], [80.09228, 13.0503], [80.09357, 13.05091], [80.09373, 13.05081], [80.09403, 13.05091], [80.09421, 13.05092], [80.09509, 13.05095], [80.0951, 13.05177]]}}]}