{"type": "FeatureCollection", "features": [{"type": "Feature", "properties": {"route_name": "50ET", "stop_id": "EkWBPXmr", "name": "Broadway", "city": "CHENNAI"}, "geometry": {"type": "Point", "coordinates": [80.28388983, 13.08820568]}}, {"type": "Feature", "properties": {"route_name": "50ET", "stop_id": "xbiDwIOu", "name": "Payaigada Evening Bazar", "city": "CHENNAI"}, "geometry": {"type": "Point", "coordinates": [80.28017343, 13.08554921]}}, {"type": "Feature", "properties": {"route_name": "50ET", "stop_id": "BqZQArDi", "name": "Nurse Quarters", "city": "CHENNAI"}, "geometry": {"type": "Point", "coordinates": [80.27852104691374, 13.082227452128128]}}, {"type": "Feature", "properties": {"route_name": "50ET", "stop_id": "yhXmuUeN", "name": "Park Station", "city": "CHENNAI"}, "geometry": {"type": "Point", "coordinates": [80.27318907, 13.08134841]}}, {"type": "Feature", "properties": {"route_name": "50ET", "stop_id": "mklbELhb", "name": "Hotel Everest", "city": "CHENNAI"}, "geometry": {"type": "Point", "coordinates": [80.26770911, 13.08062016]}}, {"type": "Feature", "properties": {"route_name": "50ET", "stop_id": "xewbkqhz", "name": "Thinathanthi", "city": "CHENNAI"}, "geometry": {"type": "Point", "coordinates": [80.26361557, 13.08034458]}}, {"type": "Feature", "properties": {"route_name": "50ET", "stop_id": "AHLLTOdf", "name": "Egmore North Railway Station", "city": "CHENNAI"}, "geometry": {"type": "Point", "coordinates": [80.26274893074697, 13.07947905082281]}}, {"type": "Feature", "properties": {"route_name": "50ET", "stop_id": "tBJBJfdu", "name": "Dasaprakash", "city": "CHENNAI"}, "geometry": {"type": "Point", "coordinates": [80.25350765, 13.07867085]}}, {"type": "Feature", "properties": {"route_name": "50ET", "stop_id": "uVsOstge", "name": "Sangam Theatre", "city": "CHENNAI"}, "geometry": {"type": "Point", "coordinates": [80.24987705, 13.07865025]}}, {"type": "Feature", "properties": {"route_name": "50ET", "stop_id": "UECnapuN", "name": "KMC Hospital", "city": "CHENNAI"}, "geometry": {"type": "Point", "coordinates": [80.24301455, 13.07759198]}}, {"type": "Feature", "properties": {"route_name": "50ET", "stop_id": "bWAbaUPC", "name": "Taylors Road", "city": "CHENNAI"}, "geometry": {"type": "Point", "coordinates": [80.23763618, 13.07642088]}}, {"type": "Feature", "properties": {"route_name": "50ET", "stop_id": "cEOIeJTR", "name": "Pachaiyappas College", "city": "CHENNAI"}, "geometry": {"type": "Point", "coordinates": [80.23469050351514, 13.075832098430912]}}, {"type": "Feature", "properties": {"route_name": "50ET", "stop_id": "gUXxyAlR", "name": "Amaindhakarai", "city": "CHENNAI"}, "geometry": {"type": "Point", "coordinates": [80.22560157, 13.07385744]}}, {"type": "Feature", "properties": {"route_name": "50ET", "stop_id": "hCxxcqWU", "name": "NSK Nagar Arumbakkam", "city": "CHENNAI"}, "geometry": {"type": "Point", "coordinates": [80.21649536522591, 13.074972195801834]}}, {"type": "Feature", "properties": {"route_name": "50ET", "stop_id": "IOcMwGKn", "name": "DG Vaishnava College", "city": "CHENNAI"}, "geometry": {"type": "Point", "coordinates": [80.21333032392567, 13.07591401273661]}}, {"type": "Feature", "properties": {"route_name": "50ET", "stop_id": "ybjkPLXB", "name": "Arumbakkam Post Office", "city": "CHENNAI"}, "geometry": {"type": "Point", "coordinates": [80.21057855454819, 13.077063979110072]}}, {"type": "Feature", "properties": {"route_name": "50ET", "stop_id": "ufvngNip", "name": "Arumbakkam PH Road", "city": "CHENNAI"}, "geometry": {"type": "Point", "coordinates": [80.20433051513396, 13.07657601239817]}}, {"type": "Feature", "properties": {"route_name": "50ET", "stop_id": "xGsoSfhX", "name": "Rohini Theatre", "city": "CHENNAI"}, "geometry": {"type": "Point", "coordinates": [80.19558267913771, 13.075037939301021]}}, {"type": "Feature", "properties": {"route_name": "50ET", "stop_id": "ozuppJDT", "name": "Mettukulam", "city": "CHENNAI"}, "geometry": {"type": "Point", "coordinates": [80.19232906745913, 13.074033972183338]}}, {"type": "Feature", "properties": {"route_name": "50ET", "stop_id": "YULSfngF", "name": "Nerkundram", "city": "CHENNAI"}, "geometry": {"type": "Point", "coordinates": [80.18650393157316, 13.071495474785094]}}, {"type": "Feature", "properties": {"route_name": "50ET", "stop_id": "UUCrlfWg", "name": "Vengaya Mandi", "city": "CHENNAI"}, "geometry": {"type": "Point", "coordinates": [80.18169536739595, 13.069774564335992]}}, {"type": "Feature", "properties": {"route_name": "50ET", "stop_id": "eXTjiXiW", "name": "Maduravoyal Ration Shop", "city": "CHENNAI"}, "geometry": {"type": "Point", "coordinates": [80.17526153142762, 13.066797109963272]}}, {"type": "Feature", "properties": {"route_name": "50ET", "stop_id": "xQSKBJml", "name": "Maduravoyal Post Office", "city": "CHENNAI"}, "geometry": {"type": "Point", "coordinates": [80.17156595752385, 13.064258980755582]}}, {"type": "Feature", "properties": {"route_name": "50ET", "stop_id": "SwLVnWPq", "name": "Maduravoyal", "city": "CHENNAI"}, "geometry": {"type": "Point", "coordinates": [80.16697852901348, 13.062868952508325]}}, {"type": "Feature", "properties": {"route_name": "50ET", "stop_id": "oiYuCTCe", "name": "Maduravoyal Yerikarai", "city": "CHENNAI"}, "geometry": {"type": "Point", "coordinates": [80.16451631482187, 13.061180076950619]}}, {"type": "Feature", "properties": {"route_name": "50ET", "stop_id": "MkXEUCdM", "name": "Vaanagaram", "city": "CHENNAI"}, "geometry": {"type": "Point", "coordinates": [80.15497012171363, 13.060430632661532]}}, {"type": "Feature", "properties": {"route_name": "50ET", "stop_id": "rSdxnGDj", "name": "Kumar Theatre", "city": "CHENNAI"}, "geometry": {"type": "Point", "coordinates": [80.1497045817789, 13.061932008747092]}}, {"type": "Feature", "properties": {"route_name": "50ET", "stop_id": "otuYkIZd", "name": "Velappanchavadi", "city": "CHENNAI"}, "geometry": {"type": "Point", "coordinates": [80.13856109898961, 13.061119795531404]}}, {"type": "Feature", "properties": {"route_name": "50ET", "stop_id": "ygVaThfM", "name": "Perumal Nagar Junction", "city": "CHENNAI"}, "geometry": {"type": "Point", "coordinates": [80.13759295315333, 13.065799420883277]}}, {"type": "Feature", "properties": {"route_name": "50ET", "stop_id": "kLfGGOkq", "name": "Perumalagaram", "city": "CHENNAI"}, "geometry": {"type": "Point", "coordinates": [80.1358764779635, 13.066658979795397]}}, {"type": "Feature", "properties": {"route_name": "50ET", "stop_id": "HMiMHaRv", "name": "Thiruverkadu MGR Nagar", "city": "CHENNAI"}, "geometry": {"type": "Point", "coordinates": [80.12936948600293, 13.06762214402189]}}, {"type": "Feature", "properties": {"route_name": "50ET", "stop_id": "CoFyQOTC", "name": "Gurimedai", "city": "CHENNAI"}, "geometry": {"type": "Point", "coordinates": [80.12600577537796, 13.068305390463317]}}, {"type": "Feature", "properties": {"route_name": "50ET", "stop_id": "jnDfAorM", "name": "Thiruverkadu Terminus", "city": "CHENNAI"}, "geometry": {"type": "Point", "coordinates": [80.1239847902782, 13.069351214248936]}}, {"type": "Feature", "properties": {"route_name": "50ET", "stop_id": "mvZTxord", "name": "Ayyappan Madam", "city": "CHENNAI"}, "geometry": {"type": "Point", "coordinates": [80.11541114016961, 13.07228641312354]}}, {"type": "Feature", "properties": {"name": "50ET"}, "geometry": {"type": "LineString", "coordinates": [[80.28388, 13.08836], [80.28347, 13.08833], [80.28291, 13.08832], [80.28261, 13.08833], [80.28227, 13.08828], [80.28204, 13.08823], [80.28184, 13.08815], [80.28156, 13.08799], [80.28153, 13.08794], [80.28145, 13.08769], [80.2811, 13.08648], [80.28087, 13.08583], [80.28081, 13.08577], [80.28055, 13.08569], [80.28016, 13.08559], [80.27982, 13.08551], [80.27957, 13.08537], [80.27943, 13.08516], [80.27937, 13.08497], [80.27928, 13.08459], [80.27914, 13.08376], [80.27898, 13.08332], [80.27883, 13.08295], [80.27864, 13.08244], [80.27857, 13.08221], [80.27853, 13.08206], [80.27796, 13.08201], [80.27618, 13.08175], [80.27554, 13.08164], [80.27517, 13.08159], [80.27452, 13.08155], [80.27431, 13.08154], [80.27381, 13.0815], [80.27337, 13.08142], [80.27324, 13.0814], [80.27319, 13.08135], [80.27301, 13.08126], [80.27289, 13.08125], [80.27273, 13.08126], [80.27266, 13.08128], [80.2721, 13.08119], [80.27157, 13.08107], [80.271, 13.08091], [80.27069, 13.08083], [80.26984, 13.08075], [80.2685, 13.08072], [80.26765, 13.08073], [80.26759, 13.08073], [80.26759, 13.08062], [80.2676, 13.08059], [80.26763, 13.08059], [80.26771, 13.08059], [80.26759, 13.0806], [80.26759, 13.08073], [80.26741, 13.08072], [80.26649, 13.08073], [80.26564, 13.08075], [80.26507, 13.0807], [80.26403, 13.0805], [80.2636, 13.08041], [80.26303, 13.08027], [80.26293, 13.08014], [80.26287, 13.08004], [80.26284, 13.07995], [80.26288, 13.07985], [80.26298, 13.07956], [80.26274, 13.0802], [80.26195, 13.08003], [80.26167, 13.07994], [80.26118, 13.07974], [80.26057, 13.07957], [80.25999, 13.07947], [80.25948, 13.07939], [80.25811, 13.07924], [80.25785, 13.07921], [80.25743, 13.07918], [80.25682, 13.07914], [80.25641, 13.0791], [80.25599, 13.07907], [80.25509, 13.07897], [80.25364, 13.07879], [80.25349, 13.07877], [80.25333, 13.07875], [80.25304, 13.07876], [80.25202, 13.0788], [80.25166, 13.0788], [80.25011, 13.07874], [80.24987, 13.07871], [80.24895, 13.07856], [80.24807, 13.07837], [80.24625, 13.07801], [80.24492, 13.07789], [80.24433, 13.07784], [80.24389, 13.07782], [80.243, 13.0777], [80.24284, 13.07768], [80.24248, 13.07763], [80.24221, 13.07757], [80.24169, 13.07748], [80.24134, 13.07739], [80.24092, 13.07732], [80.24056, 13.07721], [80.24033, 13.07715], [80.23884, 13.07681], [80.23804, 13.07657], [80.23762, 13.0765], [80.23704, 13.07637], [80.23626, 13.07625], [80.23579, 13.07619], [80.23543, 13.0761], [80.23467, 13.07591], [80.2339, 13.07575], [80.23323, 13.07562], [80.23246, 13.07538], [80.23209, 13.07525], [80.23199, 13.07524], [80.22976, 13.07441], [80.22936, 13.07426], [80.22899, 13.07417], [80.22785, 13.07403], [80.22704, 13.07395], [80.22617, 13.07388], [80.2256, 13.07389], [80.22471, 13.07398], [80.22347, 13.0741], [80.22271, 13.07414], [80.22208, 13.07419], [80.22176, 13.07424], [80.22099, 13.07439], [80.22071, 13.07442], [80.21994, 13.07456], [80.21868, 13.07478], [80.21791, 13.0749], [80.21692, 13.07504], [80.21651, 13.07508], [80.21589, 13.07516], [80.21539, 13.07522], [80.21508, 13.07526], [80.21455, 13.07541], [80.21392, 13.07565], [80.21341, 13.07593], [80.21336, 13.07596], [80.21251, 13.07651], [80.21209, 13.0768], [80.21194, 13.07688], [80.21175, 13.07694], [80.21112, 13.07704], [80.21059, 13.07711], [80.2099, 13.07719], [80.20962, 13.0772], [80.2091, 13.07719], [80.20843, 13.07711], [80.2075, 13.07707], [80.20697, 13.07705], [80.20628, 13.07699], [80.20456, 13.0767], [80.20432, 13.07662], [80.20287, 13.07629], [80.20247, 13.07622], [80.20216, 13.07621], [80.20186, 13.07622], [80.20142, 13.07629], [80.20074, 13.07636], [80.20033, 13.07634], [80.19997, 13.07627], [80.19894, 13.07606], [80.1982, 13.07583], [80.19713, 13.07554], [80.19657, 13.07539], [80.1964, 13.07531], [80.19556, 13.07509], [80.19526, 13.07496], [80.19513, 13.07488], [80.1947, 13.07452], [80.1945, 13.07431], [80.19442, 13.07428], [80.19422, 13.0742], [80.19394, 13.07409], [80.19371, 13.07406], [80.1935, 13.07405], [80.19235, 13.0741], [80.19233, 13.0741], [80.1916, 13.07411], [80.19114, 13.0741], [80.19102, 13.07407], [80.1909, 13.07401], [80.19075, 13.07389], [80.19046, 13.07364], [80.18987, 13.07314], [80.18947, 13.07288], [80.18905, 13.07267], [80.18804, 13.0722], [80.18706, 13.07178], [80.18648, 13.07155], [80.18568, 13.07133], [80.18483, 13.07113], [80.18388, 13.0709], [80.18332, 13.07068], [80.18289, 13.07049], [80.18251, 13.07034], [80.18189, 13.07], [80.18166, 13.06984], [80.1811, 13.06941], [80.18044, 13.06895], [80.18014, 13.06873], [80.17979, 13.06852], [80.17858, 13.06771], [80.1783, 13.06756], [80.17818, 13.06753], [80.17782, 13.06742], [80.17653, 13.06743], [80.17618, 13.06738], [80.17598, 13.06733], [80.17583, 13.06725], [80.17563, 13.06712], [80.17524, 13.06683], [80.17423, 13.06617], [80.17305, 13.06539], [80.17209, 13.06467], [80.17182, 13.06448], [80.17163, 13.06439], [80.17153, 13.06434], [80.17134, 13.06425], [80.17098, 13.06415], [80.17058, 13.0641], [80.17003, 13.0641], [80.16924, 13.06414], [80.16885, 13.06413], [80.16858, 13.06407], [80.1684, 13.06401], [80.1681, 13.06389], [80.16783, 13.06371], [80.16709, 13.06312], [80.1669, 13.06296], [80.16634, 13.06245], [80.16606, 13.06219], [80.16573, 13.06184], [80.16558, 13.06169], [80.16544, 13.06159], [80.16517, 13.06145], [80.16464, 13.06129], [80.1645, 13.06126], [80.16421, 13.06121], [80.1639, 13.0612], [80.16295, 13.06122], [80.1621, 13.06127], [80.16111, 13.0613], [80.16056, 13.06131], [80.15983, 13.06138], [80.15834, 13.06159], [80.15799, 13.0616], [80.15766, 13.06155], [80.1574, 13.06147], [80.15708, 13.06133], [80.15641, 13.06096], [80.15587, 13.06071], [80.1556, 13.06061], [80.15521, 13.06054], [80.15496, 13.06052], [80.1548, 13.06052], [80.15436, 13.06057], [80.15295, 13.06083], [80.15238, 13.061], [80.15204, 13.06114], [80.15081, 13.0618], [80.15048, 13.06194], [80.15016, 13.06201], [80.1497, 13.06203], [80.14732, 13.06198], [80.14687, 13.06195], [80.14617, 13.06186], [80.14385, 13.06159], [80.14194, 13.06143], [80.13976, 13.06128], [80.13856, 13.06121], [80.13856, 13.0612], [80.13836, 13.06119], [80.13835, 13.06128], [80.13837, 13.06145], [80.13839, 13.06161], [80.13848, 13.06265], [80.13846, 13.06287], [80.13821, 13.0632], [80.13817, 13.06328], [80.13815, 13.06338], [80.13825, 13.06387], [80.13828, 13.06407], [80.13828, 13.06418], [80.13827, 13.06422], [80.13823, 13.06424], [80.13813, 13.06427], [80.13769, 13.06429], [80.13758, 13.06433], [80.13752, 13.06437], [80.13749, 13.06449], [80.13764, 13.06549], [80.13764, 13.06567], [80.13758, 13.06581], [80.13752, 13.06586], [80.13744, 13.06588], [80.13685, 13.0659], [80.13652, 13.06592], [80.13646, 13.06595], [80.13644, 13.06605], [80.1365, 13.06636], [80.13651, 13.06648], [80.13649, 13.06655], [80.13645, 13.06659], [80.13638, 13.06662], [80.13588, 13.06669], [80.13557, 13.06674], [80.13482, 13.06678], [80.13417, 13.06686], [80.13283, 13.06708], [80.13263, 13.06714], [80.13207, 13.06736], [80.13174, 13.06748], [80.13148, 13.06755], [80.13075, 13.06765], [80.13052, 13.06767], [80.13019, 13.06764], [80.12979, 13.06762], [80.1295, 13.06764], [80.12938, 13.06767], [80.12837, 13.06791], [80.12798, 13.06799], [80.12753, 13.06806], [80.12719, 13.06812], [80.12684, 13.06821], [80.12602, 13.06836], [80.1254, 13.06849], [80.12511, 13.06857], [80.12441, 13.06876], [80.12415, 13.06887], [80.12413, 13.06893], [80.12412, 13.06905], [80.12414, 13.06917], [80.12416, 13.06933], [80.12412, 13.06905], [80.12376, 13.06926], [80.12349, 13.06941], [80.12316, 13.06953], [80.12285, 13.06965], [80.12255, 13.06982], [80.12212, 13.07008], [80.12187, 13.07019], [80.12155, 13.07031], [80.12103, 13.07049], [80.12064, 13.07066], [80.12015, 13.07081], [80.11977, 13.07091], [80.11941, 13.07098], [80.11925, 13.07101], [80.11885, 13.07105], [80.11848, 13.07109], [80.11802, 13.0712], [80.11773, 13.07128], [80.11762, 13.0713], [80.11616, 13.07149], [80.11535, 13.07157], [80.11546, 13.07228]]}}]}