{"type": "FeatureCollection", "features": [{"type": "Feature", "properties": {"route_name": "554B", "stop_id": "HcPkwFHM", "name": "Ekkattuthangal Or Ambal Nagar", "city": "CHENNAI"}, "geometry": {"type": "Point", "coordinates": [80.20635784175875, 13.019221472051377]}}, {"type": "Feature", "properties": {"route_name": "554B", "stop_id": "svgtEcQx", "name": "CIPET", "city": "CHENNAI"}, "geometry": {"type": "Point", "coordinates": [80.20484126, 13.01454542]}}, {"type": "Feature", "properties": {"route_name": "554B", "stop_id": "mhgPTzcZ", "name": "Kathipara", "city": "CHENNAI"}, "geometry": {"type": "Point", "coordinates": [80.20165780604873, 13.007366252856462]}}, {"type": "Feature", "properties": {"route_name": "554B", "stop_id": "bOiSLYGO", "name": "Butt Road", "city": "CHENNAI"}, "geometry": {"type": "Point", "coordinates": [80.19710214350084, 13.007293584482266]}}, {"type": "Feature", "properties": {"route_name": "554B", "stop_id": "uXKxCjNA", "name": "Military Quarters", "city": "CHENNAI"}, "geometry": {"type": "Point", "coordinates": [80.19561240579367, 13.010828879135412]}}, {"type": "Feature", "properties": {"route_name": "554B", "stop_id": "fMrlznIn", "name": "Trade Centre Nandambakkam", "city": "CHENNAI"}, "geometry": {"type": "Point", "coordinates": [80.18919166368482, 13.01669199193343]}}, {"type": "Feature", "properties": {"route_name": "554B", "stop_id": "cwgbfpqq", "name": "Miot Hospital", "city": "CHENNAI"}, "geometry": {"type": "Point", "coordinates": [80.1844229969937, 13.020576206613658]}}, {"type": "Feature", "properties": {"route_name": "554B", "stop_id": "nsbHlbAq", "name": "DLF Or L and T", "city": "CHENNAI"}, "geometry": {"type": "Point", "coordinates": [80.17873929100392, 13.02363881209801]}}, {"type": "Feature", "properties": {"route_name": "554B", "stop_id": "WhHfbZWj", "name": "Mugalivakkam", "city": "CHENNAI"}, "geometry": {"type": "Point", "coordinates": [80.1683835935878, 13.02943507912661]}}, {"type": "Feature", "properties": {"route_name": "554B", "stop_id": "lsBVGYKC", "name": "Porur Shakthi Nagar", "city": "CHENNAI"}, "geometry": {"type": "Point", "coordinates": [80.16484110784074, 13.031434305596445]}}, {"type": "Feature", "properties": {"route_name": "554B", "stop_id": "eyAJPdep", "name": "Gopala Krishna Theatre", "city": "CHENNAI"}, "geometry": {"type": "Point", "coordinates": [80.16038629767968, 13.033920635546485]}}, {"type": "Feature", "properties": {"route_name": "554B", "stop_id": "FFGyTMvJ", "name": "Porur", "city": "CHENNAI"}, "geometry": {"type": "Point", "coordinates": [80.15469906289957, 13.035247766558562]}}, {"type": "Feature", "properties": {"route_name": "554B", "stop_id": "mSXRukCc", "name": "Ramachandra Hospital", "city": "CHENNAI"}, "geometry": {"type": "Point", "coordinates": [80.14304171408253, 13.036524191504682]}}, {"type": "Feature", "properties": {"route_name": "554B", "stop_id": "kjxfKqbD", "name": "Iyappanthangal", "city": "CHENNAI"}, "geometry": {"type": "Point", "coordinates": [80.13864712545444, 13.037258245977446]}}, {"type": "Feature", "properties": {"route_name": "554B", "stop_id": "nhSXMXjw", "name": "Iyyappanthangal Bus Depot", "city": "CHENNAI"}, "geometry": {"type": "Point", "coordinates": [80.13431579522192, 13.03839345200618]}}, {"type": "Feature", "properties": {"route_name": "554B", "stop_id": "nzTRQfUi", "name": "Kattupakkam", "city": "CHENNAI"}, "geometry": {"type": "Point", "coordinates": [80.12786292213946, 13.040820495452014]}}, {"type": "Feature", "properties": {"route_name": "554B", "stop_id": "MklhhYCQ", "name": "Poonamallee Municipality or Kumananchavadi", "city": "CHENNAI"}, "geometry": {"type": "Point", "coordinates": [80.11585975706225, 13.044861438722952]}}, {"type": "Feature", "properties": {"route_name": "554B", "stop_id": "XXYtSQEl", "name": "Karayanchavadi", "city": "CHENNAI"}, "geometry": {"type": "Point", "coordinates": [80.11184744587683, 13.047183932389588]}}, {"type": "Feature", "properties": {"route_name": "554B", "stop_id": "wRBXcbqq", "name": "Senneerkuppam Electronic Board House", "city": "CHENNAI"}, "geometry": {"type": "Point", "coordinates": [80.1126668586819, 13.052432880604997]}}, {"type": "Feature", "properties": {"route_name": "554B", "stop_id": "WhRBEXGR", "name": "Senneerkuppam", "city": "CHENNAI"}, "geometry": {"type": "Point", "coordinates": [80.1138599642104, 13.056383689462056]}}, {"type": "Feature", "properties": {"route_name": "554B", "stop_id": "JbCujTci", "name": "Parivakkam Signal", "city": "CHENNAI"}, "geometry": {"type": "Point", "coordinates": [80.09766351506453, 13.056485001289191]}}, {"type": "Feature", "properties": {"route_name": "554B", "stop_id": "PyGiRErs", "name": "Varadaraja Puram", "city": "CHENNAI"}, "geometry": {"type": "Point", "coordinates": [80.08662361879931, 13.04890990260656]}}, {"type": "Feature", "properties": {"route_name": "554B", "stop_id": "CrOFTJlw", "name": "Nazarathpet", "city": "CHENNAI"}, "geometry": {"type": "Point", "coordinates": [80.08050084998649, 13.047193040450408]}}, {"type": "Feature", "properties": {"route_name": "554B", "stop_id": "XuFnwsQn", "name": "Panimalar College", "city": "CHENNAI"}, "geometry": {"type": "Point", "coordinates": [80.0756512712511, 13.046858179341502]}}, {"type": "Feature", "properties": {"route_name": "554B", "stop_id": "FdBCLyPI", "name": "Jaya Jaya Sankara International School", "city": "CHENNAI"}, "geometry": {"type": "Point", "coordinates": [80.07426953185461, 13.046508577273626]}}, {"type": "Feature", "properties": {"route_name": "554B", "stop_id": "ZqOseExI", "name": "Nazarathpet Police Check Post", "city": "CHENNAI"}, "geometry": {"type": "Point", "coordinates": [80.07061537117625, 13.045618656966473]}}, {"type": "Feature", "properties": {"route_name": "554B", "stop_id": "wRTYbalx", "name": "Chembarambakkam Koil", "city": "CHENNAI"}, "geometry": {"type": "Point", "coordinates": [80.0629981631946, 13.043197666898577]}}, {"type": "Feature", "properties": {"route_name": "554B", "stop_id": "gxidCspv", "name": "Chembarambakkam", "city": "CHENNAI"}, "geometry": {"type": "Point", "coordinates": [80.05755619732508, 13.040627692719365]}}, {"type": "Feature", "properties": {"route_name": "554B", "stop_id": "rljVoTvk", "name": "L and T", "city": "CHENNAI"}, "geometry": {"type": "Point", "coordinates": [80.05316471913534, 13.03881454813193]}}, {"type": "Feature", "properties": {"route_name": "554B", "stop_id": "ekoOPpVq", "name": "Irulapalayam Road Junction", "city": "CHENNAI"}, "geometry": {"type": "Point", "coordinates": [80.04407890972243, 13.035973029197613]}}, {"type": "Feature", "properties": {"route_name": "554B", "stop_id": "uuLXjUrY", "name": "Queensland", "city": "CHENNAI"}, "geometry": {"type": "Point", "coordinates": [80.03012088443893, 13.028297112871028]}}, {"type": "Feature", "properties": {"route_name": "554B", "stop_id": "spVkBMtX", "name": "Chettipedu", "city": "CHENNAI"}, "geometry": {"type": "Point", "coordinates": [80.02321870168112, 13.023997477036747]}}, {"type": "Feature", "properties": {"route_name": "554B", "stop_id": "ixhHdGBo", "name": "Saveetha Medical College", "city": "CHENNAI"}, "geometry": {"type": "Point", "coordinates": [80.01650268469575, 13.021966059361711]}}, {"type": "Feature", "properties": {"route_name": "554B", "stop_id": "aaeLLxLj", "name": "Thandalam Koot Road", "city": "CHENNAI"}, "geometry": {"type": "Point", "coordinates": [80.01040286882505, 13.01812826217505]}}, {"type": "Feature", "properties": {"route_name": "554B", "stop_id": "oDVZRjmi", "name": "Thandalam", "city": "CHENNAI"}, "geometry": {"type": "Point", "coordinates": [80.00409791772927, 13.015179039421575]}}, {"type": "Feature", "properties": {"route_name": "554B", "stop_id": "fnQyKclP", "name": "Irungattukottai Sipcot", "city": "CHENNAI"}, "geometry": {"type": "Point", "coordinates": [79.99370821576417, 13.00382852651284]}}, {"type": "Feature", "properties": {"route_name": "554B", "stop_id": "kVWwehGs", "name": "Irungattukottai", "city": "CHENNAI"}, "geometry": {"type": "Point", "coordinates": [79.9888519062406, 12.995217163157772]}}, {"type": "Feature", "properties": {"route_name": "554B", "stop_id": "pzSSkNJo", "name": "Pennalur EB Office", "city": "CHENNAI"}, "geometry": {"type": "Point", "coordinates": [79.97569401637156, 12.984934966350282]}}, {"type": "Feature", "properties": {"route_name": "554B", "stop_id": "UDUmRzWP", "name": "Sriperumbudur Toll Gate", "city": "CHENNAI"}, "geometry": {"type": "Point", "coordinates": [79.96870681528503, 12.981713421144025]}}, {"type": "Feature", "properties": {"route_name": "554B", "stop_id": "yscklMzl", "name": "Beeman Thanhal", "city": "CHENNAI"}, "geometry": {"type": "Point", "coordinates": [79.95878318184714, 12.97615276349852]}}, {"type": "Feature", "properties": {"route_name": "554B", "stop_id": "QhyQakxZ", "name": "Sriperumbudur MGR Nagar", "city": "CHENNAI"}, "geometry": {"type": "Point", "coordinates": [79.95331964817645, 12.97244836779678]}}, {"type": "Feature", "properties": {"route_name": "554B", "stop_id": "sklTQuFm", "name": "Sriperumbudur Theradi", "city": "CHENNAI"}, "geometry": {"type": "Point", "coordinates": [79.95087998270674, 12.968596013565081]}}, {"type": "Feature", "properties": {"route_name": "554B", "stop_id": "XPyUXhvO", "name": "Sriperumbudur Bus Stand", "city": "CHENNAI"}, "geometry": {"type": "Point", "coordinates": [79.9454747088222, 12.966325331239814]}}, {"type": "Feature", "properties": {"route_name": "554B", "stop_id": "vDTAjOOR", "name": "Sriperumbudur Bypass", "city": "CHENNAI"}, "geometry": {"type": "Point", "coordinates": [79.94526755290735, 12.962259292267998]}}, {"type": "Feature", "properties": {"route_name": "554B", "stop_id": "yQmtaWgt", "name": "Travellers Bangalow Or Pattunool Chatram", "city": "CHENNAI"}, "geometry": {"type": "Point", "coordinates": [79.94296090030434, 12.956257177128668]}}, {"type": "Feature", "properties": {"route_name": "554B", "stop_id": "NrUUQlkk", "name": "Nokia India Factory", "city": "CHENNAI"}, "geometry": {"type": "Point", "coordinates": [79.93474931208266, 12.95461636457569]}}, {"type": "Feature", "properties": {"route_name": "554B", "stop_id": "gNJqbiHM", "name": "Vadamangalam Road Junction", "city": "CHENNAI"}, "geometry": {"type": "Point", "coordinates": [79.92646867748999, 12.948907910738463]}}, {"type": "Feature", "properties": {"route_name": "554B", "stop_id": "XmmyKsTm", "name": "Mambakkam", "city": "CHENNAI"}, "geometry": {"type": "Point", "coordinates": [79.91427917344492, 12.938651777900644]}}, {"type": "Feature", "properties": {"route_name": "554B", "stop_id": "ajteUQkz", "name": "Mambakkam Sipcot", "city": "CHENNAI"}, "geometry": {"type": "Point", "coordinates": [79.90679014649913, 12.933110197699582]}}, {"type": "Feature", "properties": {"route_name": "554B", "stop_id": "BAePGsuO", "name": "Thirumangalam", "city": "CHENNAI"}, "geometry": {"type": "Point", "coordinates": [79.8882223842262, 12.929163685152961]}}, {"type": "Feature", "properties": {"route_name": "554B", "stop_id": "VpHOqNar", "name": "Sunguvarchatram", "city": "CHENNAI"}, "geometry": {"type": "Point", "coordinates": [79.87946617847342, 12.925344539091597]}}, {"type": "Feature", "properties": {"name": "554B"}, "geometry": {"type": "LineString", "coordinates": [[80.20628, 13.01924], [80.20603, 13.01848], [80.20579, 13.01774], [80.20558, 13.01722], [80.20512, 13.01591], [80.20467, 13.01471], [80.20469, 13.01469], [80.20489, 13.01453], [80.20466, 13.01466], [80.20406, 13.01296], [80.20385, 13.012], [80.20369, 13.01008], [80.20373, 13.00855], [80.20361, 13.00724], [80.20374, 13.00687], [80.20408, 13.00677], [80.20439, 13.00691], [80.20447, 13.00721], [80.20422, 13.00757], [80.20386, 13.00756], [80.20345, 13.0075], [80.20257, 13.00738], [80.20173, 13.0074], [80.20166, 13.00741], [80.20106, 13.00746], [80.20026, 13.00749], [80.19969, 13.00748], [80.19847, 13.00739], [80.1971, 13.00737], [80.19708, 13.00737], [80.19631, 13.00735], [80.19624, 13.00737], [80.19621, 13.00741], [80.19618, 13.00748], [80.19617, 13.00758], [80.19619, 13.0079], [80.19623, 13.00849], [80.19623, 13.00864], [80.1962, 13.00876], [80.196, 13.00918], [80.19592, 13.00935], [80.19588, 13.00951], [80.19586, 13.00971], [80.19587, 13.01007], [80.19587, 13.01041], [80.19586, 13.01055], [80.19579, 13.01069], [80.19568, 13.01087], [80.19432, 13.01309], [80.19406, 13.0135], [80.19389, 13.01378], [80.19368, 13.01408], [80.19358, 13.0142], [80.19337, 13.01438], [80.19315, 13.01454], [80.19273, 13.01482], [80.19165, 13.01541], [80.18992, 13.01639], [80.18924, 13.01678], [80.18717, 13.01785], [80.18703, 13.01797], [80.18681, 13.01821], [80.18658, 13.01853], [80.18589, 13.01969], [80.18565, 13.02007], [80.18555, 13.02019], [80.18543, 13.02029], [80.18534, 13.02035], [80.18493, 13.02051], [80.18444, 13.02064], [80.18404, 13.02078], [80.18366, 13.02096], [80.18172, 13.02207], [80.17878, 13.02371], [80.17728, 13.02453], [80.1759, 13.02532], [80.175, 13.02584], [80.17476, 13.02597], [80.1726, 13.02718], [80.17029, 13.02846], [80.16956, 13.02887], [80.16882, 13.02929], [80.16842, 13.0295], [80.16762, 13.02992], [80.16653, 13.03052], [80.16486, 13.03147], [80.16428, 13.0318], [80.16313, 13.03247], [80.16254, 13.03278], [80.16134, 13.03347], [80.16042, 13.03397], [80.15984, 13.03429], [80.15944, 13.03438], [80.15872, 13.03438], [80.15829, 13.03434], [80.15785, 13.03431], [80.15743, 13.03426], [80.15714, 13.03424], [80.15666, 13.03428], [80.15592, 13.03463], [80.15578, 13.03472], [80.15543, 13.03491], [80.15472, 13.03528], [80.15311, 13.03614], [80.15295, 13.0362], [80.15281, 13.03623], [80.15226, 13.03623], [80.15031, 13.03617], [80.14879, 13.03615], [80.14681, 13.03617], [80.14613, 13.03622], [80.1449, 13.0364], [80.14361, 13.03658], [80.14351, 13.03656], [80.14328, 13.03655], [80.14305, 13.03657], [80.14278, 13.03663], [80.14271, 13.03671], [80.14241, 13.03673], [80.14104, 13.03692], [80.13958, 13.03717], [80.13865, 13.0373], [80.13677, 13.03756], [80.13626, 13.03769], [80.13574, 13.03786], [80.1349, 13.03819], [80.13433, 13.03842], [80.13304, 13.03895], [80.13255, 13.03914], [80.13203, 13.03932], [80.1308, 13.03978], [80.12968, 13.0402], [80.12788, 13.04086], [80.12756, 13.04098], [80.12675, 13.04133], [80.12591, 13.04171], [80.12396, 13.04254], [80.12279, 13.04306], [80.12054, 13.04392], [80.11917, 13.04452], [80.11891, 13.04461], [80.11795, 13.04493], [80.11771, 13.045], [80.11731, 13.04507], [80.1172, 13.04509], [80.1171, 13.04516], [80.11703, 13.04522], [80.11649, 13.04503], [80.11604, 13.04491], [80.1159, 13.04489], [80.11586, 13.04489], [80.11586, 13.0449], [80.11577, 13.0449], [80.11563, 13.04493], [80.11503, 13.0451], [80.11477, 13.04517], [80.11402, 13.04542], [80.11311, 13.04575], [80.11249, 13.04593], [80.11226, 13.04602], [80.11178, 13.04625], [80.11169, 13.04629], [80.11171, 13.04636], [80.11181, 13.04672], [80.1119, 13.04717], [80.11209, 13.0481], [80.11223, 13.04882], [80.11232, 13.04939], [80.11239, 13.04974], [80.1125, 13.05053], [80.11258, 13.05134], [80.11271, 13.05243], [80.11283, 13.05293], [80.11313, 13.05371], [80.11322, 13.05395], [80.11335, 13.05424], [80.11359, 13.05471], [80.11373, 13.05508], [80.11383, 13.05558], [80.11387, 13.05569], [80.11393, 13.05582], [80.11391, 13.05593], [80.11391, 13.05618], [80.11388, 13.05639], [80.11385, 13.05669], [80.11265, 13.05664], [80.11184, 13.0566], [80.11146, 13.0566], [80.11089, 13.05662], [80.11037, 13.05663], [80.10995, 13.05665], [80.10984, 13.05666], [80.10972, 13.05677], [80.1083, 13.05687], [80.10741, 13.05695], [80.10661, 13.05704], [80.10553, 13.05715], [80.10261, 13.05728], [80.10206, 13.0573], [80.1015, 13.05727], [80.10101, 13.05722], [80.10078, 13.05718], [80.10024, 13.05706], [80.09766, 13.0565], [80.09724, 13.05644], [80.09595, 13.05631], [80.0952, 13.05623], [80.09475, 13.05612], [80.09427, 13.05596], [80.09343, 13.0556], [80.0922, 13.05503], [80.09183, 13.05483], [80.09156, 13.05464], [80.09117, 13.05432], [80.0909, 13.05402], [80.09074, 13.05381], [80.09045, 13.05332], [80.08957, 13.05156], [80.0891, 13.05068], [80.08887, 13.05029], [80.08874, 13.05002], [80.08858, 13.0498], [80.08838, 13.04953], [80.08821, 13.04937], [80.08808, 13.04926], [80.08788, 13.04916], [80.08763, 13.04908], [80.08701, 13.04895], [80.08663, 13.04889], [80.08662, 13.04893], [80.08484, 13.04863], [80.08393, 13.04838], [80.083, 13.04808], [80.08096, 13.04741], [80.0806, 13.0473], [80.08047, 13.04718], [80.08046, 13.04722], [80.08046, 13.04726], [80.08027, 13.04721], [80.07988, 13.04712], [80.07958, 13.04707], [80.07933, 13.04704], [80.07873, 13.047], [80.07754, 13.04697], [80.07565, 13.04689], [80.07529, 13.04688], [80.07499, 13.04685], [80.07463, 13.04676], [80.07423, 13.04658], [80.07365, 13.04631], [80.07334, 13.0462], [80.07288, 13.04607], [80.07211, 13.04599], [80.07156, 13.04593], [80.07124, 13.04587], [80.0707, 13.04571], [80.07058, 13.04567], [80.0706, 13.04561], [80.07058, 13.04567], [80.07038, 13.0456], [80.06999, 13.04546], [80.06852, 13.04503], [80.06556, 13.04419], [80.06432, 13.04382], [80.06366, 13.04356], [80.06297, 13.04326], [80.06215, 13.04287], [80.06132, 13.04243], [80.06038, 13.0419], [80.05956, 13.04152], [80.05838, 13.04101], [80.05753, 13.04069], [80.05605, 13.04013], [80.05472, 13.03955], [80.05314, 13.03888], [80.05208, 13.03848], [80.05002, 13.03775], [80.0491, 13.03746], [80.04792, 13.03712], [80.04748, 13.03701], [80.04525, 13.0364], [80.04405, 13.03606], [80.04367, 13.03594], [80.04303, 13.03568], [80.04202, 13.03525], [80.04126, 13.03485], [80.04099, 13.03472], [80.04014, 13.03424], [80.03873, 13.03338], [80.0383, 13.03315], [80.03725, 13.03258], [80.03649, 13.03215], [80.03255, 13.02983], [80.03009, 13.02835], [80.02913, 13.02775], [80.02677, 13.02623], [80.02317, 13.02408], [80.02186, 13.02329], [80.02162, 13.02315], [80.02115, 13.02294], [80.02054, 13.02273], [80.02012, 13.02262], [80.01943, 13.02251], [80.01851, 13.02245], [80.01795, 13.0224], [80.01738, 13.02232], [80.01701, 13.02223], [80.01674, 13.02213], [80.01648, 13.02201], [80.016, 13.02174], [80.01272, 13.01958], [80.0116, 13.01886], [80.01058, 13.01826], [80.01039, 13.01815], [80.00916, 13.0175], [80.00832, 13.01711], [80.00601, 13.01616], [80.00497, 13.01571], [80.00421, 13.0153], [80.00408, 13.01521], [80.00265, 13.01424], [80.00151, 13.01344], [79.99985, 13.01226], [79.99946, 13.01192], [79.9991, 13.01157], [79.9988, 13.01125], [79.99843, 13.01078], [79.99745, 13.00943], [79.99648, 13.00805], [79.99514, 13.00599], [79.99389, 13.00417], [79.99366, 13.00386], [79.99167, 13.001], [79.99103, 13.00009], [79.99059, 12.99938], [79.99049, 12.99918], [79.99006, 12.99824], [79.98951, 12.99688], [79.98915, 12.99595], [79.98901, 12.99563], [79.9888, 12.99524], [79.98858, 12.99485], [79.98839, 12.99458], [79.98769, 12.99379], [79.98734, 12.99346], [79.98714, 12.99329], [79.98586, 12.99236], [79.98485, 12.99166], [79.98371, 12.9908], [79.98227, 12.98971], [79.98062, 12.98849], [79.97971, 12.98783], [79.97891, 12.98726], [79.97812, 12.98671], [79.97677, 12.98573], [79.97596, 12.9852], [79.97565, 12.985], [79.97447, 12.98435], [79.97412, 12.98419], [79.97226, 12.98336], [79.97025, 12.98249], [79.96983, 12.98229], [79.96912, 12.98195], [79.96869, 12.98175], [79.96695, 12.98097], [79.96628, 12.98068], [79.96548, 12.98038], [79.96451, 12.98006], [79.9641, 12.97989], [79.9637, 12.97967], [79.96326, 12.97939], [79.96151, 12.97799], [79.96075, 12.97749], [79.96029, 12.9772], [79.95879, 12.97624], [79.95875, 12.97621], [79.95837, 12.97597], [79.95822, 12.97585], [79.95789, 12.97556], [79.95765, 12.9753], [79.95748, 12.97512], [79.95722, 12.97515], [79.95699, 12.9751], [79.95689, 12.97506], [79.95654, 12.97485], [79.95592, 12.97446], [79.95524, 12.97397], [79.95464, 12.97353], [79.95331, 12.97246], [79.95267, 12.97194], [79.95236, 12.97166], [79.952, 12.97136], [79.95178, 12.97113], [79.95156, 12.97087], [79.95147, 12.97072], [79.95141, 12.97058], [79.95129, 12.97021], [79.95106, 12.96958], [79.95091, 12.96925], [79.95087, 12.96902], [79.95085, 12.96866], [79.95085, 12.9686], [79.95084, 12.9686], [79.95077, 12.96781], [79.95065, 12.9672], [79.95058, 12.96707], [79.95042, 12.96704], [79.94934, 12.96712], [79.94847, 12.96714], [79.94788, 12.96713], [79.94732, 12.9671], [79.94607, 12.96701], [79.94568, 12.96696], [79.94545, 12.96693], [79.94543, 12.96633], [79.94543, 12.96629], [79.94538, 12.965], [79.94523, 12.96396], [79.94511, 12.96296], [79.94526, 12.96245], [79.94531, 12.96235], [79.94524, 12.96229], [79.94501, 12.96204], [79.94483, 12.9618], [79.94472, 12.96156], [79.9445, 12.96105], [79.94425, 12.95985], [79.9438, 12.95785], [79.94368, 12.95746], [79.94353, 12.95714], [79.94327, 12.95676], [79.94306, 12.95648], [79.94303, 12.95638], [79.94294, 12.95627], [79.94285, 12.95618], [79.94247, 12.95594], [79.94224, 12.95583], [79.94184, 12.95567], [79.94159, 12.95557], [79.94151, 12.95556], [79.94094, 12.95551], [79.94031, 12.95541], [79.93922, 12.95523], [79.93868, 12.95511], [79.93796, 12.955], [79.93689, 12.95495], [79.93608, 12.95492], [79.93574, 12.95489], [79.9354, 12.95484], [79.9352, 12.95478], [79.93475, 12.95463], [79.93421, 12.95436], [79.93299, 12.95356], [79.93198, 12.95284], [79.93065, 12.95191], [79.92871, 12.95062], [79.92816, 12.95024], [79.92808, 12.95026], [79.92755, 12.94987], [79.92691, 12.94938], [79.92641, 12.94898], [79.92546, 12.94818], [79.92487, 12.9476], [79.92433, 12.947], [79.9236, 12.94622], [79.92332, 12.94593], [79.9226, 12.94524], [79.92223, 12.94491], [79.92143, 12.94428], [79.92042, 12.94348], [79.91956, 12.94279], [79.91926, 12.94258], [79.91867, 12.94217], [79.91823, 12.94184], [79.91699, 12.9409], [79.91656, 12.94058], [79.91572, 12.93991], [79.9152, 12.9395], [79.91425, 12.93869], [79.91061, 12.93542], [79.90974, 12.9346], [79.90924, 12.93414], [79.90887, 12.93384], [79.90847, 12.93358], [79.90821, 12.93344], [79.90765, 12.93325], [79.90714, 12.93315], [79.90679, 12.93314], [79.90625, 12.93317], [79.90564, 12.93325], [79.90438, 12.93344], [79.90381, 12.93347], [79.90323, 12.93344], [79.90266, 12.93333], [79.90225, 12.93322], [79.90035, 12.93255], [79.89818, 12.93179], [79.8968, 12.93121], [79.89585, 12.93074], [79.89459, 12.93015], [79.89423, 12.92996], [79.89394, 12.92977], [79.89375, 12.92994], [79.89366, 12.92999], [79.8929, 12.92996], [79.89213, 12.92988], [79.89105, 12.92981], [79.88999, 12.92972], [79.88958, 12.92965], [79.88922, 12.92956], [79.88837, 12.92926], [79.88823, 12.9292], [79.88821, 12.92919], [79.88773, 12.92901], [79.88663, 12.92865], [79.88527, 12.9282], [79.88484, 12.92806], [79.883, 12.92737], [79.88277, 12.92729], [79.88177, 12.92681], [79.881, 12.92635], [79.88042, 12.92595], [79.87985, 12.9256], [79.87945, 12.92537]]}}]}