{"type": "FeatureCollection", "features": [{"type": "Feature", "properties": {"route_name": "121H", "stop_id": "HTcmpFUD", "name": "Kaviarasu Kannadasan Nagar Bus Stand", "city": "CHENNAI"}, "geometry": {"type": "Point", "coordinates": [80.25700447879262, 13.136187606976225]}}, {"type": "Feature", "properties": {"route_name": "121H", "stop_id": "LciqyJfg", "name": "Chinnandi Madam", "city": "CHENNAI"}, "geometry": {"type": "Point", "coordinates": [80.2555356758287, 13.1365028446204]}}, {"type": "Feature", "properties": {"route_name": "121H", "stop_id": "CorDNIJt", "name": "Muthamizh Nagar Or Ambedkar Statue", "city": "CHENNAI"}, "geometry": {"type": "Point", "coordinates": [80.25359820070912, 13.134062530676227]}}, {"type": "Feature", "properties": {"route_name": "121H", "stop_id": "dTWbWYya", "name": "Vyasarpadi Sidco", "city": "CHENNAI"}, "geometry": {"type": "Point", "coordinates": [80.2526265526567, 13.131660460041507]}}, {"type": "Feature", "properties": {"route_name": "121H", "stop_id": "ljAgYLSe", "name": "MR Nagar", "city": "CHENNAI"}, "geometry": {"type": "Point", "coordinates": [80.24995567350493, 13.130043406118007]}}, {"type": "Feature", "properties": {"route_name": "121H", "stop_id": "yjunmuoE", "name": "Pavithra Hospital", "city": "CHENNAI"}, "geometry": {"type": "Point", "coordinates": [80.24918564141035, 13.126288448511898]}}, {"type": "Feature", "properties": {"route_name": "121H", "stop_id": "IvQQZbJW", "name": "Erukancherry", "city": "CHENNAI"}, "geometry": {"type": "Point", "coordinates": [80.24706658663354, 13.124542243211769]}}, {"type": "Feature", "properties": {"route_name": "121H", "stop_id": "ztLkgYlA", "name": "Moolakadai", "city": "CHENNAI"}, "geometry": {"type": "Point", "coordinates": [80.24111584548042, 13.128998271678444]}}, {"type": "Feature", "properties": {"route_name": "121H", "stop_id": "vyQyYYqJ", "name": "Madhavaram Bus Depot", "city": "CHENNAI"}, "geometry": {"type": "Point", "coordinates": [80.23708376142258, 13.131995347649102]}}, {"type": "Feature", "properties": {"route_name": "121H", "stop_id": "fjevhefZ", "name": "Kanagachathiram", "city": "CHENNAI"}, "geometry": {"type": "Point", "coordinates": [80.23098801167419, 13.136493081143314]}}, {"type": "Feature", "properties": {"route_name": "121H", "stop_id": "AUBTKFbY", "name": "Kalpana Lamps", "city": "CHENNAI"}, "geometry": {"type": "Point", "coordinates": [80.22787715760091, 13.13880655986661]}}, {"type": "Feature", "properties": {"route_name": "121H", "stop_id": "sNuKvPuW", "name": "ACT", "city": "CHENNAI"}, "geometry": {"type": "Point", "coordinates": [80.22413163120143, 13.141461443129405]}}, {"type": "Feature", "properties": {"route_name": "121H", "stop_id": "TDvESTZN", "name": "Madhavaram Rountana", "city": "CHENNAI"}, "geometry": {"type": "Point", "coordinates": [80.22014399271438, 13.143984301637456]}}, {"type": "Feature", "properties": {"route_name": "121H", "stop_id": "hVMLOzME", "name": "Madhavaram Bypass", "city": "CHENNAI"}, "geometry": {"type": "Point", "coordinates": [80.21864907051247, 13.14048418060415]}}, {"type": "Feature", "properties": {"route_name": "121H", "stop_id": "KCMgfriT", "name": "RTO Or Kolathur Shastri Nagar", "city": "CHENNAI"}, "geometry": {"type": "Point", "coordinates": [80.21656843744097, 13.135905600959994]}}, {"type": "Feature", "properties": {"route_name": "121H", "stop_id": "qzuHypgA", "name": "Retteri Junction", "city": "CHENNAI"}, "geometry": {"type": "Point", "coordinates": [80.21356233853373, 13.129944301006555]}}, {"type": "Feature", "properties": {"route_name": "121H", "stop_id": "vXPGJwVk", "name": "Ambedkar Nagar", "city": "CHENNAI"}, "geometry": {"type": "Point", "coordinates": [80.20678926348785, 13.126023699360703]}}, {"type": "Feature", "properties": {"route_name": "121H", "stop_id": "FyIjwLBj", "name": "Senthil Nagar", "city": "CHENNAI"}, "geometry": {"type": "Point", "coordinates": [80.20255826525658, 13.123602187529706]}}, {"type": "Feature", "properties": {"route_name": "121H", "stop_id": "QUMnpJQp", "name": "Agrakaram", "city": "CHENNAI"}, "geometry": {"type": "Point", "coordinates": [80.19835768493579, 13.118201295021771]}}, {"type": "Feature", "properties": {"route_name": "121H", "stop_id": "MwLdaJul", "name": "Wheels India Road Junction", "city": "CHENNAI"}, "geometry": {"type": "Point", "coordinates": [80.19451288332948, 13.101100011575335]}}, {"type": "Feature", "properties": {"route_name": "121H", "stop_id": "ouPwTbuD", "name": "Kovarthanagiri", "city": "CHENNAI"}, "geometry": {"type": "Point", "coordinates": [80.19708338161468, 13.098715444532548]}}, {"type": "Feature", "properties": {"route_name": "121H", "stop_id": "qGnNRXVR", "name": "Anna Nagar West Depot", "city": "CHENNAI"}, "geometry": {"type": "Point", "coordinates": [80.19875925408053, 13.09401835540949]}}, {"type": "Feature", "properties": {"route_name": "121H", "stop_id": "TcEVvOUM", "name": "Thirumangalam", "city": "CHENNAI"}, "geometry": {"type": "Point", "coordinates": [80.19873013740937, 13.090757158375393]}}, {"type": "Feature", "properties": {"route_name": "121H", "stop_id": "TCqyxHhF", "name": "CPWD Quarters", "city": "CHENNAI"}, "geometry": {"type": "Point", "coordinates": [80.19871929521139, 13.082247031161224]}}, {"type": "Feature", "properties": {"route_name": "121H", "stop_id": "AszcEtOu", "name": "Koyambedu Chathiram", "city": "CHENNAI"}, "geometry": {"type": "Point", "coordinates": [80.20035161971282, 13.073937556098661]}}, {"type": "Feature", "properties": {"route_name": "121H", "stop_id": "BpAiVnps", "name": "CMBT Koyembedu Bus Depot", "city": "CHENNAI"}, "geometry": {"type": "Point", "coordinates": [80.20518932458458, 13.068981607807045]}}, {"type": "Feature", "properties": {"route_name": "121H", "stop_id": "fmQEzQWV", "name": "MMDA Colony Road Junction", "city": "CHENNAI"}, "geometry": {"type": "Point", "coordinates": [80.21126128835749, 13.06518054252823]}}, {"type": "Feature", "properties": {"route_name": "121H", "stop_id": "IubGYoNi", "name": "Thirunagar", "city": "CHENNAI"}, "geometry": {"type": "Point", "coordinates": [80.21166068, 13.05789635]}}, {"type": "Feature", "properties": {"route_name": "121H", "stop_id": "jIerKxIb", "name": "Vadapalani", "city": "CHENNAI"}, "geometry": {"type": "Point", "coordinates": [80.21239284135243, 13.047240670280491]}}, {"type": "Feature", "properties": {"route_name": "121H", "stop_id": "wDpyEsxh", "name": "Ashok Nagar Canara Bank", "city": "CHENNAI"}, "geometry": {"type": "Point", "coordinates": [80.21241378154525, 13.040150388883035]}}, {"type": "Feature", "properties": {"route_name": "121H", "stop_id": "vSdfqYeK", "name": "Ashok Pillar", "city": "CHENNAI"}, "geometry": {"type": "Point", "coordinates": [80.21208679, 13.03354348]}}, {"type": "Feature", "properties": {"route_name": "121H", "stop_id": "QdnKSSsO", "name": "KK Nagar Telephone Exchange Jaffarkhanpet", "city": "CHENNAI"}, "geometry": {"type": "Point", "coordinates": [80.20959417283757, 13.031601513770136]}}, {"type": "Feature", "properties": {"route_name": "121H", "stop_id": "oNyGHMvy", "name": "Kasi Theatre", "city": "CHENNAI"}, "geometry": {"type": "Point", "coordinates": [80.20887954, 13.02920434]}}, {"type": "Feature", "properties": {"route_name": "121H", "stop_id": "KjuJaNsu", "name": "Kalaimagal Nagar", "city": "CHENNAI"}, "geometry": {"type": "Point", "coordinates": [80.20702986, 13.02456277]}}, {"type": "Feature", "properties": {"route_name": "121H", "stop_id": "HcPkwFHM", "name": "Ekkattuthangal Or Ambal Nagar", "city": "CHENNAI"}, "geometry": {"type": "Point", "coordinates": [80.20635784175875, 13.019221472051377]}}, {"type": "Feature", "properties": {"route_name": "121H", "stop_id": "svgtEcQx", "name": "CIPET", "city": "CHENNAI"}, "geometry": {"type": "Point", "coordinates": [80.20484126, 13.01454542]}}, {"type": "Feature", "properties": {"route_name": "121H", "stop_id": "uhUmvvRs", "name": "Alandur Metro", "city": "CHENNAI"}, "geometry": {"type": "Point", "coordinates": [80.20129584, 13.00412247]}}, {"type": "Feature", "properties": {"route_name": "121H", "stop_id": "lQIpGOTn", "name": "St Thomas Mount Head Post Office", "city": "CHENNAI"}, "geometry": {"type": "Point", "coordinates": [80.1972223156829, 13.001938458082947]}}, {"type": "Feature", "properties": {"route_name": "121H", "stop_id": "lEwLedpG", "name": "Alandur", "city": "CHENNAI"}, "geometry": {"type": "Point", "coordinates": [80.1890026083795, 12.99562167829451]}}, {"type": "Feature", "properties": {"route_name": "121H", "stop_id": "ysSWNERo", "name": "Meeanambakkam International Airport", "city": "CHENNAI"}, "geometry": {"type": "Point", "coordinates": [80.17430849877292, 12.986066570693998]}}, {"type": "Feature", "properties": {"route_name": "121H", "stop_id": "jFRqfnFl", "name": "Thirusoolam National Airport", "city": "CHENNAI"}, "geometry": {"type": "Point", "coordinates": [80.16225610684478, 12.979372299463616]}}, {"type": "Feature", "properties": {"route_name": "121H", "stop_id": "qeXIqBgp", "name": "Pallavaram Bus Stand", "city": "CHENNAI"}, "geometry": {"type": "Point", "coordinates": [80.15020472965345, 12.969321927480118]}}, {"type": "Feature", "properties": {"route_name": "121H", "stop_id": "BZCtSmhk", "name": "Saravana Store Chromepet", "city": "CHENNAI"}, "geometry": {"type": "Point", "coordinates": [80.14344682, 12.95656648]}}, {"type": "Feature", "properties": {"route_name": "121H", "stop_id": "ywuGpANM", "name": "Chromepet", "city": "CHENNAI"}, "geometry": {"type": "Point", "coordinates": [80.14056159, 12.95162355]}}, {"type": "Feature", "properties": {"route_name": "121H", "stop_id": "hpACGGyB", "name": "TB Hospital", "city": "CHENNAI"}, "geometry": {"type": "Point", "coordinates": [80.13469781949811, 12.944093289066009]}}, {"type": "Feature", "properties": {"route_name": "121H", "stop_id": "eaNsVWDR", "name": "Tambaram Sanatorium Bus Stand", "city": "CHENNAI"}, "geometry": {"type": "Point", "coordinates": [80.12809022215106, 12.937055899909849]}}, {"type": "Feature", "properties": {"route_name": "121H", "stop_id": "ojqTFFWy", "name": "Tambaram West Bus Stand", "city": "CHENNAI"}, "geometry": {"type": "Point", "coordinates": [80.11862628452741, 12.927652178598898]}}, {"type": "Feature", "properties": {"name": "121H"}, "geometry": {"type": "LineString", "coordinates": [[80.25705, 13.1365], [80.25635, 13.13658], [80.25565, 13.13656], [80.25553, 13.13655], [80.25542, 13.13649], [80.25523, 13.13636], [80.255, 13.13608], [80.25464, 13.13577], [80.25436, 13.13542], [80.25401, 13.13492], [80.25386, 13.13469], [80.25366, 13.13431], [80.25357, 13.13406], [80.25348, 13.13305], [80.25342, 13.13265], [80.25331, 13.13237], [80.25325, 13.13228], [80.25306, 13.13207], [80.25303, 13.132], [80.25297, 13.13195], [80.25261, 13.13169], [80.25226, 13.13144], [80.25128, 13.13082], [80.25016, 13.13015], [80.24995, 13.13007], [80.24984, 13.13005], [80.24975, 13.13001], [80.24985, 13.12948], [80.24982, 13.12909], [80.24987, 13.12871], [80.24984, 13.12844], [80.24971, 13.12796], [80.24962, 13.12767], [80.2494, 13.12706], [80.24916, 13.12629], [80.24898, 13.12572], [80.24872, 13.1251], [80.24858, 13.12465], [80.24825, 13.12365], [80.24822, 13.1236], [80.24774, 13.12401], [80.24724, 13.12444], [80.24709, 13.12457], [80.24676, 13.12487], [80.2463, 13.12534], [80.24583, 13.12574], [80.24512, 13.12628], [80.24448, 13.12676], [80.24391, 13.12716], [80.24385, 13.12715], [80.24359, 13.12734], [80.24328, 13.12756], [80.24286, 13.12784], [80.24252, 13.12809], [80.24205, 13.12842], [80.24155, 13.12876], [80.24115, 13.12904], [80.23916, 13.1305], [80.23905, 13.1306], [80.23901, 13.1307], [80.23841, 13.13118], [80.23712, 13.13205], [80.23712, 13.13204], [80.23349, 13.13466], [80.23208, 13.13572], [80.2317, 13.13599], [80.23101, 13.13652], [80.22813, 13.13864], [80.22789, 13.13882], [80.22696, 13.1395], [80.22617, 13.14008], [80.22489, 13.14104], [80.22416, 13.14155], [80.22405, 13.14147], [80.22407, 13.14164], [80.22299, 13.14243], [80.22191, 13.1432], [80.22084, 13.14394], [80.22076, 13.14399], [80.22057, 13.14406], [80.22042, 13.14408], [80.22021, 13.14409], [80.22012, 13.144], [80.22003, 13.14387], [80.21977, 13.14336], [80.2187, 13.14089], [80.21854, 13.14053], [80.2185, 13.14046], [80.21837, 13.1403], [80.21801, 13.13943], [80.2173, 13.13777], [80.21652, 13.13592], [80.21652, 13.13593], [80.2155, 13.13356], [80.21495, 13.13226], [80.21436, 13.13101], [80.21428, 13.13083], [80.21412, 13.13062], [80.21386, 13.13026], [80.21369, 13.13007], [80.21355, 13.12996], [80.21314, 13.12964], [80.21267, 13.12936], [80.2104, 13.12806], [80.20868, 13.12711], [80.20677, 13.12606], [80.20605, 13.12561], [80.20512, 13.12511], [80.20395, 13.12442], [80.20291, 13.12385], [80.20254, 13.12364], [80.20156, 13.12311], [80.20114, 13.12283], [80.20095, 13.12267], [80.20054, 13.12225], [80.20015, 13.12171], [80.1998, 13.12111], [80.19958, 13.12063], [80.19945, 13.12027], [80.19931, 13.11999], [80.19865, 13.11891], [80.19829, 13.11823], [80.19817, 13.118], [80.19802, 13.11763], [80.19788, 13.11709], [80.19765, 13.11536], [80.19753, 13.11457], [80.19743, 13.1135], [80.19728, 13.11212], [80.19718, 13.11143], [80.1971, 13.11074], [80.19696, 13.11008], [80.19681, 13.10965], [80.19661, 13.10925], [80.19589, 13.10804], [80.19506, 13.1066], [80.19475, 13.10585], [80.19468, 13.10555], [80.19458, 13.10459], [80.19449, 13.10315], [80.19446, 13.10286], [80.19443, 13.10243], [80.19441, 13.1019], [80.19445, 13.10127], [80.19447, 13.1011], [80.19451, 13.10088], [80.19457, 13.10066], [80.19466, 13.10044], [80.19482, 13.10012], [80.19496, 13.09989], [80.19513, 13.09966], [80.19539, 13.09939], [80.19561, 13.09923], [80.19605, 13.09897], [80.1964, 13.09884], [80.19681, 13.09872], [80.19706, 13.09864], [80.19754, 13.09851], [80.19781, 13.09843], [80.1981, 13.09826], [80.19838, 13.09799], [80.19855, 13.09772], [80.19864, 13.09749], [80.19871, 13.09719], [80.19871, 13.09702], [80.19872, 13.0949], [80.19868, 13.09402], [80.19865, 13.0936], [80.19865, 13.09294], [80.19867, 13.09241], [80.19868, 13.09184], [80.19866, 13.09123], [80.19866, 13.09076], [80.19866, 13.09046], [80.19873, 13.09001], [80.19872, 13.08834], [80.19871, 13.08778], [80.19868, 13.08726], [80.19866, 13.08666], [80.19865, 13.08503], [80.19868, 13.0845], [80.19868, 13.08298], [80.19868, 13.0828], [80.19864, 13.08231], [80.19863, 13.08227], [80.19861, 13.0822], [80.19858, 13.08166], [80.19858, 13.08129], [80.19863, 13.08055], [80.19875, 13.07945], [80.19889, 13.0784], [80.19891, 13.0782], [80.19892, 13.07795], [80.19901, 13.07748], [80.19908, 13.07699], [80.19915, 13.07635], [80.19926, 13.07565], [80.1993, 13.07548], [80.19936, 13.07517], [80.19955, 13.07478], [80.19968, 13.07452], [80.19996, 13.07427], [80.20033, 13.07392], [80.20172, 13.0727], [80.20317, 13.07145], [80.20399, 13.07075], [80.20477, 13.07017], [80.20524, 13.06985], [80.20582, 13.06952], [80.20572, 13.0694], [80.2056, 13.06925], [80.20548, 13.06915], [80.20544, 13.0691], [80.20542, 13.06904], [80.20541, 13.06895], [80.20542, 13.06884], [80.20515, 13.06892], [80.20516, 13.06893], [80.20489, 13.06907], [80.20476, 13.06919], [80.20479, 13.06951], [80.20484, 13.0697], [80.20506, 13.06998], [80.20582, 13.06951], [80.20618, 13.06936], [80.20648, 13.06921], [80.207, 13.06888], [80.20722, 13.06871], [80.20769, 13.06836], [80.20832, 13.06786], [80.20895, 13.06748], [80.2093, 13.06724], [80.20959, 13.06706], [80.20987, 13.0668], [80.21051, 13.06603], [80.21116, 13.06518], [80.21118, 13.06514], [80.21119, 13.06514], [80.21153, 13.06448], [80.21166, 13.06376], [80.21172, 13.06278], [80.21173, 13.06205], [80.21165, 13.05999], [80.21158, 13.05865], [80.21157, 13.0579], [80.21152, 13.05544], [80.21153, 13.05472], [80.21155, 13.05454], [80.21201, 13.05271], [80.21202, 13.0525], [80.21213, 13.05196], [80.21214, 13.05171], [80.21212, 13.05104], [80.21206, 13.05032], [80.21204, 13.0496], [80.21207, 13.04906], [80.21214, 13.0485], [80.21229, 13.04723], [80.21235, 13.04539], [80.21235, 13.04517], [80.21238, 13.04469], [80.21239, 13.04446], [80.21236, 13.04334], [80.21235, 13.04288], [80.21236, 13.04196], [80.21237, 13.04015], [80.2124, 13.03905], [80.21239, 13.03824], [80.2124, 13.03744], [80.21235, 13.03595], [80.21229, 13.0353], [80.21224, 13.03482], [80.21208, 13.03417], [80.21198, 13.03355], [80.21176, 13.03199], [80.21174, 13.03189], [80.21119, 13.03198], [80.21018, 13.03211], [80.20967, 13.0322], [80.20962, 13.03202], [80.2095, 13.03163], [80.20881, 13.02922], [80.2087, 13.02879], [80.20855, 13.02837], [80.20836, 13.02784], [80.20807, 13.02733], [80.20767, 13.02669], [80.20734, 13.02608], [80.20714, 13.02566], [80.20691, 13.02471], [80.20688, 13.02459], [80.20665, 13.02332], [80.20648, 13.02252], [80.20642, 13.02207], [80.20643, 13.02129], [80.20642, 13.02065], [80.20638, 13.01982], [80.20634, 13.01949], [80.20628, 13.01924], [80.20586, 13.01799], [80.20517, 13.01608], [80.20468, 13.01461], [80.20467, 13.01456], [80.20467, 13.01464], [80.20451, 13.01415], [80.20408, 13.01292], [80.20379, 13.01162], [80.20368, 13.01005], [80.20371, 13.00887], [80.20374, 13.00791], [80.20362, 13.00717], [80.20325, 13.00654], [80.2025, 13.00592], [80.20188, 13.00555], [80.20158, 13.00526], [80.20144, 13.00506], [80.20111, 13.00423], [80.20109, 13.00417], [80.20089, 13.00341], [80.20075, 13.00282], [80.20057, 13.00233], [80.20045, 13.00216], [80.2003, 13.00201], [80.20005, 13.00184], [80.1998, 13.00179], [80.19944, 13.00174], [80.19913, 13.00172], [80.19894, 13.00175], [80.19825, 13.00186], [80.19731, 13.00197], [80.19722, 13.00198], [80.19722, 13.00197], [80.19695, 13.00195], [80.19667, 13.00185], [80.19634, 13.00164], [80.19601, 13.00138], [80.19587, 13.00128], [80.19529, 13.0008], [80.19448, 13.00017], [80.19371, 12.99957], [80.19294, 12.99899], [80.19214, 12.99833], [80.19203, 12.99824], [80.19137, 12.99769], [80.19021, 12.9968], [80.18967, 12.99628], [80.18935, 12.99602], [80.18893, 12.99573], [80.18798, 12.99524], [80.18744, 12.99493], [80.18736, 12.99485], [80.18725, 12.9948], [80.1868, 12.99458], [80.1852, 12.99378], [80.18294, 12.99251], [80.18227, 12.99202], [80.18087, 12.991], [80.17995, 12.99026], [80.17924, 12.98969], [80.17791, 12.98865], [80.17587, 12.98719], [80.17428, 12.9861], [80.17218, 12.98468], [80.17104, 12.98397], [80.17032, 12.98358], [80.1694, 12.98302], [80.16805, 12.9822], [80.16671, 12.98142], [80.16575, 12.98086], [80.16506, 12.9805], [80.16475, 12.98037], [80.16402, 12.98015], [80.1631, 12.97991], [80.16288, 12.97983], [80.16254, 12.97967], [80.1622, 12.97946], [80.1622, 12.97931], [80.16211, 12.9794], [80.16166, 12.9791], [80.16007, 12.97798], [80.15894, 12.97721], [80.15717, 12.97607], [80.15604, 12.97528], [80.15415, 12.97398], [80.15197, 12.97253], [80.15163, 12.97223], [80.15151, 12.9721], [80.1513, 12.97184], [80.15108, 12.97143], [80.15051, 12.97025], [80.15017, 12.96954], [80.1501, 12.96937], [80.14983, 12.96878], [80.14949, 12.96811], [80.14918, 12.9674], [80.14886, 12.96674], [80.14842, 12.96582], [80.14764, 12.96445], [80.14715, 12.96357], [80.14572, 12.96098], [80.14535, 12.96028], [80.144, 12.95773], [80.14366, 12.95707], [80.14341, 12.95658], [80.14296, 12.95575], [80.14253, 12.95492], [80.14175, 12.95349], [80.14143, 12.95292], [80.14134, 12.95278], [80.14092, 12.95225], [80.14049, 12.95167], [80.13904, 12.94979], [80.1384, 12.94908], [80.13785, 12.94834], [80.13693, 12.94704], [80.13542, 12.94508], [80.13467, 12.94411], [80.13444, 12.94384], [80.1339, 12.94326], [80.13335, 12.94267], [80.13315, 12.9425], [80.13272, 12.94208], [80.13165, 12.94106], [80.13109, 12.94047], [80.13096, 12.94032], [80.13073, 12.94013], [80.13011, 12.93946], [80.12946, 12.93873], [80.12854, 12.93766], [80.12804, 12.9371], [80.12658, 12.93545], [80.12579, 12.93455], [80.12498, 12.93371], [80.12419, 12.93294], [80.12332, 12.93211], [80.12226, 12.93105], [80.12121, 12.92994], [80.11949, 12.93022], [80.11777, 12.93052], [80.11764, 12.92929], [80.11752, 12.92836], [80.11921, 12.9282], [80.11878, 12.92777]]}}]}