{"type": "FeatureCollection", "features": [{"type": "Feature", "properties": {"route_name": "566B", "stop_id": "NKkONliL", "name": "Pattur", "city": "CHENNAI"}, "geometry": {"type": "Point", "coordinates": [80.118546, 13.023014]}}, {"type": "Feature", "properties": {"route_name": "566B", "stop_id": "VHoqrdhk", "name": "Kalamagal Nagar", "city": "CHENNAI"}, "geometry": {"type": "Point", "coordinates": [80.11483502914189, 13.025255122848868]}}, {"type": "Feature", "properties": {"route_name": "566B", "stop_id": "RkUgARot", "name": "Pattur Road Junction", "city": "CHENNAI"}, "geometry": {"type": "Point", "coordinates": [80.11087753603431, 13.026741392810939]}}, {"type": "Feature", "properties": {"route_name": "566B", "stop_id": "bYKKzRQT", "name": "Kozhumanivakkam", "city": "CHENNAI"}, "geometry": {"type": "Point", "coordinates": [80.10679870457147, 13.022356552611841]}}, {"type": "Feature", "properties": {"route_name": "566B", "stop_id": "qVxAOUMG", "name": "Muthukumaran Hospital", "city": "CHENNAI"}, "geometry": {"type": "Point", "coordinates": [80.10447488987165, 13.019845095228558]}}, {"type": "Feature", "properties": {"route_name": "566B", "stop_id": "RMvkOcpU", "name": "Sikkarayapuram", "city": "CHENNAI"}, "geometry": {"type": "Point", "coordinates": [80.10280165878635, 13.017984639206198]}}, {"type": "Feature", "properties": {"route_name": "566B", "stop_id": "neCsPoxX", "name": "Sivanthangal", "city": "CHENNAI"}, "geometry": {"type": "Point", "coordinates": [80.10240684494988, 13.012115257348473]}}, {"type": "Feature", "properties": {"route_name": "566B", "stop_id": "bkPedFyi", "name": "Kolachery", "city": "CHENNAI"}, "geometry": {"type": "Point", "coordinates": [80.10043673884002, 13.006603111970469]}}, {"type": "Feature", "properties": {"route_name": "566B", "stop_id": "CuIFmOPZ", "name": "Kundrathur Nalu Road Or Kolachery Junction", "city": "CHENNAI"}, "geometry": {"type": "Point", "coordinates": [80.09951148368782, 13.003586782897033]}}, {"type": "Feature", "properties": {"route_name": "566B", "stop_id": "MhxjGQjy", "name": "Shri Nagathaman Temple", "city": "CHENNAI"}, "geometry": {"type": "Point", "coordinates": [80.09762761733964, 13.00014673192873]}}, {"type": "Feature", "properties": {"route_name": "566B", "stop_id": "vFpuvjcu", "name": "Pillayar Kovil Or Manancheri", "city": "CHENNAI"}, "geometry": {"type": "Point", "coordinates": [80.10360216305617, 12.998044352786865]}}, {"type": "Feature", "properties": {"route_name": "566B", "stop_id": "siiqKFuN", "name": "Andakuppam", "city": "CHENNAI"}, "geometry": {"type": "Point", "coordinates": [80.11004174984168, 12.995984383067944]}}, {"type": "Feature", "properties": {"route_name": "566B", "stop_id": "sSUdZsSb", "name": "Manacherry", "city": "CHENNAI"}, "geometry": {"type": "Point", "coordinates": [80.1143932355726, 12.992646229853456]}}, {"type": "Feature", "properties": {"route_name": "566B", "stop_id": "zAqZkkQx", "name": "Karima Nagar Company", "city": "CHENNAI"}, "geometry": {"type": "Point", "coordinates": [80.11703629269334, 12.98966512449306]}}, {"type": "Feature", "properties": {"route_name": "566B", "stop_id": "ZKBLrnzS", "name": "Karima Nagar", "city": "CHENNAI"}, "geometry": {"type": "Point", "coordinates": [80.11811429828879, 12.988072399353223]}}, {"type": "Feature", "properties": {"route_name": "566B", "stop_id": "FYgdoWMK", "name": "Anakaputhur Amman Kovil", "city": "CHENNAI"}, "geometry": {"type": "Point", "coordinates": [80.12771993366164, 12.983275515215881]}}, {"type": "Feature", "properties": {"route_name": "566B", "stop_id": "DNyXiZzj", "name": "Pammal", "city": "CHENNAI"}, "geometry": {"type": "Point", "coordinates": [80.13528008832327, 12.974458672581367]}}, {"type": "Feature", "properties": {"route_name": "566B", "stop_id": "pXlenLUq", "name": "Krishna Nagar", "city": "CHENNAI"}, "geometry": {"type": "Point", "coordinates": [80.13835511886168, 12.97289655219043]}}, {"type": "Feature", "properties": {"route_name": "566B", "stop_id": "XbgiSLmy", "name": "Muthamil Nagar Pallavaram", "city": "CHENNAI"}, "geometry": {"type": "Point", "coordinates": [80.14244304020781, 12.971600972735805]}}, {"type": "Feature", "properties": {"route_name": "566B", "stop_id": "EDdQplwd", "name": "Pallavaram Aadu Thotti", "city": "CHENNAI"}, "geometry": {"type": "Point", "coordinates": [80.14499791683875, 12.970758223028511]}}, {"type": "Feature", "properties": {"route_name": "566B", "stop_id": "ffjXMuak", "name": "Pallavaram  Market", "city": "CHENNAI"}, "geometry": {"type": "Point", "coordinates": [80.14755402331355, 12.969708693108611]}}, {"type": "Feature", "properties": {"route_name": "566B", "stop_id": "qeXIqBgp", "name": "Pallavaram Bus Stand", "city": "CHENNAI"}, "geometry": {"type": "Point", "coordinates": [80.15020472965345, 12.969321927480118]}}, {"type": "Feature", "properties": {"route_name": "566B", "stop_id": "aojHvPEg", "name": "Ponds Company", "city": "CHENNAI"}, "geometry": {"type": "Point", "coordinates": [80.14615837927238, 12.961398521978591]}}, {"type": "Feature", "properties": {"route_name": "566B", "stop_id": "BZCtSmhk", "name": "Saravana Store Chromepet", "city": "CHENNAI"}, "geometry": {"type": "Point", "coordinates": [80.14344682, 12.95656648]}}, {"type": "Feature", "properties": {"route_name": "566B", "stop_id": "ywuGpANM", "name": "Chromepet", "city": "CHENNAI"}, "geometry": {"type": "Point", "coordinates": [80.14056159, 12.95162355]}}, {"type": "Feature", "properties": {"route_name": "566B", "stop_id": "hpACGGyB", "name": "TB Hospital", "city": "CHENNAI"}, "geometry": {"type": "Point", "coordinates": [80.13469781949811, 12.944093289066009]}}, {"type": "Feature", "properties": {"route_name": "566B", "stop_id": "eaNsVWDR", "name": "Tambaram Sanatorium Bus Stand", "city": "CHENNAI"}, "geometry": {"type": "Point", "coordinates": [80.12809022215106, 12.937055899909849]}}, {"type": "Feature", "properties": {"route_name": "566B", "stop_id": "CKorGRkE", "name": "Kadaperi", "city": "CHENNAI"}, "geometry": {"type": "Point", "coordinates": [80.12469723891547, 12.93337144029531]}}, {"type": "Feature", "properties": {"route_name": "566B", "stop_id": "ejMjPdTH", "name": "Tambaram West Bus Stand", "city": "CHENNAI"}, "geometry": {"type": "Point", "coordinates": [80.118864, 12.92758911]}}, {"type": "Feature", "properties": {"route_name": "566B", "stop_id": "SVPLEqNI", "name": "MR Theatre", "city": "CHENNAI"}, "geometry": {"type": "Point", "coordinates": [80.11590674666172, 12.924509468493074]}}, {"type": "Feature", "properties": {"route_name": "566B", "stop_id": "AUmOMGnp", "name": "Irumbuliyur", "city": "CHENNAI"}, "geometry": {"type": "Point", "coordinates": [80.10666718, 12.91663681]}}, {"type": "Feature", "properties": {"route_name": "566B", "stop_id": "YqlTLIQa", "name": "Perungalatgur Lake View Stop", "city": "CHENNAI"}, "geometry": {"type": "Point", "coordinates": [80.0985925050926, 12.908779320619445]}}, {"type": "Feature", "properties": {"route_name": "566B", "stop_id": "ALhaazBT", "name": "Perungalattur", "city": "CHENNAI"}, "geometry": {"type": "Point", "coordinates": [80.09644663992617, 12.906403356437842]}}, {"type": "Feature", "properties": {"route_name": "566B", "stop_id": "KgwKZlse", "name": "Iraniyamman Koil", "city": "CHENNAI"}, "geometry": {"type": "Point", "coordinates": [80.08960316901448, 12.897427677710802]}}, {"type": "Feature", "properties": {"route_name": "566B", "stop_id": "FZsFzszJ", "name": "Vandalur Gate", "city": "CHENNAI"}, "geometry": {"type": "Point", "coordinates": [80.08640892276996, 12.89311473169435]}}, {"type": "Feature", "properties": {"route_name": "566B", "stop_id": "gzTQJVMW", "name": "Vandalur Zoo", "city": "CHENNAI"}, "geometry": {"type": "Point", "coordinates": [80.0808152705822, 12.88055624912894]}}, {"type": "Feature", "properties": {"route_name": "566B", "stop_id": "vkArqzKY", "name": "Anna Nagar Colony", "city": "CHENNAI"}, "geometry": {"type": "Point", "coordinates": [80.10148457009348, 12.871584798913993]}}, {"type": "Feature", "properties": {"route_name": "566B", "stop_id": "DgYBMgPg", "name": "Kolapakkam Junction", "city": "CHENNAI"}, "geometry": {"type": "Point", "coordinates": [80.10689197174725, 12.87058401944237]}}, {"type": "Feature", "properties": {"route_name": "566B", "stop_id": "VEiYdotb", "name": "Ramanujar Engg College Or Balaji Plytechnic", "city": "CHENNAI"}, "geometry": {"type": "Point", "coordinates": [80.11550011945246, 12.867299772654789]}}, {"type": "Feature", "properties": {"route_name": "566B", "stop_id": "AhWKwjTz", "name": "Vengambakkam Road Junction", "city": "CHENNAI"}, "geometry": {"type": "Point", "coordinates": [80.12689413175224, 12.862854630633946]}}, {"type": "Feature", "properties": {"route_name": "566B", "stop_id": "LTfflVxG", "name": "Tagore Engineering College Rathinamangalam", "city": "CHENNAI"}, "geometry": {"type": "Point", "coordinates": [80.13146717312475, 12.86041259815089]}}, {"type": "Feature", "properties": {"route_name": "566B", "stop_id": "qRJySzaf", "name": "Rathinamangalam", "city": "CHENNAI"}, "geometry": {"type": "Point", "coordinates": [80.13378726942096, 12.857987455694577]}}, {"type": "Feature", "properties": {"route_name": "566B", "stop_id": "HeRuYpNs", "name": "Kandigai", "city": "CHENNAI"}, "geometry": {"type": "Point", "coordinates": [80.14059305030821, 12.850970268804538]}}, {"type": "Feature", "properties": {"route_name": "566B", "stop_id": "mRKfPREJ", "name": "Melakottaiyur", "city": "CHENNAI"}, "geometry": {"type": "Point", "coordinates": [80.1490046940105, 12.845612062570792]}}, {"type": "Feature", "properties": {"route_name": "566B", "stop_id": "wuAzVrCW", "name": "VIT University", "city": "CHENNAI"}, "geometry": {"type": "Point", "coordinates": [80.15279752488459, 12.840409916557649]}}, {"type": "Feature", "properties": {"route_name": "566B", "stop_id": "fdwLSfsa", "name": "Keelakottaiyur Or Malrosapuram", "city": "CHENNAI"}, "geometry": {"type": "Point", "coordinates": [80.15523637210435, 12.83766818203544]}}, {"type": "Feature", "properties": {"route_name": "566B", "stop_id": "cgSMZptb", "name": "Samathuvapuram", "city": "CHENNAI"}, "geometry": {"type": "Point", "coordinates": [80.15959003387309, 12.832608457558475]}}, {"type": "Feature", "properties": {"route_name": "566B", "stop_id": "lhSIyIfw", "name": "Mambakkam", "city": "CHENNAI"}, "geometry": {"type": "Point", "coordinates": [80.16502495259203, 12.827731753805125]}}, {"type": "Feature", "properties": {"route_name": "566B", "stop_id": "OeZVKJdr", "name": "Military Camp Mambakkam", "city": "CHENNAI"}, "geometry": {"type": "Point", "coordinates": [80.18628898803217, 12.808778334574654]}}, {"type": "Feature", "properties": {"route_name": "566B", "stop_id": "sPGYwoyj", "name": "Anjaneyar Temple Pudupakkam", "city": "CHENNAI"}, "geometry": {"type": "Point", "coordinates": [80.18939680179301, 12.806125229920887]}}, {"type": "Feature", "properties": {"route_name": "566B", "stop_id": "XUTqNKWc", "name": "Pudupakkam", "city": "CHENNAI"}, "geometry": {"type": "Point", "coordinates": [80.19817691305707, 12.799501704444268]}}, {"type": "Feature", "properties": {"route_name": "566B", "stop_id": "JvovwZNp", "name": "Butterfly Company", "city": "CHENNAI"}, "geometry": {"type": "Point", "coordinates": [80.2173975062276, 12.792193162709303]}}, {"type": "Feature", "properties": {"route_name": "566B", "stop_id": "zEOiVqLB", "name": "Samiyar Pannai", "city": "CHENNAI"}, "geometry": {"type": "Point", "coordinates": [80.22065344335067, 12.790317146362879]}}, {"type": "Feature", "properties": {"route_name": "566B", "stop_id": "MpBHVRZl", "name": "Kelambakkmm General Hospital", "city": "CHENNAI"}, "geometry": {"type": "Point", "coordinates": [80.22055903204091, 12.786677483168097]}}, {"type": "Feature", "properties": {"route_name": "566B", "stop_id": "yGpawgaV", "name": "Kelambakkam School", "city": "CHENNAI"}, "geometry": {"type": "Point", "coordinates": [80.2214425136774, 12.785660979514592]}}, {"type": "Feature", "properties": {"route_name": "566B", "stop_id": "JMPYaKbU", "name": "Salt Office", "city": "CHENNAI"}, "geometry": {"type": "Point", "coordinates": [80.22940409089597, 12.782181460544717]}}, {"type": "Feature", "properties": {"route_name": "566B", "stop_id": "IGRxApsM", "name": "Kovalam Kelambakam Road Junction", "city": "CHENNAI"}, "geometry": {"type": "Point", "coordinates": [80.24544519398432, 12.784077634759376]}}, {"type": "Feature", "properties": {"route_name": "566B", "stop_id": "ZNFFlclk", "name": "Kovalam Chamjarai", "city": "CHENNAI"}, "geometry": {"type": "Point", "coordinates": [80.24820390936497, 12.778887085248492]}}, {"type": "Feature", "properties": {"route_name": "566B", "stop_id": "uaUalZjh", "name": "Kovalam Bus Stand", "city": "CHENNAI"}, "geometry": {"type": "Point", "coordinates": [80.24981696737393, 12.78675363011011]}}, {"type": "Feature", "properties": {"name": "566B"}, "geometry": {"type": "LineString", "coordinates": [[80.11857, 13.02305], [80.11851, 13.0231], [80.11789, 13.02331], [80.11769, 13.0234], [80.1175, 13.02352], [80.11738, 13.02368], [80.11731, 13.02379], [80.11719, 13.02392], [80.11704, 13.024], [80.11688, 13.02406], [80.11637, 13.02408], [80.11622, 13.02411], [80.11605, 13.02418], [80.116, 13.02424], [80.11596, 13.02433], [80.11598, 13.02454], [80.11605, 13.0248], [80.11606, 13.02488], [80.11599, 13.02499], [80.11592, 13.02505], [80.11583, 13.0251], [80.11522, 13.02526], [80.11503, 13.02531], [80.11492, 13.0253], [80.11483, 13.02528], [80.11465, 13.02527], [80.11447, 13.02532], [80.11416, 13.02543], [80.11372, 13.02558], [80.11336, 13.02567], [80.11319, 13.02568], [80.11305, 13.02564], [80.1129, 13.02562], [80.11267, 13.02567], [80.11217, 13.02583], [80.11196, 13.02588], [80.11145, 13.02603], [80.11136, 13.02611], [80.11129, 13.0262], [80.11094, 13.02678], [80.11079, 13.02703], [80.11052, 13.02658], [80.11031, 13.02631], [80.10969, 13.02561], [80.10874, 13.02459], [80.10678, 13.02237], [80.10446, 13.01986], [80.10279, 13.018], [80.10267, 13.01784], [80.10266, 13.0178], [80.10265, 13.01771], [80.10273, 13.01713], [80.10294, 13.01585], [80.10306, 13.01503], [80.10305, 13.01452], [80.10302, 13.0142], [80.10288, 13.01372], [80.10271, 13.01328], [80.10249, 13.01261], [80.10238, 13.01212], [80.1022, 13.01131], [80.10193, 13.01026], [80.10169, 13.0094], [80.10155, 13.00901], [80.10132, 13.00854], [80.10078, 13.00743], [80.10067, 13.00721], [80.10062, 13.00719], [80.10059, 13.00712], [80.10044, 13.00676], [80.1004, 13.00664], [80.1004, 13.00661], [80.10035, 13.0062], [80.10031, 13.00542], [80.10027, 13.00477], [80.10024, 13.00466], [80.10019, 13.00456], [80.0999, 13.00414], [80.09948, 13.00361], [80.09943, 13.00354], [80.0994, 13.00344], [80.09934, 13.00342], [80.09921, 13.00333], [80.09891, 13.00292], [80.09859, 13.00242], [80.0981, 13.00158], [80.09794, 13.00125], [80.09782, 13.00076], [80.09771, 13.00042], [80.09755, 13.00019], [80.09742, 13.0], [80.09701, 12.99934], [80.09676, 12.99885], [80.09668, 12.99867], [80.09654, 12.99829], [80.09741, 12.99812], [80.09759, 12.99807], [80.09767, 12.99801], [80.09788, 12.99785], [80.09814, 12.99774], [80.09877, 12.99765], [80.09924, 12.99764], [80.09988, 12.9977], [80.10021, 12.9978], [80.10065, 12.998], [80.10104, 12.99811], [80.10132, 12.99829], [80.1015, 12.99848], [80.10165, 12.9986], [80.10179, 12.99867], [80.10193, 12.9987], [80.10216, 12.99869], [80.10246, 12.99863], [80.10283, 12.9985], [80.10347, 12.9981], [80.10359, 12.99803], [80.10358, 12.99802], [80.1037, 12.99794], [80.10413, 12.99787], [80.10463, 12.99777], [80.10514, 12.99762], [80.10558, 12.99754], [80.10585, 12.9975], [80.10617, 12.9974], [80.1064, 12.99726], [80.10646, 12.99721], [80.10662, 12.99716], [80.10704, 12.99699], [80.10727, 12.99693], [80.10803, 12.99671], [80.10838, 12.99657], [80.1088, 12.99634], [80.10905, 12.99623], [80.10942, 12.99612], [80.10986, 12.99601], [80.11003, 12.99595], [80.11039, 12.9958], [80.11128, 12.99528], [80.11159, 12.99505], [80.11291, 12.99379], [80.1132, 12.99355], [80.11399, 12.99298], [80.11421, 12.99279], [80.11438, 12.99263], [80.11471, 12.9923], [80.11604, 12.99085], [80.11656, 12.99023], [80.11698, 12.98963], [80.11809, 12.98805], [80.11878, 12.98717], [80.11929, 12.98647], [80.11982, 12.98608], [80.12078, 12.98538], [80.1211, 12.98521], [80.1212, 12.98515], [80.12132, 12.98503], [80.12143, 12.98487], [80.12153, 12.98472], [80.1216, 12.98464], [80.12168, 12.9846], [80.12181, 12.98462], [80.12188, 12.98465], [80.12231, 12.98495], [80.12252, 12.98502], [80.12298, 12.98508], [80.12326, 12.98507], [80.12349, 12.98504], [80.12362, 12.985], [80.12384, 12.98486], [80.12391, 12.98479], [80.12433, 12.98451], [80.12478, 12.98416], [80.12519, 12.98384], [80.12555, 12.98364], [80.12571, 12.98358], [80.12588, 12.98353], [80.12655, 12.98343], [80.12771, 12.98323], [80.12851, 12.98313], [80.12862, 12.9831], [80.12865, 12.98309], [80.12867, 12.98302], [80.1287, 12.98279], [80.12873, 12.98267], [80.1288, 12.98259], [80.12891, 12.98255], [80.12909, 12.98253], [80.12929, 12.98249], [80.12933, 12.98242], [80.12928, 12.98203], [80.1292, 12.98079], [80.12909, 12.98028], [80.12897, 12.97976], [80.12898, 12.97962], [80.12917, 12.97946], [80.12952, 12.97922], [80.12965, 12.97907], [80.12991, 12.97876], [80.13007, 12.97854], [80.13048, 12.97809], [80.13054, 12.978], [80.13054, 12.97763], [80.13058, 12.97758], [80.13065, 12.97753], [80.13071, 12.9775], [80.13102, 12.9774], [80.13151, 12.97723], [80.132, 12.97696], [80.13253, 12.97676], [80.13265, 12.9767], [80.13273, 12.9766], [80.13273, 12.97624], [80.13265, 12.97574], [80.13262, 12.97547], [80.13265, 12.97528], [80.13267, 12.97509], [80.13274, 12.97498], [80.13283, 12.97489], [80.13339, 12.9748], [80.13371, 12.97476], [80.13438, 12.97468], [80.13496, 12.97456], [80.1351, 12.97451], [80.13525, 12.97444], [80.13658, 12.97359], [80.13697, 12.97339], [80.13721, 12.97325], [80.13743, 12.97317], [80.13791, 12.97302], [80.13814, 12.97294], [80.13834, 12.97286], [80.13945, 12.97232], [80.13988, 12.97213], [80.14052, 12.97191], [80.14101, 12.97179], [80.14191, 12.97163], [80.14243, 12.97154], [80.14279, 12.97147], [80.14314, 12.97136], [80.14384, 12.97113], [80.14436, 12.97094], [80.14498, 12.97066], [80.14504, 12.9707], [80.14498, 12.97066], [80.14514, 12.97057], [80.14546, 12.9704], [80.14554, 12.97034], [80.14597, 12.96981], [80.14622, 12.97001], [80.14654, 12.97019], [80.14695, 12.97045], [80.14753, 12.96969], [80.14823, 12.96867], [80.14888, 12.96776], [80.14905, 12.96754], [80.14932, 12.96816], [80.14981, 12.96921], [80.15005, 12.96968], [80.15021, 12.96962], [80.1501, 12.96937], [80.14983, 12.96878], [80.14949, 12.96811], [80.14918, 12.9674], [80.14886, 12.96674], [80.14842, 12.96582], [80.14764, 12.96445], [80.14715, 12.96357], [80.14707, 12.96345], [80.1471, 12.96338], [80.14711, 12.96332], [80.1471, 12.96313], [80.14679, 12.96256], [80.14642, 12.96193], [80.14614, 12.96141], [80.14572, 12.96066], [80.14543, 12.96008], [80.1452, 12.95961], [80.14451, 12.95833], [80.14441, 12.95831], [80.14439, 12.95829], [80.14435, 12.95828], [80.14429, 12.95827], [80.1441, 12.95792], [80.14367, 12.9571], [80.14341, 12.95658], [80.14296, 12.95575], [80.14253, 12.95492], [80.14175, 12.95349], [80.14143, 12.95292], [80.14134, 12.95278], [80.14092, 12.95225], [80.14049, 12.95167], [80.13904, 12.94979], [80.1384, 12.94908], [80.13785, 12.94834], [80.13693, 12.94704], [80.13542, 12.94508], [80.13467, 12.94411], [80.13444, 12.94384], [80.1339, 12.94326], [80.13335, 12.94267], [80.13315, 12.9425], [80.13272, 12.94208], [80.13165, 12.94106], [80.13109, 12.94047], [80.13096, 12.94032], [80.13073, 12.94013], [80.13011, 12.93946], [80.12946, 12.93873], [80.12854, 12.93766], [80.12804, 12.9371], [80.12706, 12.93597], [80.12528, 12.93403], [80.12465, 12.93341], [80.12294, 12.93174], [80.1212, 12.92995], [80.12043, 12.92921], [80.11972, 12.92848], [80.11884, 12.92761], [80.1177, 12.92646], [80.1174, 12.92617], [80.11738, 12.92608], [80.11727, 12.9259], [80.11692, 12.92555], [80.11642, 12.92508], [80.11588, 12.92454], [80.11551, 12.9242], [80.11538, 12.92408], [80.11501, 12.92371], [80.11437, 12.92302], [80.11298, 12.92161], [80.11261, 12.92128], [80.11253, 12.92125], [80.11241, 12.92122], [80.11229, 12.92113], [80.11149, 12.92035], [80.1109, 12.91983], [80.10973, 12.91884], [80.1089, 12.91821], [80.10781, 12.91735], [80.10749, 12.91715], [80.10694, 12.91685], [80.10664, 12.91669], [80.10583, 12.91624], [80.10358, 12.91503], [80.10294, 12.91465], [80.10269, 12.91448], [80.10198, 12.91398], [80.10173, 12.91371], [80.10165, 12.91352], [80.10161, 12.91338], [80.10146, 12.91205], [80.1013, 12.91113], [80.10119, 12.91078], [80.10104, 12.91049], [80.10085, 12.91023], [80.10074, 12.91012], [80.10059, 12.91001], [80.10019, 12.9098], [80.09966, 12.90954], [80.09894, 12.90918], [80.09863, 12.90897], [80.09871, 12.90886], [80.09859, 12.90879], [80.09852, 12.90888], [80.09815, 12.9086], [80.09794, 12.9084], [80.09765, 12.9081], [80.09714, 12.90745], [80.09681, 12.90702], [80.09687, 12.90697], [80.09649, 12.90638], [80.09687, 12.90697], [80.09681, 12.90702], [80.096, 12.90597], [80.0955, 12.90534], [80.09435, 12.90383], [80.09044, 12.89866], [80.08956, 12.89746], [80.08942, 12.89728], [80.08826, 12.89573], [80.08656, 12.89346], [80.08634, 12.89316], [80.08595, 12.89262], [80.08591, 12.89258], [80.08549, 12.89196], [80.08527, 12.89158], [80.08485, 12.8906], [80.08378, 12.88807], [80.08262, 12.88522], [80.08244, 12.88486], [80.08231, 12.88459], [80.08231, 12.88446], [80.08229, 12.88422], [80.08226, 12.88409], [80.0822, 12.8839], [80.08213, 12.88366], [80.08194, 12.88321], [80.08179, 12.88286], [80.08149, 12.88211], [80.08129, 12.88159], [80.08101, 12.88094], [80.08096, 12.88089], [80.08083, 12.88057], [80.08077, 12.88057], [80.08069, 12.88026], [80.08055, 12.87989], [80.08031, 12.87918], [80.08045, 12.8791], [80.08109, 12.87888], [80.08472, 12.87757], [80.08577, 12.87713], [80.08615, 12.87692], [80.08876, 12.87513], [80.08893, 12.87503], [80.08929, 12.87485], [80.09142, 12.87403], [80.09401, 12.87308], [80.09574, 12.87245], [80.09599, 12.87236], [80.09634, 12.87226], [80.10136, 12.87159], [80.10148, 12.87157], [80.10272, 12.87136], [80.10445, 12.87104], [80.10651, 12.87063], [80.10688, 12.87055], [80.10792, 12.87031], [80.10818, 12.87022], [80.10987, 12.86956], [80.11375, 12.86794], [80.11548, 12.86726], [80.1181, 12.86622], [80.11959, 12.86563], [80.12259, 12.86448], [80.12687, 12.8628], [80.12821, 12.86226], [80.12895, 12.86199], [80.12994, 12.86158], [80.13023, 12.86144], [80.13048, 12.8613], [80.13077, 12.86108], [80.13145, 12.8604], [80.13377, 12.85797], [80.13779, 12.85377], [80.13972, 12.8518], [80.14056, 12.85094], [80.14111, 12.85038], [80.14171, 12.84975], [80.14216, 12.84933], [80.14339, 12.84854], [80.14374, 12.84833], [80.14527, 12.84743], [80.14616, 12.84693], [80.14661, 12.8467], [80.14708, 12.84654], [80.14842, 12.84618], [80.14857, 12.84612], [80.14871, 12.84604], [80.14882, 12.84592], [80.14892, 12.84576], [80.14898, 12.8456], [80.14922, 12.84489], [80.14957, 12.84399], [80.14977, 12.84361], [80.14989, 12.84345], [80.15029, 12.84301], [80.15156, 12.84165], [80.15276, 12.84037], [80.15387, 12.83919], [80.15456, 12.83849], [80.15492, 12.83811], [80.15514, 12.83779], [80.1552, 12.83765], [80.15526, 12.83752], [80.15529, 12.83745], [80.15535, 12.83704], [80.15537, 12.83683], [80.15541, 12.83663], [80.1555, 12.83636], [80.15559, 12.83622], [80.15571, 12.8361], [80.15665, 12.83525], [80.15735, 12.8346], [80.15871, 12.83339], [80.15957, 12.83259], [80.16091, 12.83141], [80.16318, 12.82937], [80.16501, 12.82771], [80.16833, 12.82469], [80.17009, 12.82312], [80.1732, 12.8203], [80.17725, 12.81662], [80.17897, 12.81508], [80.17981, 12.81431], [80.18048, 12.8137], [80.18166, 12.81269], [80.18267, 12.81181], [80.1843, 12.81044], [80.18626, 12.80875], [80.18938, 12.80611], [80.1913, 12.80436], [80.19515, 12.80163], [80.1971, 12.80026], [80.19784, 12.79971], [80.19816, 12.79948], [80.19916, 12.79884], [80.19935, 12.79873], [80.20038, 12.79825], [80.20241, 12.79738], [80.2057, 12.79592], [80.20906, 12.79448], [80.21027, 12.79396], [80.21059, 12.79386], [80.21125, 12.79369], [80.21399, 12.79307], [80.21613, 12.79259], [80.21651, 12.79251], [80.21696, 12.79238], [80.21736, 12.79222], [80.2174, 12.7922], [80.21739, 12.79218], [80.21787, 12.79194], [80.21811, 12.7918], [80.21914, 12.79118], [80.21936, 12.79106], [80.22064, 12.79029], [80.22159, 12.7897], [80.22165, 12.78967], [80.2216, 12.78953], [80.22101, 12.78791], [80.22075, 12.78718], [80.22054, 12.78668], [80.22034, 12.7862], [80.22071, 12.7862], [80.22123, 12.78621], [80.22133, 12.78619], [80.22139, 12.78611], [80.22142, 12.78566], [80.22147, 12.78513], [80.22147, 12.78478], [80.22151, 12.78458], [80.22156, 12.78449], [80.2218, 12.78436], [80.22226, 12.78417], [80.2225, 12.78405], [80.22272, 12.78398], [80.22281, 12.78397], [80.22311, 12.78396], [80.22346, 12.78392], [80.22379, 12.7837], [80.22411, 12.78347], [80.22442, 12.78333], [80.2248, 12.78321], [80.22662, 12.78271], [80.22746, 12.78247], [80.22819, 12.78234], [80.22837, 12.78234], [80.22869, 12.78242], [80.22888, 12.78241], [80.22904, 12.78234], [80.22931, 12.78217], [80.2294, 12.78216], [80.22974, 12.78218], [80.23018, 12.78229], [80.2304, 12.78237], [80.23057, 12.78248], [80.23068, 12.78261], [80.23119, 12.7834], [80.23161, 12.78402], [80.23178, 12.78416], [80.23191, 12.78419], [80.23215, 12.78417], [80.23309, 12.78406], [80.2342, 12.78394], [80.23514, 12.78392], [80.23554, 12.78392], [80.23592, 12.78389], [80.23725, 12.78376], [80.23916, 12.78371], [80.2396, 12.78372], [80.24116, 12.78411], [80.24166, 12.78422], [80.24181, 12.7842], [80.24349, 12.78385], [80.24376, 12.78381], [80.24391, 12.78381], [80.2442, 12.78389], [80.24466, 12.78409], [80.24478, 12.78416], [80.24487, 12.78426], [80.24504, 12.78449], [80.24512, 12.78471], [80.2453, 12.78434], [80.24542, 12.78407], [80.2467, 12.78165], [80.24689, 12.78131], [80.24819, 12.77888], [80.2484, 12.77849], [80.24847, 12.77858], [80.24852, 12.77871], [80.24864, 12.7795], [80.24878, 12.78054], [80.24884, 12.78083], [80.24893, 12.78111], [80.2492, 12.7818], [80.24939, 12.7823], [80.24957, 12.78292], [80.24964, 12.78331], [80.24975, 12.78401], [80.24986, 12.78471], [80.25002, 12.78579], [80.25012, 12.78669], [80.24982, 12.78671]]}}]}