{"type": "FeatureCollection", "features": [{"type": "Feature", "properties": {"route_name": "7E", "stop_id": "EkWBPXmr", "name": "Broadway", "city": "CHENNAI"}, "geometry": {"type": "Point", "coordinates": [80.28388983, 13.08820568]}}, {"type": "Feature", "properties": {"route_name": "7E", "stop_id": "zVYhNTdK", "name": "Flower Bazzar", "city": "CHENNAI"}, "geometry": {"type": "Point", "coordinates": [80.28141873, 13.08750696]}}, {"type": "Feature", "properties": {"route_name": "7E", "stop_id": "BqZQArDi", "name": "Nurse Quarters", "city": "CHENNAI"}, "geometry": {"type": "Point", "coordinates": [80.27852104691374, 13.082227452128128]}}, {"type": "Feature", "properties": {"route_name": "7E", "stop_id": "yhXmuUeN", "name": "Park Station", "city": "CHENNAI"}, "geometry": {"type": "Point", "coordinates": [80.27318907, 13.08134841]}}, {"type": "Feature", "properties": {"route_name": "7E", "stop_id": "rqBqDfoZ", "name": "Periyamedu", "city": "CHENNAI"}, "geometry": {"type": "Point", "coordinates": [80.27043776, 13.08392761]}}, {"type": "Feature", "properties": {"route_name": "7E", "stop_id": "PaLbQtln", "name": "Nehru Stadium Or Taluka Office", "city": "CHENNAI"}, "geometry": {"type": "Point", "coordinates": [80.26995180186987, 13.086992249560762]}}, {"type": "Feature", "properties": {"route_name": "7E", "stop_id": "fElpHioA", "name": "Choolai Rountana", "city": "CHENNAI"}, "geometry": {"type": "Point", "coordinates": [80.26824835564616, 13.09054972246598]}}, {"type": "Feature", "properties": {"route_name": "7E", "stop_id": "TJGhHrvm", "name": "Choolai Post Office", "city": "CHENNAI"}, "geometry": {"type": "Point", "coordinates": [80.26522608694495, 13.090048700929596]}}, {"type": "Feature", "properties": {"route_name": "7E", "stop_id": "nusTHAtB", "name": "Park Town", "city": "CHENNAI"}, "geometry": {"type": "Point", "coordinates": [80.26299993802525, 13.086672260526798]}}, {"type": "Feature", "properties": {"route_name": "7E", "stop_id": "SjZGieDS", "name": "Doveton", "city": "CHENNAI"}, "geometry": {"type": "Point", "coordinates": [80.25686663322415, 13.086440731301854]}}, {"type": "Feature", "properties": {"route_name": "7E", "stop_id": "xkdRvtRu", "name": "Purasaivakkam Tank", "city": "CHENNAI"}, "geometry": {"type": "Point", "coordinates": [80.25459983015855, 13.083658031929831]}}, {"type": "Feature", "properties": {"route_name": "7E", "stop_id": "vIqdsoZx", "name": "Alagappa Schools", "city": "CHENNAI"}, "geometry": {"type": "Point", "coordinates": [80.25412541, 13.08181132]}}, {"type": "Feature", "properties": {"route_name": "7E", "stop_id": "SqxhBMol", "name": "Motcham Aysha Hospital Or Motcham Theatre", "city": "CHENNAI"}, "geometry": {"type": "Point", "coordinates": [80.25019329, 13.08489827]}}, {"type": "Feature", "properties": {"route_name": "7E", "stop_id": "tglFZOrp", "name": "Motcham Theatre Or GRT", "city": "CHENNAI"}, "geometry": {"type": "Point", "coordinates": [80.25017613, 13.08588538]}}, {"type": "Feature", "properties": {"route_name": "7E", "stop_id": "CcTUkfkl", "name": "Abirami Theatre", "city": "CHENNAI"}, "geometry": {"type": "Point", "coordinates": [80.24658786, 13.08566542]}}, {"type": "Feature", "properties": {"route_name": "7E", "stop_id": "rClMLArS", "name": "Mummy Daddy", "city": "CHENNAI"}, "geometry": {"type": "Point", "coordinates": [80.24210986170579, 13.082555818433256]}}, {"type": "Feature", "properties": {"route_name": "7E", "stop_id": "mZseJHmU", "name": "Kilpauk Garden", "city": "CHENNAI"}, "geometry": {"type": "Point", "coordinates": [80.2336526381124, 13.082292772129653]}}, {"type": "Feature", "properties": {"route_name": "7E", "stop_id": "qKDzyFqg", "name": "Bala Vihar", "city": "CHENNAI"}, "geometry": {"type": "Point", "coordinates": [80.23145374, 13.08246222]}}, {"type": "Feature", "properties": {"route_name": "7E", "stop_id": "JYcdyiOK", "name": "Chinthamani", "city": "CHENNAI"}, "geometry": {"type": "Point", "coordinates": [80.2241888, 13.08479839]}}, {"type": "Feature", "properties": {"route_name": "7E", "stop_id": "lklhFYFG", "name": "Anna Nagar Roundtana", "city": "CHENNAI"}, "geometry": {"type": "Point", "coordinates": [80.21710444985945, 13.084544151387918]}}, {"type": "Feature", "properties": {"route_name": "7E", "stop_id": "ftMGYADA", "name": "Blue Star", "city": "CHENNAI"}, "geometry": {"type": "Point", "coordinates": [80.21092927116388, 13.084782531421304]}}, {"type": "Feature", "properties": {"route_name": "7E", "stop_id": "WPBOglHu", "name": "12th Main Road", "city": "CHENNAI"}, "geometry": {"type": "Point", "coordinates": [80.20462823, 13.08507769]}}, {"type": "Feature", "properties": {"route_name": "7E", "stop_id": "vRWSdFEN", "name": "Thirumangalam EB Office", "city": "CHENNAI"}, "geometry": {"type": "Point", "coordinates": [80.19794592, 13.08707865]}}, {"type": "Feature", "properties": {"route_name": "7E", "stop_id": "DLdtTvFi", "name": "Collector Nagar", "city": "CHENNAI"}, "geometry": {"type": "Point", "coordinates": [80.18884348902577, 13.08772386821446]}}, {"type": "Feature", "properties": {"route_name": "7E", "stop_id": "cCSIoIah", "name": "T S Krishna Nagar", "city": "CHENNAI"}, "geometry": {"type": "Point", "coordinates": [80.18344281496502, 13.08797497867028]}}, {"type": "Feature", "properties": {"route_name": "7E", "stop_id": "gViLrCgA", "name": "Golden Flats", "city": "CHENNAI"}, "geometry": {"type": "Point", "coordinates": [80.17801898, 13.08817217]}}, {"type": "Feature", "properties": {"route_name": "7E", "stop_id": "iPwZOomy", "name": "Vijaya Bank", "city": "CHENNAI"}, "geometry": {"type": "Point", "coordinates": [80.17498286537027, 13.083725632862302]}}, {"type": "Feature", "properties": {"route_name": "7E", "stop_id": "iezkylgj", "name": "J J Nagar West Terminus", "city": "CHENNAI"}, "geometry": {"type": "Point", "coordinates": [80.17053761437046, 13.082959867280708]}}, {"type": "Feature", "properties": {"route_name": "7E", "stop_id": "NioHjTzW", "name": "M G R Salai", "city": "CHENNAI"}, "geometry": {"type": "Point", "coordinates": [80.16979198777449, 13.08535235900378]}}, {"type": "Feature", "properties": {"route_name": "7E", "stop_id": "VcqDmTtv", "name": "Mogaipair Road Junction", "city": "CHENNAI"}, "geometry": {"type": "Point", "coordinates": [80.16949222685514, 13.08861499726557]}}, {"type": "Feature", "properties": {"route_name": "7E", "stop_id": "paIawFeA", "name": "Ambattur IT Park", "city": "CHENNAI"}, "geometry": {"type": "Point", "coordinates": [80.16979835769462, 13.094888835352753]}}, {"type": "Feature", "properties": {"route_name": "7E", "stop_id": "nIakFMcq", "name": "Ambattur Industrial Estate", "city": "CHENNAI"}, "geometry": {"type": "Point", "coordinates": [80.17001037707382, 13.099481120194556]}}, {"type": "Feature", "properties": {"name": "7E"}, "geometry": {"type": "LineString", "coordinates": [[80.28388, 13.08836], [80.28347, 13.08833], [80.28291, 13.08832], [80.28261, 13.08833], [80.28227, 13.08828], [80.28204, 13.08823], [80.28184, 13.08815], [80.28156, 13.08799], [80.28153, 13.08794], [80.28145, 13.08769], [80.2814, 13.08751], [80.28095, 13.08603], [80.28087, 13.08583], [80.28083, 13.08578], [80.28076, 13.08575], [80.28024, 13.0856], [80.27982, 13.08551], [80.27957, 13.08537], [80.27943, 13.08516], [80.27937, 13.08497], [80.27928, 13.08459], [80.27914, 13.08376], [80.27898, 13.08332], [80.27883, 13.08295], [80.27864, 13.08243], [80.27856, 13.08221], [80.27852, 13.08209], [80.27838, 13.08209], [80.27796, 13.08201], [80.27646, 13.08176], [80.27619, 13.08171], [80.27554, 13.08162], [80.27517, 13.08159], [80.27452, 13.08155], [80.27431, 13.08154], [80.27381, 13.0815], [80.27337, 13.08142], [80.27324, 13.0814], [80.27319, 13.08135], [80.27301, 13.08126], [80.27289, 13.08125], [80.27273, 13.08126], [80.27266, 13.08128], [80.2721, 13.08119], [80.27157, 13.08107], [80.271, 13.08091], [80.27094, 13.08088], [80.2709, 13.08098], [80.27077, 13.08184], [80.27068, 13.08269], [80.27057, 13.08347], [80.27049, 13.08394], [80.27044, 13.08395], [80.27049, 13.08394], [80.27042, 13.08428], [80.27036, 13.08459], [80.27029, 13.08498], [80.2703, 13.0852], [80.27024, 13.08551], [80.27018, 13.086], [80.27018, 13.0865], [80.27015, 13.08668], [80.26998, 13.08701], [80.26978, 13.08741], [80.26973, 13.08753], [80.2697, 13.08767], [80.26973, 13.08827], [80.26985, 13.09], [80.26985, 13.09018], [80.26983, 13.09028], [80.26981, 13.09033], [80.26971, 13.09045], [80.26959, 13.09054], [80.26949, 13.09058], [80.26946, 13.09058], [80.2694, 13.09059], [80.26935, 13.09063], [80.26934, 13.09065], [80.26925, 13.09065], [80.26908, 13.09066], [80.26887, 13.09062], [80.26825, 13.09057], [80.26643, 13.09043], [80.26619, 13.09041], [80.26542, 13.09023], [80.26527, 13.09017], [80.26518, 13.09008], [80.26497, 13.08982], [80.26447, 13.08941], [80.26371, 13.0888], [80.26341, 13.08841], [80.26329, 13.08825], [80.26302, 13.08723], [80.26297, 13.08667], [80.26295, 13.08643], [80.26287, 13.08571], [80.26259, 13.08566], [80.26229, 13.08574], [80.2622, 13.08577], [80.26172, 13.08609], [80.26147, 13.08621], [80.26133, 13.08625], [80.26115, 13.08632], [80.26091, 13.08652], [80.26066, 13.08671], [80.26053, 13.0867], [80.25993, 13.08676], [80.25883, 13.08688], [80.25848, 13.08689], [80.25825, 13.08685], [80.25794, 13.08676], [80.25709, 13.08654], [80.25687, 13.08646], [80.2565, 13.08634], [80.25637, 13.08631], [80.25632, 13.0863], [80.25629, 13.08631], [80.25593, 13.08618], [80.25472, 13.08571], [80.25469, 13.08567], [80.25465, 13.08556], [80.25459, 13.08475], [80.25454, 13.08403], [80.25452, 13.08371], [80.2546, 13.0837], [80.25452, 13.08371], [80.25449, 13.08336], [80.25444, 13.08229], [80.25439, 13.08202], [80.25435, 13.08196], [80.25425, 13.08188], [80.25417, 13.08184], [80.25413, 13.08184], [80.25385, 13.0819], [80.25355, 13.08193], [80.25329, 13.08194], [80.25316, 13.08191], [80.25296, 13.08184], [80.25276, 13.08174], [80.25221, 13.08145], [80.2521, 13.08143], [80.25191, 13.08142], [80.25105, 13.08141], [80.25097, 13.08136], [80.25059, 13.08135], [80.24999, 13.08134], [80.24973, 13.08137], [80.24967, 13.08144], [80.24966, 13.0815], [80.24969, 13.08175], [80.24971, 13.08196], [80.24969, 13.08201], [80.2498, 13.08242], [80.24991, 13.08317], [80.25005, 13.08387], [80.25024, 13.08489], [80.25039, 13.0859], [80.25018, 13.0859], [80.2488, 13.08584], [80.24784, 13.08579], [80.24658, 13.08573], [80.2456, 13.08565], [80.24529, 13.08565], [80.2452, 13.08543], [80.2446, 13.08429], [80.24412, 13.08332], [80.24384, 13.0827], [80.24373, 13.08244], [80.24368, 13.08239], [80.24345, 13.08227], [80.24291, 13.08242], [80.24212, 13.08261], [80.24169, 13.08272], [80.2412, 13.0829], [80.24104, 13.08301], [80.24074, 13.08327], [80.24046, 13.08347], [80.24015, 13.08355], [80.23992, 13.08359], [80.23954, 13.08363], [80.23914, 13.08357], [80.23854, 13.0834], [80.23797, 13.08345], [80.23715, 13.08356], [80.2367, 13.08362], [80.23635, 13.08363], [80.23586, 13.08364], [80.23489, 13.08362], [80.23415, 13.08357], [80.23399, 13.08355], [80.23392, 13.08352], [80.2338, 13.08333], [80.23372, 13.08293], [80.23359, 13.0823], [80.23357, 13.08215], [80.23355, 13.08198], [80.23307, 13.08203], [80.23282, 13.08209], [80.23257, 13.08215], [80.23179, 13.0824], [80.23148, 13.08252], [80.231, 13.08274], [80.23062, 13.08289], [80.23021, 13.08305], [80.22999, 13.08308], [80.22951, 13.08307], [80.22853, 13.08301], [80.22819, 13.08302], [80.22764, 13.08303], [80.22743, 13.08303], [80.22695, 13.0831], [80.22632, 13.08315], [80.22592, 13.08317], [80.22565, 13.08322], [80.22549, 13.0833], [80.22547, 13.08328], [80.22544, 13.08327], [80.22539, 13.08328], [80.22537, 13.08329], [80.2248, 13.08408], [80.22422, 13.08484], [80.224, 13.08514], [80.22305, 13.08452], [80.22292, 13.08444], [80.22278, 13.08443], [80.22064, 13.0845], [80.22019, 13.08452], [80.21894, 13.08458], [80.2186, 13.0846], [80.21824, 13.08456], [80.21803, 13.08454], [80.21802, 13.08453], [80.21799, 13.0845], [80.2179, 13.08447], [80.21782, 13.0845], [80.21775, 13.08456], [80.21711, 13.08462], [80.21093, 13.08487], [80.20993, 13.0849], [80.20725, 13.08501], [80.20602, 13.08508], [80.20463, 13.08513], [80.20341, 13.08518], [80.20292, 13.08517], [80.20037, 13.08527], [80.19916, 13.08533], [80.19865, 13.08534], [80.19844, 13.08534], [80.19844, 13.08544], [80.19844, 13.08596], [80.19846, 13.08693], [80.19845, 13.08713], [80.19795, 13.08715], [80.19627, 13.08722], [80.195, 13.08724], [80.19402, 13.08729], [80.1929, 13.08732], [80.19234, 13.08737], [80.18959, 13.08774], [80.18885, 13.08778], [80.18755, 13.08782], [80.18634, 13.08787], [80.18607, 13.08791], [80.1853, 13.08793], [80.1844, 13.08797], [80.18344, 13.088], [80.18057, 13.08815], [80.17802, 13.0882], [80.17722, 13.08821], [80.17722, 13.08801], [80.17722, 13.08748], [80.1772, 13.08733], [80.17716, 13.08717], [80.17708, 13.08696], [80.17695, 13.08677], [80.17668, 13.08664], [80.17646, 13.08659], [80.17618, 13.08656], [80.17605, 13.08655], [80.1756, 13.0865], [80.17519, 13.08643], [80.17464, 13.08636], [80.17462, 13.08632], [80.1746, 13.08623], [80.17458, 13.0861], [80.17458, 13.08551], [80.17464, 13.08503], [80.1747, 13.08492], [80.17472, 13.08484], [80.17481, 13.08438], [80.17495, 13.08372], [80.17433, 13.08367], [80.17398, 13.08367], [80.17344, 13.08355], [80.17245, 13.08325], [80.17218, 13.08318], [80.17205, 13.0831], [80.17106, 13.08281], [80.17065, 13.08269], [80.17057, 13.08297], [80.16983, 13.08536], [80.16944, 13.08665], [80.16942, 13.08679], [80.16943, 13.0873], [80.16951, 13.08854], [80.16952, 13.08861], [80.16968, 13.09154], [80.16986, 13.09424], [80.16989, 13.09469], [80.16986, 13.09478], [80.16987, 13.09489], [80.16999, 13.09717], [80.17003, 13.09789], [80.17005, 13.09884], [80.17006, 13.09948]]}}]}