{"type": "FeatureCollection", "features": [{"type": "Feature", "properties": {"route_name": "552K", "stop_id": "mAREpQlu", "name": "Thiruporur Bus Stand", "city": "CHENNAI"}, "geometry": {"type": "Point", "coordinates": [80.18725535471185, 12.722137179764035]}}, {"type": "Feature", "properties": {"route_name": "552K", "stop_id": "pkAaqtnD", "name": "Kandhaswami Temple Tank Thiruporur", "city": "CHENNAI"}, "geometry": {"type": "Point", "coordinates": [80.18789604034373, 12.724598357742186]}}, {"type": "Feature", "properties": {"route_name": "552K", "stop_id": "HJijptKA", "name": "Thiruporur Kovil", "city": "CHENNAI"}, "geometry": {"type": "Point", "coordinates": [80.18895353175196, 12.729914446503047]}}, {"type": "Feature", "properties": {"route_name": "552K", "stop_id": "lRwzpFEA", "name": "Thiruporur Or Kannagapattu", "city": "CHENNAI"}, "geometry": {"type": "Point", "coordinates": [80.19038615893464, 12.736224572940568]}}, {"type": "Feature", "properties": {"route_name": "552K", "stop_id": "EWoqQawU", "name": "Kalavakkam", "city": "CHENNAI"}, "geometry": {"type": "Point", "coordinates": [80.19727762935008, 12.741861009717345]}}, {"type": "Feature", "properties": {"route_name": "552K", "stop_id": "tnRCfdJr", "name": "Kalavakkam School", "city": "CHENNAI"}, "geometry": {"type": "Point", "coordinates": [80.20025127119561, 12.744334781934427]}}, {"type": "Feature", "properties": {"route_name": "552K", "stop_id": "LlpMjrks", "name": "SSN College", "city": "CHENNAI"}, "geometry": {"type": "Point", "coordinates": [80.20411860503397, 12.751436949935604]}}, {"type": "Feature", "properties": {"route_name": "552K", "stop_id": "oeTroIck", "name": "Koman Nagar Road Junction", "city": "CHENNAI"}, "geometry": {"type": "Point", "coordinates": [80.20719366361891, 12.75696238963906]}}, {"type": "Feature", "properties": {"route_name": "552K", "stop_id": "BsovYeFI", "name": "Vijaya Shanthi Lotus Pond", "city": "CHENNAI"}, "geometry": {"type": "Point", "coordinates": [80.2088683625085, 12.760142566383951]}}, {"type": "Feature", "properties": {"route_name": "552K", "stop_id": "azqUKhQu", "name": "Chenganmal Road Junction", "city": "CHENNAI"}, "geometry": {"type": "Point", "coordinates": [80.2130667848553, 12.770894116705879]}}, {"type": "Feature", "properties": {"route_name": "552K", "stop_id": "hvwrhWFk", "name": "Elavanthangal", "city": "CHENNAI"}, "geometry": {"type": "Point", "coordinates": [80.21723455470939, 12.780641000718918]}}, {"type": "Feature", "properties": {"route_name": "552K", "stop_id": "uxBjVsKf", "name": "Kelambakkmm Police Station", "city": "CHENNAI"}, "geometry": {"type": "Point", "coordinates": [80.21990367384092, 12.785399610431222]}}, {"type": "Feature", "properties": {"route_name": "552K", "stop_id": "ngtiheSM", "name": "Kelambakkmm General Hospital", "city": "CHENNAI"}, "geometry": {"type": "Point", "coordinates": [80.22043933846362, 12.786694812130275]}}, {"type": "Feature", "properties": {"route_name": "552K", "stop_id": "rPcYYZtd", "name": "AP Super Market", "city": "CHENNAI"}, "geometry": {"type": "Point", "coordinates": [80.22132770552253, 12.789027384331868]}}, {"type": "Feature", "properties": {"route_name": "552K", "stop_id": "bzkCWXwV", "name": "Chettinad Hospital", "city": "CHENNAI"}, "geometry": {"type": "Point", "coordinates": [80.2228130055016, 12.795946845148737]}}, {"type": "Feature", "properties": {"route_name": "552K", "stop_id": "aEhaaulL", "name": "Hindustan College", "city": "CHENNAI"}, "geometry": {"type": "Point", "coordinates": [80.22351492279154, 12.801378939055358]}}, {"type": "Feature", "properties": {"route_name": "552K", "stop_id": "syNMMSsu", "name": "Padur", "city": "CHENNAI"}, "geometry": {"type": "Point", "coordinates": [80.22406912062661, 12.805495364581848]}}, {"type": "Feature", "properties": {"route_name": "552K", "stop_id": "nermFKBU", "name": "Akshaya Padur", "city": "CHENNAI"}, "geometry": {"type": "Point", "coordinates": [80.22794594651066, 12.811019888178407]}}, {"type": "Feature", "properties": {"route_name": "552K", "stop_id": "eHBdrFbQ", "name": "Kazhipattur", "city": "CHENNAI"}, "geometry": {"type": "Point", "coordinates": [80.2303923928731, 12.819641442911562]}}, {"type": "Feature", "properties": {"route_name": "552K", "stop_id": "AQHsowCO", "name": "Vaniyanchavadi Padma Adarsh School", "city": "CHENNAI"}, "geometry": {"type": "Point", "coordinates": [80.23128127090364, 12.826347836413337]}}, {"type": "Feature", "properties": {"route_name": "552K", "stop_id": "oLzlCKof", "name": "IT Park Siruseri Or Muttukadu", "city": "CHENNAI"}, "geometry": {"type": "Point", "coordinates": [80.22873179927922, 12.833150500179274]}}, {"type": "Feature", "properties": {"route_name": "552K", "stop_id": "QxkHLGuk", "name": "Navallur", "city": "CHENNAI"}, "geometry": {"type": "Point", "coordinates": [80.22643294554973, 12.844722701975323]}}, {"type": "Feature", "properties": {"route_name": "552K", "stop_id": "MlXQVZuf", "name": "AGS Complex Navalur", "city": "CHENNAI"}, "geometry": {"type": "Point", "coordinates": [80.22641201043257, 12.850397437266455]}}, {"type": "Feature", "properties": {"route_name": "552K", "stop_id": "VHmQaoRO", "name": "Semmancheri", "city": "CHENNAI"}, "geometry": {"type": "Point", "coordinates": [80.22640137469716, 12.861658751682949]}}, {"type": "Feature", "properties": {"route_name": "552K", "stop_id": "kbNsckqG", "name": "Satyabhama University", "city": "CHENNAI"}, "geometry": {"type": "Point", "coordinates": [80.22641348472621, 12.871049493792462]}}, {"type": "Feature", "properties": {"route_name": "552K", "stop_id": "qQJgvOFz", "name": "Kumaran Nagar", "city": "CHENNAI"}, "geometry": {"type": "Point", "coordinates": [80.22664666211551, 12.87764362828838]}}, {"type": "Feature", "properties": {"route_name": "552K", "stop_id": "oRUBDfuD", "name": "Ponniamman Kovil", "city": "CHENNAI"}, "geometry": {"type": "Point", "coordinates": [80.22668805211401, 12.886070391143019]}}, {"type": "Feature", "properties": {"route_name": "552K", "stop_id": "nunLDRbE", "name": "Government School Sholinganallur", "city": "CHENNAI"}, "geometry": {"type": "Point", "coordinates": [80.22740828807878, 12.894547209831996]}}, {"type": "Feature", "properties": {"route_name": "552K", "stop_id": "deapEAbC", "name": "Sholinganallur", "city": "CHENNAI"}, "geometry": {"type": "Point", "coordinates": [80.22767726599693, 12.899912649167579]}}, {"type": "Feature", "properties": {"route_name": "552K", "stop_id": "BMDeXhVp", "name": "HCL Company", "city": "CHENNAI"}, "geometry": {"type": "Point", "coordinates": [80.21825826322174, 12.901606636370014]}}, {"type": "Feature", "properties": {"route_name": "552K", "stop_id": "RchOKnYD", "name": "Global Hospital", "city": "CHENNAI"}, "geometry": {"type": "Point", "coordinates": [80.20801933292091, 12.905339416156119]}}, {"type": "Feature", "properties": {"route_name": "552K", "stop_id": "JZbiEaEt", "name": "Bharathi Vidyalaya", "city": "CHENNAI"}, "geometry": {"type": "Point", "coordinates": [80.2019175573671, 12.907473728058768]}}, {"type": "Feature", "properties": {"route_name": "552K", "stop_id": "LsuNFzpq", "name": "Perumbakkam", "city": "CHENNAI"}, "geometry": {"type": "Point", "coordinates": [80.19887966709041, 12.907649955704613]}}, {"type": "Feature", "properties": {"route_name": "552K", "stop_id": "kVCEAUTv", "name": "Pallavan Nagar", "city": "CHENNAI"}, "geometry": {"type": "Point", "coordinates": [80.19619733627133, 12.910885931747881]}}, {"type": "Feature", "properties": {"route_name": "552K", "stop_id": "dHuMOmqh", "name": "Medavakkam Junction", "city": "CHENNAI"}, "geometry": {"type": "Point", "coordinates": [80.19285620789992, 12.916974279647274]}}, {"type": "Feature", "properties": {"route_name": "552K", "stop_id": "LDSuadxM", "name": "Medavakkam Koot Road", "city": "CHENNAI"}, "geometry": {"type": "Point", "coordinates": [80.18506928718648, 12.920436910102584]}}, {"type": "Feature", "properties": {"route_name": "552K", "stop_id": "vCxCuCVD", "name": "Vellaikal", "city": "CHENNAI"}, "geometry": {"type": "Point", "coordinates": [80.18150693472114, 12.93160235630512]}}, {"type": "Feature", "properties": {"route_name": "552K", "stop_id": "ysAqwwWP", "name": "Vadakkupattu", "city": "CHENNAI"}, "geometry": {"type": "Point", "coordinates": [80.18226259459323, 12.93507769076748]}}, {"type": "Feature", "properties": {"route_name": "552K", "stop_id": "qOusBBOu", "name": "Kovilambakkam", "city": "CHENNAI"}, "geometry": {"type": "Point", "coordinates": [80.18234107997591, 12.939135447577806]}}, {"type": "Feature", "properties": {"route_name": "552K", "stop_id": "qXMrbZDt", "name": "Veeramani Nagar", "city": "CHENNAI"}, "geometry": {"type": "Point", "coordinates": [80.18289689402445, 12.944786570502494]}}, {"type": "Feature", "properties": {"route_name": "552K", "stop_id": "rxopZurY", "name": "Echankadu", "city": "CHENNAI"}, "geometry": {"type": "Point", "coordinates": [80.18407956114129, 12.947037001156344]}}, {"type": "Feature", "properties": {"route_name": "552K", "stop_id": "GJDHvjGI", "name": "Eachangadu Junction", "city": "CHENNAI"}, "geometry": {"type": "Point", "coordinates": [80.18519633015399, 12.949019705652795]}}, {"type": "Feature", "properties": {"route_name": "552K", "stop_id": "IQMouIyu", "name": "Kilkattalai", "city": "CHENNAI"}, "geometry": {"type": "Point", "coordinates": [80.18657977595082, 12.955992800706689]}}, {"type": "Feature", "properties": {"name": "552K"}, "geometry": {"type": "LineString", "coordinates": [[80.18728, 12.72213], [80.18775, 12.72387], [80.18786, 12.72431], [80.18791, 12.7246], [80.18801, 12.72514], [80.18817, 12.72624], [80.18836, 12.7271], [80.18854, 12.72782], [80.18869, 12.72815], [80.18882, 12.7286], [80.18892, 12.72895], [80.18891, 12.72928], [80.18894, 12.72974], [80.18894, 12.7299], [80.189, 12.73037], [80.18911, 12.73093], [80.18915, 12.73153], [80.18927, 12.73215], [80.18938, 12.73274], [80.18937, 12.73288], [80.18941, 12.73308], [80.1895, 12.73421], [80.18953, 12.73456], [80.1896, 12.73493], [80.18969, 12.73527], [80.18975, 12.73548], [80.18988, 12.7357], [80.18997, 12.7358], [80.19006, 12.7359], [80.19032, 12.73618], [80.19038, 12.73623], [80.19128, 12.73713], [80.19226, 12.73813], [80.19286, 12.73862], [80.19422, 12.73962], [80.19648, 12.74124], [80.19731, 12.74182], [80.19762, 12.74204], [80.19818, 12.74249], [80.19991, 12.744], [80.20026, 12.74432], [80.20042, 12.74447], [80.20076, 12.74484], [80.20099, 12.74518], [80.2012, 12.74555], [80.2019, 12.74689], [80.20318, 12.74947], [80.20384, 12.75082], [80.2041, 12.75137], [80.20414, 12.75143], [80.20566, 12.75426], [80.20719, 12.7569], [80.20721, 12.75695], [80.20888, 12.76013], [80.20945, 12.76112], [80.21025, 12.76296], [80.21037, 12.76327], [80.21052, 12.76378], [80.21116, 12.76554], [80.21215, 12.76827], [80.21309, 12.77088], [80.2131, 12.77088], [80.21383, 12.77292], [80.21503, 12.77598], [80.21556, 12.77719], [80.2159, 12.77804], [80.2166, 12.77943], [80.21724, 12.78061], [80.21725, 12.78063], [80.21858, 12.7831], [80.21881, 12.78344], [80.21898, 12.78371], [80.21944, 12.78459], [80.21953, 12.78473], [80.21991, 12.78538], [80.22011, 12.78576], [80.2202, 12.78607], [80.22028, 12.78623], [80.22046, 12.78669], [80.22065, 12.78717], [80.22094, 12.78794], [80.22135, 12.78902], [80.22166, 12.78992], [80.22187, 12.79079], [80.22224, 12.79227], [80.22236, 12.79289], [80.22253, 12.79412], [80.22283, 12.79594], [80.22313, 12.79747], [80.22321, 12.79811], [80.2235, 12.80117], [80.22354, 12.80144], [80.22355, 12.80146], [80.22364, 12.80244], [80.22376, 12.80326], [80.22383, 12.8039], [80.22388, 12.80412], [80.22393, 12.8049], [80.22399, 12.80524], [80.22408, 12.80549], [80.22416, 12.80566], [80.22422, 12.80575], [80.22558, 12.80735], [80.22595, 12.8078], [80.22639, 12.8083], [80.22646, 12.80839], [80.22651, 12.80841], [80.22652, 12.80842], [80.22673, 12.80887], [80.22736, 12.80997], [80.22786, 12.81081], [80.22797, 12.81101], [80.22819, 12.81155], [80.22834, 12.81197], [80.22882, 12.8135], [80.22912, 12.81443], [80.22923, 12.81533], [80.22934, 12.81607], [80.2295, 12.81699], [80.22969, 12.81752], [80.23011, 12.81831], [80.23041, 12.81889], [80.23043, 12.81898], [80.23042, 12.81943], [80.23041, 12.81965], [80.23038, 12.82061], [80.2304, 12.82125], [80.23046, 12.82175], [80.2306, 12.82234], [80.23089, 12.82327], [80.2311, 12.82404], [80.23125, 12.82465], [80.23133, 12.82513], [80.23134, 12.8255], [80.23131, 12.82621], [80.2313, 12.82636], [80.23124, 12.82688], [80.23116, 12.82716], [80.23101, 12.82749], [80.23044, 12.8285], [80.23014, 12.82909], [80.2293, 12.83121], [80.22908, 12.83192], [80.22899, 12.83195], [80.22896, 12.83205], [80.22881, 12.83279], [80.22875, 12.83315], [80.22865, 12.83378], [80.22873, 12.8338], [80.2286, 12.83451], [80.22853, 12.83493], [80.22844, 12.83548], [80.22833, 12.83637], [80.22814, 12.83743], [80.22802, 12.83814], [80.22783, 12.83889], [80.22754, 12.84], [80.22744, 12.84035], [80.2274, 12.84036], [80.22733, 12.84044], [80.22719, 12.84091], [80.22692, 12.84197], [80.2268, 12.84247], [80.22667, 12.84315], [80.22654, 12.84395], [80.22646, 12.84459], [80.22645, 12.84472], [80.22643, 12.84557], [80.22642, 12.84592], [80.2265, 12.84592], [80.22652, 12.84687], [80.2265, 12.84866], [80.2265, 12.84933], [80.2264, 12.84933], [80.2264, 12.8496], [80.22642, 12.85026], [80.22643, 12.85041], [80.22648, 12.85171], [80.2265, 12.85237], [80.22659, 12.85237], [80.2266, 12.85284], [80.22661, 12.85293], [80.2266, 12.85318], [80.22651, 12.85432], [80.22624, 12.85691], [80.22617, 12.85765], [80.22617, 12.85825], [80.22629, 12.85939], [80.22647, 12.86082], [80.2264, 12.86082], [80.22641, 12.86112], [80.22642, 12.8616], [80.22641, 12.86166], [80.22639, 12.86207], [80.22637, 12.86249], [80.22644, 12.86249], [80.22642, 12.8629], [80.22643, 12.86367], [80.22651, 12.86488], [80.22651, 12.86566], [80.22649, 12.86623], [80.22647, 12.86651], [80.22632, 12.86795], [80.22629, 12.86842], [80.22633, 12.86893], [80.22642, 12.86963], [80.22647, 12.87013], [80.2264, 12.87016], [80.2264, 12.8703], [80.22641, 12.87054], [80.22643, 12.87105], [80.22648, 12.87174], [80.2265, 12.87282], [80.2265, 12.87298], [80.22656, 12.87298], [80.22659, 12.87298], [80.22658, 12.87312], [80.22659, 12.87365], [80.22678, 12.87496], [80.22684, 12.87552], [80.22686, 12.87605], [80.22687, 12.8765], [80.22677, 12.87648], [80.22677, 12.87655], [80.22672, 12.87713], [80.22666, 12.87759], [80.22666, 12.87764], [80.22663, 12.87833], [80.22674, 12.87834], [80.22672, 12.87854], [80.22667, 12.87913], [80.22663, 12.88076], [80.22662, 12.8841], [80.22662, 12.88507], [80.22664, 12.88526], [80.22657, 12.8853], [80.22662, 12.88559], [80.2267, 12.88606], [80.2267, 12.88607], [80.22682, 12.88651], [80.22704, 12.88752], [80.22709, 12.88798], [80.22715, 12.88886], [80.22717, 12.89108], [80.22722, 12.89242], [80.22728, 12.89315], [80.22737, 12.8939], [80.22742, 12.89455], [80.22747, 12.89512], [80.22748, 12.89549], [80.22757, 12.89548], [80.22761, 12.89643], [80.22763, 12.89708], [80.2277, 12.8983], [80.22771, 12.89866], [80.2276, 12.89866], [80.22769, 12.89991], [80.22774, 12.90022], [80.22775, 12.90025], [80.22781, 12.90028], [80.22781, 12.90039], [80.22783, 12.90068], [80.22776, 12.90081], [80.22769, 12.90089], [80.22765, 12.90093], [80.2271, 12.90095], [80.22673, 12.90096], [80.2251, 12.90101], [80.22356, 12.90107], [80.22317, 12.90108], [80.22222, 12.90115], [80.22116, 12.90129], [80.22013, 12.9014], [80.21882, 12.90158], [80.21831, 12.90165], [80.21826, 12.90166], [80.21731, 12.90178], [80.21689, 12.9019], [80.21602, 12.90221], [80.2148, 12.90269], [80.21448, 12.90281], [80.21215, 12.90373], [80.20982, 12.90466], [80.20873, 12.9051], [80.20804, 12.90539], [80.20536, 12.9065], [80.20499, 12.90671], [80.20444, 12.9071], [80.20411, 12.90724], [80.20371, 12.90733], [80.20311, 12.90744], [80.20192, 12.90751], [80.19888, 12.9077], [80.19868, 12.90772], [80.1986, 12.90776], [80.19849, 12.90783], [80.19835, 12.90799], [80.19734, 12.90943], [80.19674, 12.91028], [80.19626, 12.91093], [80.19587, 12.91144], [80.19538, 12.91217], [80.19522, 12.91246], [80.1951, 12.91265], [80.19502, 12.91289], [80.19484, 12.91364], [80.19454, 12.91507], [80.1944, 12.91566], [80.19431, 12.91622], [80.19419, 12.91687], [80.19409, 12.91707], [80.19387, 12.91704], [80.19357, 12.91704], [80.19294, 12.91709], [80.19293, 12.91697], [80.19294, 12.91709], [80.1927, 12.9171], [80.19258, 12.91711], [80.1923, 12.91713], [80.19206, 12.91719], [80.19182, 12.91721], [80.19101, 12.9173], [80.19029, 12.91737], [80.18957, 12.91754], [80.18906, 12.91778], [80.1881, 12.91847], [80.18787, 12.91868], [80.18735, 12.9192], [80.18632, 12.92007], [80.186, 12.92031], [80.18587, 12.92038], [80.1857, 12.92045], [80.18549, 12.92046], [80.18522, 12.92047], [80.18507, 12.92045], [80.18402, 12.92024], [80.18394, 12.92056], [80.18386, 12.92075], [80.18341, 12.92193], [80.18313, 12.92271], [80.18307, 12.923], [80.18297, 12.92366], [80.18278, 12.92459], [80.18265, 12.92547], [80.18256, 12.92606], [80.18243, 12.92663], [80.18188, 12.92908], [80.1816, 12.93018], [80.18153, 12.93037], [80.18146, 12.93064], [80.18144, 12.93082], [80.18145, 12.93105], [80.18153, 12.93154], [80.18154, 12.9316], [80.18161, 12.93204], [80.18171, 12.93255], [80.18182, 12.93312], [80.18217, 12.93457], [80.18229, 12.93508], [80.18232, 12.93544], [80.18225, 12.9361], [80.18218, 12.93673], [80.18218, 12.93776], [80.18223, 12.93834], [80.18226, 12.93861], [80.18236, 12.93911], [80.18237, 12.93913], [80.1825, 12.93962], [80.18263, 12.9401], [80.18267, 12.94053], [80.18269, 12.94134], [80.18283, 12.94222], [80.18288, 12.94272], [80.1829, 12.94379], [80.18295, 12.94478], [80.18298, 12.94538], [80.183, 12.9455], [80.18306, 12.94565], [80.18338, 12.94606], [80.18365, 12.9464], [80.18412, 12.94701], [80.18496, 12.94845], [80.18512, 12.94909], [80.18565, 12.95051], [80.18625, 12.95236], [80.1865, 12.95396], [80.18687, 12.95611]]}}]}