{"type": "FeatureCollection", "features": [{"type": "Feature", "properties": {"route_name": "S3X", "stop_id": "JUAQxUwM", "name": "Chromepet ESI", "city": "CHENNAI"}, "geometry": {"type": "Point", "coordinates": [80.14389810038143, 12.957445586039878]}}, {"type": "Feature", "properties": {"route_name": "S3X", "stop_id": "ywuGpANM", "name": "Chromepet", "city": "CHENNAI"}, "geometry": {"type": "Point", "coordinates": [80.14056159, 12.95162355]}}, {"type": "Feature", "properties": {"route_name": "S3X", "stop_id": "VgUdLlOW", "name": "MIT Gate", "city": "CHENNAI"}, "geometry": {"type": "Point", "coordinates": [80.13701978537733, 12.947061243115431]}}, {"type": "Feature", "properties": {"route_name": "S3X", "stop_id": "hpACGGyB", "name": "TB Hospital", "city": "CHENNAI"}, "geometry": {"type": "Point", "coordinates": [80.13469781949811, 12.944093289066009]}}, {"type": "Feature", "properties": {"route_name": "S3X", "stop_id": "xzbhGFLT", "name": "Sanatorium", "city": "CHENNAI"}, "geometry": {"type": "Point", "coordinates": [80.13312405280506, 12.942447697707]}}, {"type": "Feature", "properties": {"route_name": "S3X", "stop_id": "cuTvfhPc", "name": "Tambaram Sanatorium Railway Station", "city": "CHENNAI"}, "geometry": {"type": "Point", "coordinates": [80.13303229387793, 12.938114993611766]}}, {"type": "Feature", "properties": {"route_name": "S3X", "stop_id": "MXoQTTgS", "name": "Varadharaja Theatre", "city": "CHENNAI"}, "geometry": {"type": "Point", "coordinates": [80.13866062481964, 12.937374533630559]}}, {"type": "Feature", "properties": {"route_name": "S3X", "stop_id": "mUdmCgFz", "name": "Sithalapakkam Erikarai", "city": "CHENNAI"}, "geometry": {"type": "Point", "coordinates": [80.13802732649485, 12.933214620265169]}}, {"type": "Feature", "properties": {"route_name": "S3X", "stop_id": "kuMppCGL", "name": "NSN School", "city": "CHENNAI"}, "geometry": {"type": "Point", "coordinates": [80.13939168586053, 12.931852157390134]}}, {"type": "Feature", "properties": {"route_name": "S3X", "stop_id": "hWpwapxD", "name": "Bampan Salai", "city": "CHENNAI"}, "geometry": {"type": "Point", "coordinates": [80.14228103022322, 12.930880732687362]}}, {"type": "Feature", "properties": {"route_name": "S3X", "stop_id": "NvAVSExF", "name": "Babu Road Junction", "city": "CHENNAI"}, "geometry": {"type": "Point", "coordinates": [80.14802367891284, 12.929876040125983]}}, {"type": "Feature", "properties": {"route_name": "S3X", "stop_id": "LhQSpAzy", "name": "Mahalakshmi Nagar", "city": "CHENNAI"}, "geometry": {"type": "Point", "coordinates": [80.14726512966445, 12.922705274965574]}}, {"type": "Feature", "properties": {"route_name": "S3X", "stop_id": "ajCBPuBp", "name": "Rajakilpakkam", "city": "CHENNAI"}, "geometry": {"type": "Point", "coordinates": [80.15186954085152, 12.92264826906369]}}, {"type": "Feature", "properties": {"route_name": "S3X", "stop_id": "OqBnJDkE", "name": "Madambakkam Anna Nagar", "city": "CHENNAI"}, "geometry": {"type": "Point", "coordinates": [80.15939606411484, 12.906732926960615]}}, {"type": "Feature", "properties": {"route_name": "S3X", "stop_id": "CsZszdUY", "name": "Kozhi Pannai", "city": "CHENNAI"}, "geometry": {"type": "Point", "coordinates": [80.1585641954872, 12.903291731540472]}}, {"type": "Feature", "properties": {"route_name": "S3X", "stop_id": "fGCuvnjJ", "name": "Madambakkam EB", "city": "CHENNAI"}, "geometry": {"type": "Point", "coordinates": [80.16159386317076, 12.900795496183363]}}, {"type": "Feature", "properties": {"route_name": "S3X", "stop_id": "xjlhzjUh", "name": "Madambakkam Koil", "city": "CHENNAI"}, "geometry": {"type": "Point", "coordinates": [80.16164989554409, 12.898638004255094]}}, {"type": "Feature", "properties": {"route_name": "S3X", "stop_id": "mTKelVZs", "name": "Noothencheri", "city": "CHENNAI"}, "geometry": {"type": "Point", "coordinates": [80.16714430620982, 12.897828634194829]}}, {"type": "Feature", "properties": {"route_name": "S3X", "stop_id": "gKNaWgzA", "name": "Manickam Nagar Or MLA Office", "city": "CHENNAI"}, "geometry": {"type": "Point", "coordinates": [80.1690963894406, 12.897603519531431]}}, {"type": "Feature", "properties": {"route_name": "S3X", "stop_id": "ngHHCDQb", "name": "Noothancheri Cross Road", "city": "CHENNAI"}, "geometry": {"type": "Point", "coordinates": [80.17368779548065, 12.895617043969537]}}, {"type": "Feature", "properties": {"name": "S3X"}, "geometry": {"type": "LineString", "coordinates": [[80.14385, 12.95747], [80.14356, 12.95685], [80.14296, 12.95575], [80.14253, 12.95492], [80.14175, 12.95349], [80.14143, 12.95292], [80.14134, 12.95278], [80.14092, 12.95225], [80.14049, 12.95167], [80.13904, 12.94979], [80.13868, 12.9494], [80.13869, 12.94938], [80.13869, 12.94932], [80.13867, 12.94926], [80.13844, 12.94898], [80.13778, 12.94811], [80.13726, 12.94737], [80.13703, 12.94709], [80.13703, 12.94704], [80.13699, 12.94694], [80.13692, 12.9469], [80.13658, 12.94644], [80.13526, 12.94474], [80.13506, 12.94455], [80.135, 12.94452], [80.13494, 12.94447], [80.13467, 12.94411], [80.13444, 12.94384], [80.1339, 12.94326], [80.13335, 12.94267], [80.13318, 12.94252], [80.13311, 12.94246], [80.13224, 12.94162], [80.13146, 12.94087], [80.13096, 12.94032], [80.13073, 12.94013], [80.13047, 12.93986], [80.12986, 12.93919], [80.12834, 12.93743], [80.12848, 12.93734], [80.12896, 12.93713], [80.13032, 12.93655], [80.13068, 12.9364], [80.13097, 12.93626], [80.13116, 12.93624], [80.13129, 12.93627], [80.13139, 12.93633], [80.13155, 12.9365], [80.13195, 12.937], [80.13229, 12.9374], [80.13269, 12.93794], [80.13281, 12.93805], [80.13294, 12.93808], [80.133, 12.93809], [80.13303, 12.93809], [80.13436, 12.93784], [80.13479, 12.93777], [80.13501, 12.93771], [80.13599, 12.9376], [80.13734, 12.93745], [80.13822, 12.93736], [80.13866, 12.93732], [80.13886, 12.93736], [80.13897, 12.93705], [80.13893, 12.93696], [80.13885, 12.93686], [80.13868, 12.93673], [80.13848, 12.93653], [80.13839, 12.9364], [80.1383, 12.93621], [80.13827, 12.936], [80.1383, 12.93575], [80.13828, 12.93516], [80.13826, 12.9348], [80.13824, 12.93461], [80.13825, 12.93447], [80.13828, 12.93419], [80.13826, 12.93396], [80.13814, 12.93367], [80.13789, 12.93321], [80.13803, 12.9332], [80.13789, 12.93321], [80.13781, 12.93306], [80.13765, 12.93269], [80.13757, 12.93243], [80.13753, 12.93202], [80.13933, 12.93163], [80.13937, 12.93186], [80.13933, 12.93163], [80.13962, 12.93155], [80.14016, 12.93146], [80.14065, 12.9314], [80.14103, 12.93136], [80.14229, 12.93114], [80.14231, 12.93114], [80.14228, 12.93099], [80.14227, 12.93088], [80.14222, 12.93059], [80.14297, 12.93048], [80.1435, 12.9304], [80.14416, 12.93033], [80.14552, 12.93017], [80.1463, 12.93006], [80.14799, 12.92987], [80.14802, 12.92987], [80.14827, 12.92985], [80.14826, 12.92974], [80.14813, 12.92934], [80.14792, 12.92878], [80.14786, 12.92853], [80.14784, 12.92814], [80.1478, 12.92794], [80.14807, 12.92786], [80.14795, 12.92724], [80.14788, 12.92675], [80.14759, 12.92461], [80.14753, 12.92405], [80.14749, 12.92352], [80.14744, 12.9226], [80.1467, 12.92258], [80.14578, 12.92257], [80.14497, 12.92252], [80.14405, 12.9225], [80.14298, 12.92247], [80.14298, 12.92255], [80.14348, 12.92256], [80.14383, 12.92257], [80.14592, 12.92265], [80.14727, 12.92268], [80.14824, 12.92267], [80.14859, 12.92266], [80.14907, 12.92269], [80.14935, 12.92271], [80.15023, 12.92274], [80.15181, 12.92279], [80.15184, 12.92264], [80.15214, 12.92123], [80.15219, 12.92072], [80.15224, 12.91969], [80.15228, 12.91914], [80.1523, 12.91858], [80.15227, 12.91806], [80.15223, 12.91753], [80.15221, 12.91724], [80.15223, 12.91681], [80.1522, 12.91648], [80.15217, 12.91617], [80.15214, 12.9157], [80.15214, 12.91566], [80.15225, 12.91556], [80.15229, 12.91552], [80.15278, 12.91529], [80.15307, 12.91512], [80.15378, 12.91467], [80.15449, 12.91422], [80.15463, 12.91408], [80.15475, 12.91395], [80.15483, 12.91379], [80.15525, 12.91304], [80.15558, 12.91243], [80.15609, 12.91151], [80.15661, 12.91046], [80.1569, 12.90997], [80.15715, 12.90947], [80.15726, 12.90914], [80.15728, 12.90849], [80.15727, 12.90758], [80.1573, 12.9075], [80.15735, 12.90746], [80.15742, 12.90744], [80.15776, 12.90741], [80.15902, 12.9073], [80.15923, 12.90721], [80.15936, 12.90707], [80.15939, 12.90698], [80.15939, 12.90681], [80.15938, 12.90673], [80.15933, 12.9064], [80.15893, 12.90489], [80.15873, 12.90409], [80.15852, 12.9033], [80.1583, 12.9022], [80.15822, 12.90167], [80.15816, 12.90108], [80.15817, 12.901], [80.15824, 12.90087], [80.15837, 12.90084], [80.15865, 12.90083], [80.16002, 12.90086], [80.16098, 12.90092], [80.16136, 12.90093], [80.16147, 12.90086], [80.1615, 12.90078], [80.16158, 12.89922], [80.16164, 12.89864], [80.16167, 12.89837], [80.1617, 12.89829], [80.16174, 12.89826], [80.16181, 12.89823], [80.16198, 12.89822], [80.16254, 12.89819], [80.16363, 12.89808], [80.16473, 12.898], [80.16517, 12.89797], [80.16613, 12.89786], [80.16715, 12.89779], [80.16831, 12.89768], [80.16889, 12.89762], [80.16907, 12.89755], [80.17006, 12.89721], [80.17084, 12.89694], [80.17144, 12.89676], [80.17226, 12.89636], [80.17238, 12.89629], [80.17284, 12.89603], [80.17293, 12.89599], [80.17367, 12.89559]]}}]}