{"type": "FeatureCollection", "features": [{"type": "Feature", "properties": {"route_name": "S80", "stop_id": "lqbzfeGA", "name": "Kamakshi Amman Temple", "city": "CHENNAI"}, "geometry": {"type": "Point", "coordinates": [80.11906195337292, 12.972235355818425]}}, {"type": "Feature", "properties": {"route_name": "S80", "stop_id": "MPxbDKyu", "name": "Kamarajapuram Bus Stand", "city": "CHENNAI"}, "geometry": {"type": "Point", "coordinates": [80.12189976604884, 12.970835328146313]}}, {"type": "Feature", "properties": {"route_name": "S80", "stop_id": "obgmJQzi", "name": "Shri Bhavani Amman Koil", "city": "CHENNAI"}, "geometry": {"type": "Point", "coordinates": [80.1289703420232, 12.973060308003449]}}, {"type": "Feature", "properties": {"route_name": "S80", "stop_id": "rEicsBoS", "name": "Pammal Sankar Nagar", "city": "CHENNAI"}, "geometry": {"type": "Point", "coordinates": [80.13298904397789, 12.974905350380185]}}, {"type": "Feature", "properties": {"route_name": "S80", "stop_id": "DNyXiZzj", "name": "Pammal", "city": "CHENNAI"}, "geometry": {"type": "Point", "coordinates": [80.13528008832327, 12.974458672581367]}}, {"type": "Feature", "properties": {"route_name": "S80", "stop_id": "pXlenLUq", "name": "Krishna Nagar", "city": "CHENNAI"}, "geometry": {"type": "Point", "coordinates": [80.13835511886168, 12.97289655219043]}}, {"type": "Feature", "properties": {"route_name": "S80", "stop_id": "XbgiSLmy", "name": "Muthamil Nagar Pallavaram", "city": "CHENNAI"}, "geometry": {"type": "Point", "coordinates": [80.14244304020781, 12.971600972735805]}}, {"type": "Feature", "properties": {"route_name": "S80", "stop_id": "EDdQplwd", "name": "Pallavaram Aadu Thotti", "city": "CHENNAI"}, "geometry": {"type": "Point", "coordinates": [80.14499791683875, 12.970758223028511]}}, {"type": "Feature", "properties": {"route_name": "S80", "stop_id": "ffjXMuak", "name": "Pallavaram  Market", "city": "CHENNAI"}, "geometry": {"type": "Point", "coordinates": [80.14755402331355, 12.969708693108611]}}, {"type": "Feature", "properties": {"route_name": "S80", "stop_id": "qeXIqBgp", "name": "Pallavaram Bus Stand", "city": "CHENNAI"}, "geometry": {"type": "Point", "coordinates": [80.15020472965345, 12.969321927480118]}}, {"type": "Feature", "properties": {"route_name": "S80", "stop_id": "aojHvPEg", "name": "Ponds Company", "city": "CHENNAI"}, "geometry": {"type": "Point", "coordinates": [80.14615837927238, 12.961398521978591]}}, {"type": "Feature", "properties": {"route_name": "S80", "stop_id": "BZCtSmhk", "name": "Saravana Store Chromepet", "city": "CHENNAI"}, "geometry": {"type": "Point", "coordinates": [80.14344682, 12.95656648]}}, {"type": "Feature", "properties": {"route_name": "S80", "stop_id": "ywuGpANM", "name": "Chromepet", "city": "CHENNAI"}, "geometry": {"type": "Point", "coordinates": [80.14056159, 12.95162355]}}, {"type": "Feature", "properties": {"route_name": "S80", "stop_id": "VgUdLlOW", "name": "MIT Gate", "city": "CHENNAI"}, "geometry": {"type": "Point", "coordinates": [80.13701978537733, 12.947061243115431]}}, {"type": "Feature", "properties": {"route_name": "S80", "stop_id": "hpACGGyB", "name": "TB Hospital", "city": "CHENNAI"}, "geometry": {"type": "Point", "coordinates": [80.13469781949811, 12.944093289066009]}}, {"type": "Feature", "properties": {"route_name": "S80", "stop_id": "eaNsVWDR", "name": "Tambaram Sanatorium Bus Stand", "city": "CHENNAI"}, "geometry": {"type": "Point", "coordinates": [80.12809022215106, 12.937055899909849]}}, {"type": "Feature", "properties": {"name": "S80"}, "geometry": {"type": "LineString", "coordinates": [[80.11904, 12.97224], [80.11914, 12.97264], [80.12017, 12.97238], [80.12052, 12.97227], [80.12117, 12.97213], [80.12111, 12.97181], [80.12098, 12.9715], [80.12091, 12.97146], [80.12082, 12.97134], [80.12076, 12.97119], [80.12121, 12.97106], [80.12124, 12.97104], [80.12127, 12.97101], [80.12188, 12.97086], [80.12207, 12.97127], [80.12227, 12.97163], [80.12254, 12.97195], [80.12278, 12.97216], [80.12305, 12.97228], [80.12321, 12.97231], [80.12362, 12.97241], [80.12391, 12.97255], [80.12433, 12.97281], [80.1251, 12.97337], [80.12573, 12.97374], [80.12591, 12.97384], [80.12635, 12.9739], [80.12665, 12.97386], [80.12691, 12.97379], [80.12713, 12.97372], [80.1273, 12.97363], [80.12742, 12.97362], [80.12795, 12.97346], [80.12822, 12.97341], [80.12837, 12.97337], [80.12848, 12.97332], [80.12875, 12.97313], [80.12889, 12.97303], [80.12895, 12.97303], [80.12898, 12.97304], [80.12905, 12.97308], [80.12944, 12.97332], [80.12962, 12.97342], [80.12992, 12.9734], [80.1301, 12.97339], [80.13015, 12.97341], [80.13024, 12.97351], [80.13037, 12.97357], [80.13128, 12.97365], [80.13164, 12.97376], [80.13178, 12.97382], [80.13187, 12.9739], [80.13202, 12.9741], [80.13206, 12.97417], [80.13218, 12.97456], [80.13226, 12.97469], [80.13233, 12.97474], [80.13242, 12.97477], [80.13283, 12.97489], [80.13299, 12.97488], [80.13372, 12.97479], [80.13438, 12.97468], [80.13496, 12.97456], [80.1351, 12.97451], [80.13525, 12.97444], [80.13608, 12.97392], [80.13659, 12.97361], [80.13697, 12.97339], [80.13721, 12.97325], [80.13743, 12.97317], [80.13791, 12.97302], [80.13814, 12.97294], [80.13834, 12.97286], [80.13945, 12.97232], [80.13988, 12.97213], [80.14052, 12.97191], [80.14101, 12.97179], [80.14191, 12.97163], [80.14242, 12.97153], [80.14331, 12.97129], [80.14378, 12.97113], [80.14415, 12.971], [80.14496, 12.97067], [80.145, 12.97065], [80.14536, 12.97046], [80.14551, 12.97037], [80.14575, 12.97015], [80.14605, 12.96981], [80.14626, 12.97001], [80.14654, 12.97019], [80.14697, 12.97047], [80.14753, 12.96969], [80.14759, 12.9696], [80.14787, 12.9698], [80.1481, 12.96996], [80.14926, 12.97072], [80.14983, 12.97111], [80.15116, 12.97203], [80.15118, 12.97203], [80.1512, 12.97202], [80.15139, 12.97197], [80.15131, 12.97184], [80.15125, 12.97173], [80.15086, 12.97097], [80.15026, 12.96972], [80.1501, 12.96937], [80.14983, 12.96878], [80.1493, 12.96767], [80.14906, 12.96707], [80.14871, 12.96633], [80.14821, 12.9654], [80.14779, 12.96458], [80.14756, 12.96423], [80.14712, 12.96342], [80.14711, 12.96329], [80.1471, 12.96313], [80.14689, 12.96276], [80.14667, 12.96237], [80.14624, 12.9616], [80.14614, 12.96141], [80.14572, 12.96066], [80.14539, 12.95998], [80.14451, 12.95833], [80.14441, 12.95829], [80.14438, 12.95827], [80.14432, 12.95826], [80.14415, 12.95791], [80.14393, 12.95753], [80.14359, 12.95684], [80.14344, 12.95657], [80.14277, 12.9554], [80.14221, 12.95431], [80.14198, 12.95388], [80.14161, 12.95321], [80.14142, 12.95291], [80.14096, 12.95229], [80.14049, 12.95167], [80.13904, 12.94979], [80.13868, 12.9494], [80.13869, 12.94938], [80.13869, 12.94932], [80.13867, 12.94926], [80.13844, 12.94898], [80.13796, 12.94835], [80.13736, 12.94752], [80.13703, 12.94709], [80.13703, 12.94704], [80.13699, 12.94694], [80.13692, 12.9469], [80.13658, 12.94644], [80.13526, 12.94474], [80.13506, 12.94455], [80.135, 12.94452], [80.13494, 12.94447], [80.13467, 12.94411], [80.13444, 12.94384], [80.1339, 12.94326], [80.13335, 12.94267], [80.13318, 12.94252], [80.13272, 12.94208], [80.13165, 12.94106], [80.13109, 12.94047], [80.13096, 12.94032], [80.13073, 12.94013], [80.13011, 12.93946], [80.12946, 12.93873], [80.12854, 12.93766], [80.12804, 12.9371]]}}]}