{"type": "FeatureCollection", "features": [{"type": "Feature", "properties": {"route_name": "65G", "stop_id": "ogOCBKAf", "name": "Avadi Terminal", "city": "CHENNAI"}, "geometry": {"type": "Point", "coordinates": [80.10204658205703, 13.120113061821396]}}, {"type": "Feature", "properties": {"route_name": "65G", "stop_id": "SGnJOquj", "name": "Avadi Check Post", "city": "CHENNAI"}, "geometry": {"type": "Point", "coordinates": [80.09600735955496, 13.119400208957218]}}, {"type": "Feature", "properties": {"route_name": "65G", "stop_id": "ZOuLYtJj", "name": "Kavarapalayam", "city": "CHENNAI"}, "geometry": {"type": "Point", "coordinates": [80.0862265496803, 13.118734304116337]}}, {"type": "Feature", "properties": {"route_name": "65G", "stop_id": "dZoxKDmD", "name": "Sekkadu", "city": "CHENNAI"}, "geometry": {"type": "Point", "coordinates": [80.07960858809611, 13.119261962312038]}}, {"type": "Feature", "properties": {"route_name": "65G", "stop_id": "FoxIDeQY", "name": "Hindu College", "city": "CHENNAI"}, "geometry": {"type": "Point", "coordinates": [80.07380072796752, 13.119134716103817]}}, {"type": "Feature", "properties": {"route_name": "65G", "stop_id": "PHuvYJrP", "name": "Vao Office", "city": "CHENNAI"}, "geometry": {"type": "Point", "coordinates": [80.06758647829963, 13.120150243171528]}}, {"type": "Feature", "properties": {"route_name": "65G", "stop_id": "ngNzeSzC", "name": "Pattabiram", "city": "CHENNAI"}, "geometry": {"type": "Point", "coordinates": [80.06492902234822, 13.120903523352926]}}, {"type": "Feature", "properties": {"route_name": "65G", "stop_id": "alaJPSTW", "name": "Thandurai", "city": "CHENNAI"}, "geometry": {"type": "Point", "coordinates": [80.06329329447749, 13.115859142835808]}}, {"type": "Feature", "properties": {"route_name": "65G", "stop_id": "pGpZhRvq", "name": "Thandurai Palla Street", "city": "CHENNAI"}, "geometry": {"type": "Point", "coordinates": [80.06240435858967, 13.112791959203504]}}, {"type": "Feature", "properties": {"route_name": "65G", "stop_id": "XeinAhyy", "name": "Thandurai Pond", "city": "CHENNAI"}, "geometry": {"type": "Point", "coordinates": [80.06100447515723, 13.109560611563278]}}, {"type": "Feature", "properties": {"route_name": "65G", "stop_id": "MlYFoaez", "name": "Annaikattucherry", "city": "CHENNAI"}, "geometry": {"type": "Point", "coordinates": [80.05845381605809, 13.104757902200447]}}, {"type": "Feature", "properties": {"route_name": "65G", "stop_id": "UXEWVZzP", "name": "Amudurmedu", "city": "CHENNAI"}, "geometry": {"type": "Point", "coordinates": [80.05798091027339, 13.10033161222955]}}, {"type": "Feature", "properties": {"route_name": "65G", "stop_id": "clVXMHJf", "name": "JJ Nagar Thandurai", "city": "CHENNAI"}, "geometry": {"type": "Point", "coordinates": [80.05776869161127, 13.096293499413978]}}, {"type": "Feature", "properties": {"route_name": "65G", "stop_id": "suvDbtPR", "name": "Sitharkadu Bypass", "city": "CHENNAI"}, "geometry": {"type": "Point", "coordinates": [80.0575862586636, 13.089361401111729]}}, {"type": "Feature", "properties": {"route_name": "65G", "stop_id": "ZFKsyBay", "name": "Nemilicheri", "city": "CHENNAI"}, "geometry": {"type": "Point", "coordinates": [80.05059689197697, 13.124389240530567]}}, {"type": "Feature", "properties": {"route_name": "65G", "stop_id": "UvdLYolu", "name": "Jaya College", "city": "CHENNAI"}, "geometry": {"type": "Point", "coordinates": [80.0435902668437, 13.124951589893337]}}, {"type": "Feature", "properties": {"route_name": "65G", "stop_id": "BmQLYaPd", "name": "Pandi Rice Mill", "city": "CHENNAI"}, "geometry": {"type": "Point", "coordinates": [80.0371640703213, 13.125485395265349]}}, {"type": "Feature", "properties": {"route_name": "65G", "stop_id": "TIlepZYr", "name": "Thiruninravur", "city": "CHENNAI"}, "geometry": {"type": "Point", "coordinates": [80.03240937452915, 13.124589695205566]}}, {"type": "Feature", "properties": {"route_name": "65G", "stop_id": "acVCzwtl", "name": "Sri Lakshmi Theatre", "city": "CHENNAI"}, "geometry": {"type": "Point", "coordinates": [80.03099624038737, 13.126344320866348]}}, {"type": "Feature", "properties": {"route_name": "65G", "stop_id": "WlZgmutc", "name": "Nadukuthagai", "city": "CHENNAI"}, "geometry": {"type": "Point", "coordinates": [80.03517837312938, 13.129975080910626]}}, {"type": "Feature", "properties": {"route_name": "65G", "stop_id": "QYkjMXrW", "name": "Natthamedu", "city": "CHENNAI"}, "geometry": {"type": "Point", "coordinates": [80.03650733412678, 13.133402467510956]}}, {"type": "Feature", "properties": {"route_name": "65G", "stop_id": "sKtQEUzZ", "name": "Balaji Nagar Thirunindravoor", "city": "CHENNAI"}, "geometry": {"type": "Point", "coordinates": [80.03868257396073, 13.138382587189971]}}, {"type": "Feature", "properties": {"route_name": "65G", "stop_id": "QHulIYnO", "name": "Nashik Nagar", "city": "CHENNAI"}, "geometry": {"type": "Point", "coordinates": [80.03792972277404, 13.142168688637625]}}, {"type": "Feature", "properties": {"route_name": "65G", "stop_id": "wpHpdxFs", "name": "Sri Pathi Nagar", "city": "CHENNAI"}, "geometry": {"type": "Point", "coordinates": [80.03803079473221, 13.145009602606663]}}, {"type": "Feature", "properties": {"route_name": "65G", "stop_id": "IkeqCtDY", "name": "Melappedu", "city": "CHENNAI"}, "geometry": {"type": "Point", "coordinates": [80.03946045105988, 13.151426260781438]}}, {"type": "Feature", "properties": {"route_name": "65G", "stop_id": "HaEOaLMB", "name": "Pakkam Junction", "city": "CHENNAI"}, "geometry": {"type": "Point", "coordinates": [80.03703605244857, 13.15515199877163]}}, {"type": "Feature", "properties": {"route_name": "65G", "stop_id": "THcpliIL", "name": "Pakkam New Colony", "city": "CHENNAI"}, "geometry": {"type": "Point", "coordinates": [80.0339247218028, 13.159594468116245]}}, {"type": "Feature", "properties": {"route_name": "65G", "stop_id": "fikrodNW", "name": "Kesava Cross Road", "city": "CHENNAI"}, "geometry": {"type": "Point", "coordinates": [80.03138222843722, 13.164619684872214]}}, {"type": "Feature", "properties": {"route_name": "65G", "stop_id": "TgAaXvqD", "name": "Kavanur", "city": "CHENNAI"}, "geometry": {"type": "Point", "coordinates": [80.02932442500355, 13.180933690901595]}}, {"type": "Feature", "properties": {"route_name": "65G", "stop_id": "gYrGCzyU", "name": "Kilakondaiyur", "city": "CHENNAI"}, "geometry": {"type": "Point", "coordinates": [80.02945128005456, 13.183933704726618]}}, {"type": "Feature", "properties": {"route_name": "65G", "stop_id": "GwQtabhX", "name": "Melakondaiyur", "city": "CHENNAI"}, "geometry": {"type": "Point", "coordinates": [80.0294946767724, 13.185781607106774]}}, {"type": "Feature", "properties": {"route_name": "65G", "stop_id": "SwPLBeCY", "name": "Komakkambedu", "city": "CHENNAI"}, "geometry": {"type": "Point", "coordinates": [80.02953354849114, 13.194187159464523]}}, {"type": "Feature", "properties": {"route_name": "65G", "stop_id": "rQoGPwMA", "name": "Indira Nagar", "city": "CHENNAI"}, "geometry": {"type": "Point", "coordinates": [80.0294001588602, 13.201754540894667]}}, {"type": "Feature", "properties": {"route_name": "65G", "stop_id": "AiDSpgcp", "name": "Thamaraipakkam", "city": "CHENNAI"}, "geometry": {"type": "Point", "coordinates": [80.02921716122626, 13.211128885036272]}}, {"type": "Feature", "properties": {"route_name": "65G", "stop_id": "GrxyFhrL", "name": "Thamaraipakkam Junction", "city": "CHENNAI"}, "geometry": {"type": "Point", "coordinates": [80.02839662876647, 13.220740387693654]}}, {"type": "Feature", "properties": {"route_name": "65G", "stop_id": "rDRMBgEM", "name": "Velliyur Hospital", "city": "CHENNAI"}, "geometry": {"type": "Point", "coordinates": [80.01061519087148, 13.217814848060364]}}, {"type": "Feature", "properties": {"route_name": "65G", "stop_id": "mfgtosUp", "name": "Velliyur School", "city": "CHENNAI"}, "geometry": {"type": "Point", "coordinates": [80.00561289536279, 13.217017523442562]}}, {"type": "Feature", "properties": {"route_name": "65G", "stop_id": "WeqAZPal", "name": "Vilappakkam", "city": "CHENNAI"}, "geometry": {"type": "Point", "coordinates": [79.98639739319094, 13.2158266221152]}}, {"type": "Feature", "properties": {"route_name": "65G", "stop_id": "yxNebRdy", "name": "RR Kandigai", "city": "CHENNAI"}, "geometry": {"type": "Point", "coordinates": [79.98573703201305, 13.218583497055954]}}, {"type": "Feature", "properties": {"route_name": "65G", "stop_id": "ghPxjXOK", "name": "Vilambakkam", "city": "CHENNAI"}, "geometry": {"type": "Point", "coordinates": [79.97407421005755, 13.220799933700766]}}, {"type": "Feature", "properties": {"route_name": "65G", "stop_id": "jkFkXHXG", "name": "Eraiyur Junction", "city": "CHENNAI"}, "geometry": {"type": "Point", "coordinates": [79.93940976328224, 13.214692862691116]}}, {"type": "Feature", "properties": {"route_name": "65G", "stop_id": "satoTpzv", "name": "Rajapalayam", "city": "CHENNAI"}, "geometry": {"type": "Point", "coordinates": [79.94613628030584, 13.233644425439987]}}, {"type": "Feature", "properties": {"route_name": "65G", "stop_id": "WpvmvPze", "name": "Meyyur", "city": "CHENNAI"}, "geometry": {"type": "Point", "coordinates": [79.9445151870816, 13.242162087774306]}}, {"type": "Feature", "properties": {"name": "65G"}, "geometry": {"type": "LineString", "coordinates": [[80.10205, 13.12006], [80.10155, 13.11976], [80.1007, 13.11967], [80.09733, 13.11947], [80.09607, 13.11956], [80.09601, 13.11944], [80.09444, 13.11936], [80.09367, 13.11928], [80.09256, 13.11914], [80.09149, 13.11892], [80.09083, 13.11879], [80.09017, 13.11865], [80.08979, 13.11861], [80.08853, 13.11866], [80.08709, 13.11872], [80.08623, 13.11878], [80.0858, 13.11881], [80.08378, 13.11886], [80.08203, 13.11886], [80.08118, 13.11898], [80.07961, 13.11928], [80.07958, 13.11929], [80.079, 13.11935], [80.07874, 13.11935], [80.07624, 13.11923], [80.0743, 13.11914], [80.0738, 13.11916], [80.07203, 13.11921], [80.0717, 13.11925], [80.07103, 13.11935], [80.06977, 13.11962], [80.06926, 13.11974], [80.06866, 13.11991], [80.0676, 13.12018], [80.06681, 13.12041], [80.06627, 13.12058], [80.0658, 13.12069], [80.06529, 13.12082], [80.06494, 13.12093], [80.06451, 13.12109], [80.0624, 13.12208], [80.06242, 13.12192], [80.06246, 13.12183], [80.06252, 13.12178], [80.06261, 13.12175], [80.06296, 13.12173], [80.06306, 13.1217], [80.06338, 13.12156], [80.06404, 13.12125], [80.0645, 13.12102], [80.06462, 13.12093], [80.0647, 13.1208], [80.06472, 13.12072], [80.06471, 13.12058], [80.06451, 13.12012], [80.06386, 13.11885], [80.0637, 13.11841], [80.06354, 13.11762], [80.06324, 13.11599], [80.06321, 13.11588], [80.06294, 13.1146], [80.06282, 13.1138], [80.06254, 13.11315], [80.06245, 13.11297], [80.06235, 13.11284], [80.06231, 13.11277], [80.06225, 13.11261], [80.06218, 13.1123], [80.06208, 13.11195], [80.06194, 13.11148], [80.06183, 13.11129], [80.0617, 13.11111], [80.06143, 13.11041], [80.06136, 13.1102], [80.06127, 13.11005], [80.06097, 13.10968], [80.06093, 13.1096], [80.06091, 13.10957], [80.06061, 13.109], [80.06037, 13.10854], [80.05976, 13.10774], [80.05925, 13.10701], [80.05886, 13.10644], [80.05861, 13.10607], [80.05841, 13.10573], [80.05838, 13.10565], [80.05837, 13.10554], [80.05838, 13.10497], [80.0584, 13.10475], [80.05849, 13.10383], [80.0585, 13.1037], [80.05844, 13.1035], [80.05837, 13.10332], [80.05831, 13.10317], [80.05828, 13.10303], [80.05825, 13.10278], [80.05822, 13.10218], [80.05818, 13.10162], [80.05813, 13.10109], [80.05808, 13.10086], [80.05799, 13.10057], [80.05795, 13.10034], [80.05795, 13.10031], [80.05792, 13.09981], [80.05794, 13.09941], [80.05796, 13.09899], [80.05796, 13.09835], [80.05789, 13.09745], [80.05786, 13.09723], [80.05773, 13.09631], [80.05773, 13.0963], [80.05764, 13.09571], [80.05752, 13.09417], [80.05743, 13.09285], [80.05738, 13.09227], [80.05728, 13.0914], [80.05715, 13.09042], [80.05713, 13.09023], [80.05714, 13.09008], [80.05724, 13.08978], [80.05732, 13.08962], [80.05747, 13.08944], [80.05755, 13.08934], [80.05737, 13.08924], [80.05719, 13.08949], [80.05688, 13.08927], [80.05575, 13.09057], [80.05388, 13.09289], [80.05321, 13.09394], [80.05279, 13.09475], [80.05229, 13.09601], [80.05197, 13.09762], [80.05193, 13.09903], [80.05207, 13.10115], [80.05218, 13.10295], [80.05231, 13.10451], [80.05221, 13.10646], [80.05212, 13.10827], [80.05213, 13.11012], [80.05204, 13.11192], [80.05191, 13.1137], [80.0518, 13.1159], [80.0517, 13.11806], [80.05166, 13.12029], [80.05168, 13.12134], [80.05189, 13.12265], [80.05201, 13.1238], [80.05183, 13.12423], [80.05066, 13.12448], [80.05061, 13.12447], [80.04959, 13.1246], [80.04909, 13.12465], [80.04865, 13.12468], [80.04701, 13.12477], [80.04539, 13.12488], [80.04452, 13.12495], [80.0436, 13.12499], [80.04359, 13.12499], [80.04175, 13.12514], [80.04126, 13.12516], [80.03977, 13.12529], [80.03921, 13.12534], [80.03903, 13.12534], [80.03884, 13.12535], [80.03813, 13.12547], [80.03768, 13.12551], [80.0374, 13.12553], [80.03716, 13.12553], [80.03586, 13.12549], [80.03546, 13.12544], [80.03531, 13.1254], [80.03518, 13.12536], [80.03464, 13.1251], [80.0339, 13.12487], [80.03321, 13.12473], [80.03252, 13.12462], [80.03243, 13.12463], [80.0324, 13.12462], [80.03213, 13.12454], [80.03184, 13.12451], [80.03171, 13.12449], [80.03153, 13.12446], [80.03144, 13.12455], [80.03131, 13.12467], [80.03116, 13.12478], [80.03091, 13.12498], [80.03075, 13.12514], [80.03069, 13.12525], [80.03068, 13.12534], [80.03068, 13.12546], [80.03077, 13.12564], [80.03087, 13.12603], [80.0309, 13.12611], [80.03106, 13.12631], [80.0312, 13.12653], [80.03149, 13.12713], [80.03177, 13.12767], [80.03186, 13.12779], [80.03192, 13.12785], [80.03202, 13.12791], [80.03212, 13.12795], [80.0323, 13.12796], [80.03307, 13.12787], [80.03333, 13.12787], [80.03348, 13.12791], [80.03374, 13.12804], [80.03387, 13.12814], [80.03399, 13.12827], [80.03459, 13.12907], [80.03498, 13.12958], [80.03524, 13.12993], [80.03595, 13.13094], [80.03606, 13.13119], [80.03611, 13.13155], [80.03623, 13.13192], [80.03638, 13.13262], [80.03655, 13.13339], [80.03656, 13.13343], [80.03668, 13.13415], [80.03679, 13.13448], [80.03703, 13.13495], [80.03751, 13.13583], [80.03802, 13.13683], [80.03855, 13.1379], [80.03866, 13.13816], [80.03869, 13.13823], [80.03871, 13.13838], [80.03872, 13.13859], [80.03869, 13.13884], [80.03864, 13.13904], [80.03844, 13.13976], [80.03821, 13.1407], [80.03804, 13.14122], [80.03792, 13.14167], [80.03791, 13.14181], [80.03794, 13.14205], [80.03797, 13.14216], [80.03807, 13.14284], [80.03812, 13.14316], [80.03813, 13.14347], [80.03805, 13.14439], [80.03805, 13.1448], [80.03807, 13.14501], [80.03811, 13.1454], [80.03835, 13.14694], [80.03852, 13.14742], [80.03869, 13.148], [80.039, 13.14915], [80.03927, 13.15011], [80.03948, 13.15084], [80.03951, 13.15114], [80.03952, 13.15127], [80.0395, 13.15143], [80.03949, 13.15144], [80.03947, 13.15151], [80.03932, 13.15182], [80.03876, 13.15268], [80.0381, 13.15372], [80.03779, 13.1542], [80.03732, 13.15486], [80.03707, 13.15518], [80.03659, 13.15582], [80.03578, 13.15694], [80.03491, 13.15822], [80.03414, 13.15934], [80.03395, 13.15961], [80.03297, 13.16104], [80.03242, 13.16185], [80.03201, 13.16254], [80.03177, 13.16308], [80.03172, 13.16324], [80.03156, 13.16393], [80.03149, 13.16434], [80.03142, 13.16463], [80.03087, 13.16699], [80.03051, 13.16847], [80.03023, 13.1696], [80.02957, 13.17236], [80.02939, 13.1731], [80.0293, 13.17365], [80.02926, 13.17408], [80.02925, 13.17464], [80.02922, 13.17598], [80.02925, 13.1774], [80.02933, 13.18004], [80.02937, 13.18093], [80.0295, 13.18393], [80.0295, 13.18395], [80.02955, 13.18578], [80.02962, 13.18748], [80.02964, 13.18788], [80.02964, 13.18857], [80.02964, 13.18969], [80.02962, 13.19154], [80.02957, 13.19415], [80.02957, 13.19419], [80.02955, 13.19768], [80.02951, 13.19932], [80.02945, 13.20176], [80.02942, 13.20275], [80.02938, 13.20421], [80.02937, 13.20646], [80.02935, 13.20787], [80.0293, 13.20998], [80.02928, 13.21057], [80.02925, 13.21113], [80.02925, 13.21117], [80.02915, 13.21249], [80.02901, 13.21417], [80.02876, 13.21696], [80.02871, 13.21758], [80.0287, 13.21806], [80.02868, 13.21876], [80.02863, 13.21925], [80.02859, 13.21948], [80.02857, 13.2195], [80.02854, 13.21964], [80.02845, 13.22039], [80.02843, 13.22068], [80.02844, 13.22074], [80.02842, 13.22078], [80.02683, 13.22128], [80.02651, 13.22136], [80.02618, 13.22139], [80.0257, 13.22135], [80.02436, 13.22114], [80.02182, 13.22076], [80.01823, 13.22018], [80.01734, 13.22005], [80.01679, 13.21995], [80.01635, 13.21987], [80.01595, 13.21974], [80.01478, 13.21932], [80.01309, 13.21873], [80.01249, 13.21849], [80.01174, 13.21817], [80.01061, 13.21784], [80.01021, 13.21774], [80.00975, 13.21765], [80.00561, 13.21704], [80.00507, 13.21697], [80.00384, 13.21686], [80.00302, 13.21686], [80.00174, 13.21691], [80.00046, 13.21695], [80.00023, 13.21694], [80.00007, 13.21691], [79.99953, 13.21675], [79.99915, 13.21672], [79.99713, 13.2168], [79.99637, 13.21676], [79.99597, 13.2167], [79.99563, 13.21663], [79.99433, 13.21626], [79.9941, 13.21621], [79.99388, 13.21622], [79.99279, 13.21651], [79.99244, 13.21655], [79.9922, 13.21653], [79.99184, 13.21643], [79.99067, 13.21605], [79.98959, 13.21579], [79.98863, 13.21577], [79.98722, 13.21581], [79.98645, 13.21585], [79.98639, 13.21585], [79.98633, 13.21583], [79.98627, 13.2158], [79.9862, 13.21585], [79.98595, 13.2161], [79.98592, 13.21617], [79.98591, 13.21627], [79.98594, 13.2165], [79.98601, 13.21695], [79.9861, 13.21741], [79.9861, 13.21787], [79.98608, 13.2184], [79.98599, 13.21852], [79.98575, 13.21861], [79.98508, 13.21884], [79.9847, 13.21892], [79.9843, 13.21898], [79.98237, 13.21943], [79.98128, 13.21963], [79.98029, 13.21985], [79.97958, 13.22002], [79.97885, 13.22024], [79.97809, 13.22051], [79.97698, 13.22108], [79.9763, 13.22139], [79.97603, 13.22158], [79.97574, 13.22174], [79.97555, 13.22179], [79.9754, 13.22161], [79.97491, 13.221], [79.97484, 13.22093], [79.97477, 13.22091], [79.97427, 13.22087], [79.97407, 13.22084], [79.97393, 13.22079], [79.97366, 13.22051], [79.97355, 13.2201], [79.97332, 13.21956], [79.97303, 13.21927], [79.97241, 13.21905], [79.97192, 13.21896], [79.97064, 13.21857], [79.96973, 13.21818], [79.96942, 13.21805], [79.9693, 13.21787], [79.96912, 13.2175], [79.96904, 13.21741], [79.96851, 13.21738], [79.9676, 13.21724], [79.96509, 13.21611], [79.96454, 13.21581], [79.96247, 13.21553], [79.9612, 13.21553], [79.95906, 13.21479], [79.95869, 13.21452], [79.95856, 13.21429], [79.95856, 13.21397], [79.95866, 13.21366], [79.95887, 13.21336], [79.95901, 13.21318], [79.95899, 13.21294], [79.95873, 13.21259], [79.95842, 13.21166], [79.95733, 13.21155], [79.95608, 13.21131], [79.95497, 13.21124], [79.95386, 13.21133], [79.95328, 13.21137], [79.95239, 13.21124], [79.95164, 13.21126], [79.95096, 13.21138], [79.95032, 13.21162], [79.94863, 13.21175], [79.94827, 13.21223], [79.94782, 13.21232], [79.94698, 13.21278], [79.94591, 13.2132], [79.94511, 13.21368], [79.94435, 13.21393], [79.94396, 13.21438], [79.94223, 13.21447], [79.94038, 13.21436], [79.93938, 13.21444], [79.93944, 13.21469], [79.93953, 13.21513], [79.93962, 13.21569], [79.93966, 13.21641], [79.93972, 13.21684], [79.93978, 13.21732], [79.93986, 13.21781], [79.93998, 13.21831], [79.94034, 13.2188], [79.94097, 13.21931], [79.94172, 13.21986], [79.9424, 13.22016], [79.94285, 13.22025], [79.94316, 13.22025], [79.94337, 13.22036], [79.9439, 13.22109], [79.94464, 13.22211], [79.94476, 13.22228], [79.94526, 13.22342], [79.94572, 13.22444], [79.94653, 13.226], [79.9476, 13.22805], [79.94761, 13.22812], [79.94761, 13.22841], [79.94741, 13.22883], [79.9471, 13.2291], [79.94685, 13.22921], [79.94669, 13.22933], [79.94659, 13.22953], [79.94629, 13.23028], [79.94619, 13.23065], [79.94614, 13.23086], [79.94608, 13.23152], [79.94615, 13.23307], [79.94617, 13.23364], [79.94616, 13.23511], [79.94615, 13.23545], [79.94604, 13.23612], [79.94692, 13.2379], [79.94696, 13.23853], [79.9468, 13.23939], [79.94635, 13.24175], [79.94629, 13.24204], [79.94566, 13.24212], [79.94513, 13.24212], [79.94495, 13.24212], [79.94467, 13.24207], [79.94451, 13.24208]]}}]}