{"type": "FeatureCollection", "features": [{"type": "Feature", "properties": {"route_name": "120E", "stop_id": "cKQpuLql", "name": "Kilkondaiyur", "city": "CHENNAI"}, "geometry": {"type": "Point", "coordinates": [80.04423360667272, 13.180020243254862]}}, {"type": "Feature", "properties": {"route_name": "120E", "stop_id": "TztxJAVO", "name": "Pandeshwaram EB Office", "city": "CHENNAI"}, "geometry": {"type": "Point", "coordinates": [80.06249847523839, 13.187518818965989]}}, {"type": "Feature", "properties": {"route_name": "120E", "stop_id": "dkKDnHnJ", "name": "Pandeshwaram", "city": "CHENNAI"}, "geometry": {"type": "Point", "coordinates": [80.06672491555173, 13.191641272230273]}}, {"type": "Feature", "properties": {"route_name": "120E", "stop_id": "joGrBgeB", "name": "Arakkambakkam Road Junction", "city": "CHENNAI"}, "geometry": {"type": "Point", "coordinates": [80.080186375724, 13.196987577069793]}}, {"type": "Feature", "properties": {"route_name": "120E", "stop_id": "BjxLEaiN", "name": "Bangarampettai", "city": "CHENNAI"}, "geometry": {"type": "Point", "coordinates": [80.08484805654336, 13.19185304583157]}}, {"type": "Feature", "properties": {"route_name": "120E", "stop_id": "UTtjkhMN", "name": "Veerapuram", "city": "CHENNAI"}, "geometry": {"type": "Point", "coordinates": [80.08432657144715, 13.184578841617089]}}, {"type": "Feature", "properties": {"route_name": "120E", "stop_id": "btKesaAl", "name": "Katathotti", "city": "CHENNAI"}, "geometry": {"type": "Point", "coordinates": [80.08451850462586, 13.183368540769056]}}, {"type": "Feature", "properties": {"route_name": "120E", "stop_id": "jFhGTpOu", "name": "Veerapuram Viraliyur Kodi", "city": "CHENNAI"}, "geometry": {"type": "Point", "coordinates": [80.08561743534142, 13.182063417681317]}}, {"type": "Feature", "properties": {"route_name": "120E", "stop_id": "cwRIXHps", "name": "Veerapuram Road Junction", "city": "CHENNAI"}, "geometry": {"type": "Point", "coordinates": [80.08475006590538, 13.175821890167422]}}, {"type": "Feature", "properties": {"route_name": "120E", "stop_id": "BtOUMROM", "name": "Moorai Anna Nagar", "city": "CHENNAI"}, "geometry": {"type": "Point", "coordinates": [80.09132922074411, 13.172994596724768]}}, {"type": "Feature", "properties": {"route_name": "120E", "stop_id": "ZtKBYERA", "name": "SrBharathi Nagar", "city": "CHENNAI"}, "geometry": {"type": "Point", "coordinates": [80.09572022977204, 13.17028979296305]}}, {"type": "Feature", "properties": {"route_name": "120E", "stop_id": "QESMqsTJ", "name": "Vel Tech Junction", "city": "CHENNAI"}, "geometry": {"type": "Point", "coordinates": [80.09815992773156, 13.167177364221274]}}, {"type": "Feature", "properties": {"route_name": "120E", "stop_id": "JJzKKoaf", "name": "Kannadapalayam Junction", "city": "CHENNAI"}, "geometry": {"type": "Point", "coordinates": [80.09943041227143, 13.154527325495888]}}, {"type": "Feature", "properties": {"route_name": "120E", "stop_id": "TCQmGnBb", "name": "Kovilpathagai Bharathi Nagar", "city": "CHENNAI"}, "geometry": {"type": "Point", "coordinates": [80.1045550174423, 13.145345781601415]}}, {"type": "Feature", "properties": {"route_name": "120E", "stop_id": "IzKulrBJ", "name": "Kovilpadagai", "city": "CHENNAI"}, "geometry": {"type": "Point", "coordinates": [80.1040683309899, 13.139749481465124]}}, {"type": "Feature", "properties": {"route_name": "120E", "stop_id": "uGkwFELU", "name": "Kovilpadagai Road Junction", "city": "CHENNAI"}, "geometry": {"type": "Point", "coordinates": [80.10317802461554, 13.133162265626716]}}, {"type": "Feature", "properties": {"route_name": "120E", "stop_id": "CVcknAiw", "name": "Bharathiyar Nagar", "city": "CHENNAI"}, "geometry": {"type": "Point", "coordinates": [80.10353704891918, 13.128493156333251]}}, {"type": "Feature", "properties": {"route_name": "120E", "stop_id": "aZaGhhAB", "name": "Post Office", "city": "CHENNAI"}, "geometry": {"type": "Point", "coordinates": [80.10328576083282, 13.125531140255731]}}, {"type": "Feature", "properties": {"route_name": "120E", "stop_id": "PNniCxAw", "name": "Avadi HVF Road", "city": "CHENNAI"}, "geometry": {"type": "Point", "coordinates": [80.10314181890726, 13.120193102328443]}}, {"type": "Feature", "properties": {"route_name": "120E", "stop_id": "ogOCBKAf", "name": "Avadi Terminal", "city": "CHENNAI"}, "geometry": {"type": "Point", "coordinates": [80.10204658205703, 13.120113061821396]}}, {"type": "Feature", "properties": {"route_name": "120E", "stop_id": "ZTMEdEeK", "name": "Tube Products of India", "city": "CHENNAI"}, "geometry": {"type": "Point", "coordinates": [80.11341603818073, 13.123868422572466]}}, {"type": "Feature", "properties": {"route_name": "120E", "stop_id": "LLWkkTwA", "name": "Murugappa Polytechnic", "city": "CHENNAI"}, "geometry": {"type": "Point", "coordinates": [80.11876490760153, 13.125879148149933]}}, {"type": "Feature", "properties": {"route_name": "120E", "stop_id": "VFLsoIHD", "name": "Vaishnavi Nagar", "city": "CHENNAI"}, "geometry": {"type": "Point", "coordinates": [80.12554125189615, 13.130340033664002]}}, {"type": "Feature", "properties": {"route_name": "120E", "stop_id": "kFnjgEzS", "name": "Thirumullaivoyal", "city": "CHENNAI"}, "geometry": {"type": "Point", "coordinates": [80.13153984726227, 13.13084553019879]}}, {"type": "Feature", "properties": {"route_name": "120E", "stop_id": "OgnAStiZ", "name": "Manikandapuram", "city": "CHENNAI"}, "geometry": {"type": "Point", "coordinates": [80.13634179207247, 13.13062820169906]}}, {"type": "Feature", "properties": {"route_name": "120E", "stop_id": "IfTbUocE", "name": "Saraswathi Nagar CTH Salai", "city": "CHENNAI"}, "geometry": {"type": "Point", "coordinates": [80.13987862294346, 13.12807361272438]}}, {"type": "Feature", "properties": {"route_name": "120E", "stop_id": "xqQnPHkt", "name": "Stedford Hospital", "city": "CHENNAI"}, "geometry": {"type": "Point", "coordinates": [80.1436556437576, 13.124488178779586]}}, {"type": "Feature", "properties": {"route_name": "120E", "stop_id": "Plxavose", "name": "Raaki Theatre", "city": "CHENNAI"}, "geometry": {"type": "Point", "coordinates": [80.14861108973128, 13.122222915040638]}}, {"type": "Feature", "properties": {"route_name": "120E", "stop_id": "QpprBOSr", "name": "Ambattur OT Bus Stand", "city": "CHENNAI"}, "geometry": {"type": "Point", "coordinates": [80.15007887148772, 13.119684942237221]}}, {"type": "Feature", "properties": {"route_name": "120E", "stop_id": "FYhykdTj", "name": "Uzhavar Santhai", "city": "CHENNAI"}, "geometry": {"type": "Point", "coordinates": [80.14802145634985, 13.115318451229832]}}, {"type": "Feature", "properties": {"route_name": "120E", "stop_id": "SOVcCDqR", "name": "Canara Bank", "city": "CHENNAI"}, "geometry": {"type": "Point", "coordinates": [80.15226541093693, 13.110403046158668]}}, {"type": "Feature", "properties": {"route_name": "120E", "stop_id": "bPdCVhrp", "name": "Dr BR Ambedkar Statue", "city": "CHENNAI"}, "geometry": {"type": "Point", "coordinates": [80.15232173812433, 13.107834319548227]}}, {"type": "Feature", "properties": {"route_name": "120E", "stop_id": "LhgNVAOU", "name": "Dunlop", "city": "CHENNAI"}, "geometry": {"type": "Point", "coordinates": [80.1523700587012, 13.10617659968523]}}, {"type": "Feature", "properties": {"route_name": "120E", "stop_id": "RinxBkUZ", "name": "TI Miller", "city": "CHENNAI"}, "geometry": {"type": "Point", "coordinates": [80.15645534211137, 13.103835475795279]}}, {"type": "Feature", "properties": {"route_name": "120E", "stop_id": "YpVxAvQG", "name": "Telephone Exchange", "city": "CHENNAI"}, "geometry": {"type": "Point", "coordinates": [80.16233215169586, 13.101555514854645]}}, {"type": "Feature", "properties": {"route_name": "120E", "stop_id": "YJykDsrc", "name": "Ambattur Industrial Estate", "city": "CHENNAI"}, "geometry": {"type": "Point", "coordinates": [80.17032620718533, 13.099830856686363]}}, {"type": "Feature", "properties": {"route_name": "120E", "stop_id": "fcSUqaEW", "name": "Mannurpet", "city": "CHENNAI"}, "geometry": {"type": "Point", "coordinates": [80.17514709452757, 13.098279196878257]}}, {"type": "Feature", "properties": {"route_name": "120E", "stop_id": "isWzWnoW", "name": "Britannia Bus Stop Padi", "city": "CHENNAI"}, "geometry": {"type": "Point", "coordinates": [80.1806570432027, 13.09829331883448]}}, {"type": "Feature", "properties": {"route_name": "120E", "stop_id": "EzivGHuE", "name": "Yadhava Street", "city": "CHENNAI"}, "geometry": {"type": "Point", "coordinates": [80.18487886591106, 13.099416843963256]}}, {"type": "Feature", "properties": {"route_name": "120E", "stop_id": "RYTcAdhr", "name": "Korrattur Signal Or East Avenue", "city": "CHENNAI"}, "geometry": {"type": "Point", "coordinates": [80.18684056887321, 13.09988204237078]}}, {"type": "Feature", "properties": {"route_name": "120E", "stop_id": "yLFlKjKg", "name": "Padi Lucas TVS", "city": "CHENNAI"}, "geometry": {"type": "Point", "coordinates": [80.18980611106076, 13.101293500280995]}}, {"type": "Feature", "properties": {"route_name": "120E", "stop_id": "LVcdwgEp", "name": "SIDCO Nagar", "city": "CHENNAI"}, "geometry": {"type": "Point", "coordinates": [80.19902239739599, 13.103287624847976]}}, {"type": "Feature", "properties": {"route_name": "120E", "stop_id": "ubzklVlS", "name": "Nathamuni Talkies", "city": "CHENNAI"}, "geometry": {"type": "Point", "coordinates": [80.20252315018274, 13.103675177214427]}}, {"type": "Feature", "properties": {"route_name": "120E", "stop_id": "RIpTuvwk", "name": "Villivakkam Kalpana", "city": "CHENNAI"}, "geometry": {"type": "Point", "coordinates": [80.20743504443408, 13.103266230242085]}}, {"type": "Feature", "properties": {"route_name": "120E", "stop_id": "NJSgWoOc", "name": "Kallukkadai", "city": "CHENNAI"}, "geometry": {"type": "Point", "coordinates": [80.21100708978702, 13.102091789178067]}}, {"type": "Feature", "properties": {"route_name": "120E", "stop_id": "WtptgYtz", "name": "ICF Annexe", "city": "CHENNAI"}, "geometry": {"type": "Point", "coordinates": [80.21252690849656, 13.10157949424285]}}, {"type": "Feature", "properties": {"route_name": "120E", "stop_id": "TcTonWJL", "name": "ICF", "city": "CHENNAI"}, "geometry": {"type": "Point", "coordinates": [80.21578320103663, 13.100222337697073]}}, {"type": "Feature", "properties": {"route_name": "120E", "stop_id": "HJTsgSzj", "name": "Kambar Arangam", "city": "CHENNAI"}, "geometry": {"type": "Point", "coordinates": [80.21976074824761, 13.0992472123686]}}, {"type": "Feature", "properties": {"route_name": "120E", "stop_id": "YvwQRHTE", "name": "Railway Quarters", "city": "CHENNAI"}, "geometry": {"type": "Point", "coordinates": [80.22534070183735, 13.100000025373078]}}, {"type": "Feature", "properties": {"route_name": "120E", "stop_id": "QrdELzCu", "name": "Joint Office", "city": "CHENNAI"}, "geometry": {"type": "Point", "coordinates": [80.22988659818111, 13.099765103995907]}}, {"type": "Feature", "properties": {"route_name": "120E", "stop_id": "fRxWIrbs", "name": "Noor Hotel", "city": "CHENNAI"}, "geometry": {"type": "Point", "coordinates": [80.23428872329623, 13.09862110170927]}}, {"type": "Feature", "properties": {"route_name": "120E", "stop_id": "ryMrZCSE", "name": "Sayani Theatre Aynavaram", "city": "CHENNAI"}, "geometry": {"type": "Point", "coordinates": [80.23976256796573, 13.097793041345161]}}, {"type": "Feature", "properties": {"route_name": "120E", "stop_id": "OkTOljoV", "name": "E S I Hospital", "city": "CHENNAI"}, "geometry": {"type": "Point", "coordinates": [80.24136573346641, 13.094755041394231]}}, {"type": "Feature", "properties": {"route_name": "120E", "stop_id": "svamcGgQ", "name": "Medavakkam Mental Hospital", "city": "CHENNAI"}, "geometry": {"type": "Point", "coordinates": [80.24095586823455, 13.091173815450553]}}, {"type": "Feature", "properties": {"route_name": "120E", "stop_id": "yZEnTGkU", "name": "Medavakkam Kellys", "city": "CHENNAI"}, "geometry": {"type": "Point", "coordinates": [80.2419529533995, 13.088510357883557]}}, {"type": "Feature", "properties": {"route_name": "120E", "stop_id": "jzhhipmd", "name": "Motcham Aysha Hospital Or Motcham Theatre", "city": "CHENNAI"}, "geometry": {"type": "Point", "coordinates": [80.25024250261423, 13.084832567580577]}}, {"type": "Feature", "properties": {"route_name": "120E", "stop_id": "xkdRvtRu", "name": "Purasaivakkam Tank", "city": "CHENNAI"}, "geometry": {"type": "Point", "coordinates": [80.25459983015855, 13.083658031929831]}}, {"type": "Feature", "properties": {"route_name": "120E", "stop_id": "JvhqCmbT", "name": "Alagappa Schools", "city": "CHENNAI"}, "geometry": {"type": "Point", "coordinates": [80.25451299, 13.08270776]}}, {"type": "Feature", "properties": {"route_name": "120E", "stop_id": "FmTbQszJ", "name": "Dharma Prakash Or MCTM School", "city": "CHENNAI"}, "geometry": {"type": "Point", "coordinates": [80.25486360182936, 13.080794310517591]}}, {"type": "Feature", "properties": {"route_name": "120E", "stop_id": "HTKZNJTs", "name": "Das Prakash Hotel Or Petrol Pump", "city": "CHENNAI"}, "geometry": {"type": "Point", "coordinates": [80.25462333184373, 13.079812230361082]}}, {"type": "Feature", "properties": {"route_name": "120E", "stop_id": "ohvLIfWG", "name": "Y W C A", "city": "CHENNAI"}, "geometry": {"type": "Point", "coordinates": [80.2597665623357, 13.079527427874893]}}, {"type": "Feature", "properties": {"route_name": "120E", "stop_id": "VjdckTjW", "name": "Thinathanthi", "city": "CHENNAI"}, "geometry": {"type": "Point", "coordinates": [80.26340568, 13.0805046]}}, {"type": "Feature", "properties": {"route_name": "120E", "stop_id": "GnsXgGJX", "name": "Hotel Everest", "city": "CHENNAI"}, "geometry": {"type": "Point", "coordinates": [80.26810708394851, 13.080814800082436]}}, {"type": "Feature", "properties": {"route_name": "120E", "stop_id": "PSjGjQXK", "name": "Park Station", "city": "CHENNAI"}, "geometry": {"type": "Point", "coordinates": [80.27331973115014, 13.081535577598643]}}, {"type": "Feature", "properties": {"route_name": "120E", "stop_id": "KwaxxmSs", "name": "Nurse Quarters", "city": "CHENNAI"}, "geometry": {"type": "Point", "coordinates": [80.27896059391605, 13.082298318772699]}}, {"type": "Feature", "properties": {"route_name": "120E", "stop_id": "neNWquOh", "name": "Central Dental College", "city": "CHENNAI"}, "geometry": {"type": "Point", "coordinates": [80.28199470667641, 13.08298870082699]}}, {"type": "Feature", "properties": {"route_name": "120E", "stop_id": "QHFmFyLR", "name": "High Court ", "city": "CHENNAI"}, "geometry": {"type": "Point", "coordinates": [80.28344657999999, 13.085009446858479]}}, {"type": "Feature", "properties": {"route_name": "120E", "stop_id": "EkWBPXmr", "name": "Broadway", "city": "CHENNAI"}, "geometry": {"type": "Point", "coordinates": [80.28388983, 13.08820568]}}, {"type": "Feature", "properties": {"name": "120E"}, "geometry": {"type": "LineString", "coordinates": [[80.04425, 13.18], [80.04433, 13.18008], [80.04442, 13.18012], [80.04617, 13.18027], [80.0471, 13.18029], [80.0476, 13.18029], [80.04807, 13.18033], [80.04849, 13.18042], [80.04883, 13.18056], [80.04906, 13.18073], [80.04948, 13.18119], [80.04982, 13.18153], [80.05011, 13.18167], [80.05032, 13.18173], [80.05101, 13.18192], [80.0514, 13.18206], [80.05206, 13.18239], [80.05255, 13.18262], [80.05323, 13.18288], [80.05407, 13.18329], [80.05494, 13.18366], [80.05536, 13.18383], [80.05573, 13.18394], [80.05612, 13.18397], [80.05622, 13.18397], [80.05629, 13.18401], [80.05634, 13.18408], [80.05638, 13.18425], [80.05642, 13.18452], [80.05651, 13.18484], [80.05657, 13.18528], [80.05657, 13.18558], [80.0566, 13.18574], [80.05662, 13.18577], [80.05674, 13.18585], [80.05712, 13.18599], [80.05792, 13.18616], [80.05912, 13.18636], [80.06005, 13.18648], [80.06129, 13.18664], [80.06171, 13.18671], [80.06189, 13.1868], [80.06195, 13.18693], [80.06195, 13.18707], [80.06196, 13.18724], [80.06198, 13.18734], [80.06206, 13.18742], [80.06216, 13.18746], [80.06232, 13.18747], [80.0625, 13.18747], [80.06268, 13.18748], [80.06295, 13.18752], [80.06341, 13.18768], [80.06357, 13.18774], [80.06368, 13.18785], [80.06414, 13.18874], [80.0646, 13.18949], [80.06579, 13.19116], [80.06605, 13.19152], [80.06623, 13.19157], [80.06655, 13.1916], [80.06673, 13.19161], [80.067, 13.19161], [80.06709, 13.19156], [80.06717, 13.19147], [80.06727, 13.19139], [80.06734, 13.19137], [80.06749, 13.19136], [80.06796, 13.19131], [80.0686, 13.19132], [80.06891, 13.19135], [80.06913, 13.19137], [80.06988, 13.19142], [80.06999, 13.19145], [80.07004, 13.1915], [80.07018, 13.19219], [80.07022, 13.19226], [80.07062, 13.19376], [80.07101, 13.19492], [80.0712, 13.19517], [80.07189, 13.19589], [80.072, 13.19604], [80.07209, 13.1963], [80.07235, 13.19689], [80.07241, 13.19698], [80.07257, 13.1971], [80.07282, 13.19723], [80.07314, 13.1975], [80.07326, 13.19762], [80.0734, 13.19783], [80.07349, 13.19802], [80.07351, 13.19814], [80.07355, 13.19849], [80.07363, 13.19889], [80.07369, 13.199], [80.07382, 13.19909], [80.07393, 13.19917], [80.07402, 13.19914], [80.07444, 13.19913], [80.07483, 13.19909], [80.07517, 13.19897], [80.07562, 13.19887], [80.07599, 13.19881], [80.07624, 13.19873], [80.07641, 13.19864], [80.07662, 13.19845], [80.07673, 13.19836], [80.07691, 13.19827], [80.07808, 13.19776], [80.07958, 13.19716], [80.07987, 13.19704], [80.08013, 13.1969], [80.0808, 13.19653], [80.08216, 13.19556], [80.08253, 13.19522], [80.08286, 13.19495], [80.08335, 13.19458], [80.08363, 13.19431], [80.08383, 13.19412], [80.08403, 13.19389], [80.08426, 13.19358], [80.08439, 13.19337], [80.08447, 13.19293], [80.08457, 13.1925], [80.0847, 13.19229], [80.08483, 13.19203], [80.08481, 13.1919], [80.0848, 13.19187], [80.0846, 13.19118], [80.08456, 13.19092], [80.08456, 13.18979], [80.0846, 13.18859], [80.08458, 13.1881], [80.08453, 13.18791], [80.08431, 13.1874], [80.08407, 13.18697], [80.08393, 13.18672], [80.0838, 13.18646], [80.08372, 13.18606], [80.08368, 13.18561], [80.08369, 13.18532], [80.08375, 13.18517], [80.08388, 13.18503], [80.08405, 13.18488], [80.08418, 13.18479], [80.0843, 13.18461], [80.0843, 13.18458], [80.08431, 13.1843], [80.08428, 13.18378], [80.08429, 13.18366], [80.08432, 13.18357], [80.08438, 13.18346], [80.08449, 13.18334], [80.08473, 13.18307], [80.08523, 13.18245], [80.0856, 13.18202], [80.08559, 13.18204], [80.08567, 13.18194], [80.08573, 13.18184], [80.08578, 13.18153], [80.08577, 13.1813], [80.08576, 13.18103], [80.08573, 13.18083], [80.08562, 13.18036], [80.08543, 13.17974], [80.08531, 13.17946], [80.08515, 13.17906], [80.08492, 13.17832], [80.08477, 13.17787], [80.08469, 13.17755], [80.08467, 13.17741], [80.08465, 13.17697], [80.08464, 13.17628], [80.08465, 13.17582], [80.08469, 13.17557], [80.08478, 13.17534], [80.08492, 13.17516], [80.08516, 13.17498], [80.08655, 13.17431], [80.08688, 13.17416], [80.08714, 13.17409], [80.08742, 13.17401], [80.08784, 13.17389], [80.08836, 13.17378], [80.08931, 13.17366], [80.09003, 13.17356], [80.09037, 13.17348], [80.09059, 13.17336], [80.0911, 13.17307], [80.0913, 13.17295], [80.0919, 13.17261], [80.09218, 13.17244], [80.09261, 13.17214], [80.09316, 13.17174], [80.09349, 13.17151], [80.0938, 13.17134], [80.09432, 13.17104], [80.09478, 13.1708], [80.09517, 13.17057], [80.0957, 13.17026], [80.09619, 13.16994], [80.09632, 13.16984], [80.0965, 13.1696], [80.09669, 13.16936], [80.09679, 13.16921], [80.09732, 13.16848], [80.09768, 13.16796], [80.09801, 13.16739], [80.09812, 13.16716], [80.09811, 13.16716], [80.09848, 13.16645], [80.09857, 13.16621], [80.09877, 13.16562], [80.09891, 13.16508], [80.09914, 13.1642], [80.09939, 13.16321], [80.0995, 13.16253], [80.09962, 13.16153], [80.09964, 13.16126], [80.09962, 13.16087], [80.09961, 13.16024], [80.0996, 13.15986], [80.09956, 13.15951], [80.09949, 13.15903], [80.09936, 13.15846], [80.09918, 13.15802], [80.09891, 13.15747], [80.09841, 13.15653], [80.0983, 13.15628], [80.0983, 13.15612], [80.09834, 13.156], [80.09845, 13.15578], [80.09863, 13.1555], [80.09894, 13.15509], [80.0991, 13.15492], [80.09935, 13.15456], [80.0994, 13.1545], [80.09964, 13.15418], [80.10003, 13.15374], [80.10041, 13.15336], [80.10067, 13.15313], [80.10184, 13.15211], [80.10204, 13.15191], [80.10214, 13.15176], [80.10259, 13.15119], [80.10346, 13.15032], [80.10359, 13.15016], [80.10375, 13.14993], [80.10384, 13.14974], [80.10407, 13.1492], [80.10418, 13.14879], [80.1042, 13.14861], [80.10422, 13.14781], [80.10428, 13.14704], [80.10441, 13.14623], [80.10448, 13.14561], [80.10453, 13.14537], [80.10453, 13.14534], [80.10462, 13.14461], [80.10462, 13.14376], [80.10466, 13.14292], [80.10459, 13.14221], [80.10443, 13.14143], [80.1044, 13.14118], [80.10436, 13.14094], [80.10427, 13.14073], [80.10408, 13.14021], [80.10396, 13.1398], [80.10394, 13.13972], [80.10405, 13.1397], [80.10394, 13.13972], [80.10389, 13.13951], [80.10373, 13.13885], [80.10351, 13.13795], [80.10332, 13.13733], [80.10311, 13.13649], [80.10303, 13.13602], [80.10295, 13.13536], [80.10293, 13.135], [80.10301, 13.13399], [80.10306, 13.13388], [80.1031, 13.13386], [80.10313, 13.13383], [80.10314, 13.13378], [80.10314, 13.13377], [80.10313, 13.13374], [80.10311, 13.13372], [80.10305, 13.1337], [80.10309, 13.13318], [80.10308, 13.13315], [80.1032, 13.13186], [80.10345, 13.13014], [80.1035, 13.12975], [80.10352, 13.12924], [80.10345, 13.1285], [80.10338, 13.12787], [80.10325, 13.12647], [80.10322, 13.12553], [80.10315, 13.1235], [80.10324, 13.12237], [80.10335, 13.1214], [80.10311, 13.1202], [80.10311, 13.12021], [80.10308, 13.12006], [80.10305, 13.11992], [80.10305, 13.11968], [80.10305, 13.11962], [80.10269, 13.11965], [80.10171, 13.11972], [80.10176, 13.11986], [80.10176, 13.12018], [80.10203, 13.12024], [80.10234, 13.12026], [80.10238, 13.12013], [80.1024, 13.11996], [80.10236, 13.11974], [80.10253, 13.11973], [80.10295, 13.11972], [80.10337, 13.11972], [80.10379, 13.11975], [80.10416, 13.11978], [80.10464, 13.11983], [80.10485, 13.11985], [80.10506, 13.11989], [80.10526, 13.11993], [80.10547, 13.11998], [80.10567, 13.12005], [80.10608, 13.12017], [80.10648, 13.12029], [80.10668, 13.12035], [80.10688, 13.12042], [80.10708, 13.12049], [80.10728, 13.12057], [80.10744, 13.1207], [80.10759, 13.12084], [80.10773, 13.121], [80.10788, 13.12115], [80.10802, 13.1213], [80.10816, 13.12146], [80.10831, 13.1216], [80.10846, 13.12175], [80.10861, 13.12189], [80.10877, 13.12202], [80.10894, 13.12215], [80.10992, 13.12285], [80.11048, 13.12324], [80.11102, 13.12331], [80.11228, 13.12346], [80.11341, 13.12381], [80.11342, 13.1238], [80.11344, 13.12381], [80.11648, 13.12494], [80.11838, 13.12568], [80.11879, 13.12581], [80.11941, 13.12595], [80.11978, 13.12612], [80.11992, 13.12615], [80.12064, 13.12634], [80.12107, 13.12649], [80.12143, 13.12676], [80.12276, 13.12788], [80.12297, 13.12806], [80.12365, 13.12861], [80.12445, 13.1293], [80.12494, 13.12974], [80.12508, 13.12986], [80.12559, 13.13028], [80.12632, 13.13082], [80.12668, 13.13106], [80.12713, 13.1314], [80.12735, 13.13154], [80.12745, 13.13157], [80.1276, 13.13158], [80.12788, 13.13152], [80.12865, 13.1313], [80.13009, 13.13095], [80.13054, 13.13086], [80.13084, 13.13083], [80.13154, 13.13082], [80.13452, 13.13079], [80.13519, 13.13074], [80.13633, 13.13058], [80.1374, 13.13038], [80.13779, 13.13028], [80.13803, 13.13015], [80.13834, 13.12986], [80.13867, 13.1295], [80.1395, 13.12845], [80.13981, 13.12803], [80.1408, 13.12669], [80.1412, 13.12619], [80.14146, 13.12592], [80.14162, 13.12579], [80.14331, 13.1247], [80.14364, 13.12447], [80.1456, 13.12328], [80.14686, 13.12252], [80.14703, 13.12245], [80.14713, 13.12243], [80.14728, 13.12243], [80.14759, 13.12249], [80.14788, 13.12257], [80.14814, 13.12262], [80.14831, 13.12268], [80.14844, 13.12274], [80.1485, 13.12274], [80.14856, 13.12266], [80.14857, 13.12258], [80.14856, 13.12248], [80.14859, 13.12235], [80.14854, 13.12224], [80.14853, 13.12193], [80.14858, 13.12149], [80.1486, 13.12142], [80.14874, 13.12113], [80.14901, 13.12067], [80.14913, 13.12055], [80.14952, 13.12021], [80.14977, 13.11996], [80.14985, 13.11984], [80.1501, 13.11981], [80.14985, 13.11984], [80.14988, 13.11968], [80.14986, 13.11929], [80.14959, 13.1179], [80.14952, 13.11769], [80.14944, 13.11757], [80.14932, 13.11742], [80.14874, 13.11694], [80.14839, 13.11664], [80.14822, 13.11646], [80.14812, 13.11634], [80.14804, 13.11619], [80.14796, 13.11602], [80.14794, 13.11591], [80.14792, 13.11546], [80.14792, 13.11531], [80.14789, 13.11512], [80.14795, 13.11493], [80.14802, 13.11478], [80.14804, 13.11466], [80.14817, 13.1143], [80.14828, 13.11408], [80.14833, 13.11394], [80.14847, 13.11368], [80.14858, 13.11355], [80.14872, 13.11344], [80.14898, 13.11335], [80.1492, 13.11336], [80.14966, 13.11327], [80.14983, 13.11321], [80.14999, 13.11313], [80.15019, 13.11292], [80.1503, 13.11276], [80.15056, 13.1123], [80.15066, 13.11217], [80.15118, 13.11176], [80.15145, 13.11154], [80.15162, 13.11138], [80.15171, 13.11125], [80.1518, 13.11107], [80.15188, 13.11083], [80.15196, 13.11067], [80.1522, 13.11041], [80.15223, 13.11037], [80.15233, 13.11021], [80.15232, 13.10993], [80.15228, 13.10964], [80.15224, 13.10912], [80.15224, 13.10885], [80.15226, 13.10856], [80.15227, 13.10827], [80.15228, 13.10783], [80.15235, 13.10618], [80.15237, 13.10585], [80.15248, 13.10548], [80.15269, 13.10513], [80.15309, 13.10478], [80.15325, 13.10465], [80.15363, 13.10446], [80.15429, 13.10419], [80.15516, 13.10403], [80.15642, 13.10371], [80.15643, 13.10373], [80.157, 13.10357], [80.15744, 13.10346], [80.15765, 13.10341], [80.15786, 13.10331], [80.15806, 13.10319], [80.15823, 13.10305], [80.15856, 13.10271], [80.15887, 13.10238], [80.15919, 13.10202], [80.15929, 13.1019], [80.1595, 13.1017], [80.15987, 13.1015], [80.16005, 13.10148], [80.161, 13.1015], [80.16169, 13.1015], [80.16231, 13.10146], [80.16232, 13.10147], [80.16286, 13.10138], [80.16322, 13.10132], [80.16366, 13.1012], [80.16467, 13.10087], [80.1664, 13.10032], [80.16705, 13.10013], [80.16781, 13.10006], [80.16951, 13.0999], [80.17006, 13.09981], [80.17032, 13.09979], [80.17112, 13.09964], [80.17234, 13.09923], [80.1731, 13.09895], [80.17412, 13.09851], [80.17456, 13.09835], [80.17496, 13.09825], [80.17514, 13.09822], [80.17552, 13.09819], [80.17585, 13.09818], [80.17624, 13.09814], [80.1766, 13.09805], [80.17699, 13.09799], [80.17758, 13.09792], [80.1782, 13.09788], [80.17866, 13.09788], [80.17922, 13.09793], [80.17948, 13.09797], [80.18023, 13.09815], [80.18066, 13.09827], [80.18174, 13.09852], [80.1827, 13.09873], [80.18377, 13.09905], [80.18462, 13.09932], [80.18489, 13.0994], [80.18685, 13.09985], [80.18688, 13.09985], [80.18715, 13.09992], [80.18758, 13.10006], [80.18782, 13.10014], [80.18819, 13.10028], [80.18857, 13.10045], [80.18888, 13.10064], [80.18916, 13.10083], [80.1895, 13.10112], [80.18968, 13.10121], [80.18982, 13.10126], [80.19041, 13.10144], [80.19096, 13.10154], [80.19211, 13.10172], [80.19335, 13.10191], [80.19382, 13.10202], [80.19389, 13.10204], [80.1939, 13.10206], [80.19394, 13.10211], [80.19398, 13.10215], [80.19403, 13.10219], [80.19417, 13.10223], [80.19429, 13.10224], [80.19441, 13.1022], [80.19451, 13.10214], [80.19456, 13.1021], [80.19457, 13.10207], [80.19458, 13.10205], [80.19479, 13.10203], [80.195, 13.10205], [80.19654, 13.10257], [80.19756, 13.10293], [80.19795, 13.10303], [80.19876, 13.10318], [80.19903, 13.10322], [80.20092, 13.10347], [80.20247, 13.10364], [80.20253, 13.10364], [80.20358, 13.10378], [80.20402, 13.10384], [80.20448, 13.10386], [80.20539, 13.10389], [80.20573, 13.10389], [80.20598, 13.10386], [80.2064, 13.10373], [80.20673, 13.1036], [80.20705, 13.10343], [80.20742, 13.10324], [80.20745, 13.10323], [80.20796, 13.10303], [80.20859, 13.10283], [80.20917, 13.10266], [80.21035, 13.10225], [80.21099, 13.10203], [80.2125, 13.1015], [80.2133, 13.10118], [80.21383, 13.10099], [80.21408, 13.10087], [80.21429, 13.10082], [80.2148, 13.10063], [80.21576, 13.10017], [80.21654, 13.09983], [80.21699, 13.09968], [80.21747, 13.09957], [80.21771, 13.09954], [80.21865, 13.09937], [80.21939, 13.09928], [80.21975, 13.09921], [80.22133, 13.09893], [80.22166, 13.09888], [80.22246, 13.09878], [80.22282, 13.0988], [80.2229, 13.09883], [80.22315, 13.09897], [80.22366, 13.09939], [80.22387, 13.09955], [80.22418, 13.09969], [80.22444, 13.09977], [80.2251, 13.09992], [80.22531, 13.09996], [80.22535, 13.09996], [80.22616, 13.10005], [80.22678, 13.10009], [80.22704, 13.10011], [80.22773, 13.10012], [80.2279, 13.10011], [80.22799, 13.10007], [80.22852, 13.09998], [80.22893, 13.0999], [80.22933, 13.09984], [80.22988, 13.09973], [80.23053, 13.09955], [80.23079, 13.09946], [80.23187, 13.099], [80.23216, 13.0989], [80.2326, 13.0988], [80.23336, 13.09866], [80.23366, 13.09862], [80.23429, 13.09858], [80.23491, 13.09851], [80.23599, 13.09834], [80.23721, 13.09811], [80.23734, 13.09811], [80.23769, 13.09804], [80.23889, 13.09783], [80.23976, 13.09776], [80.24052, 13.09772], [80.24141, 13.09761], [80.24207, 13.09748], [80.24214, 13.09747], [80.24211, 13.09738], [80.24191, 13.09674], [80.24183, 13.09634], [80.24172, 13.09599], [80.24163, 13.09575], [80.24145, 13.0952], [80.24135, 13.09476], [80.24124, 13.09426], [80.24106, 13.09333], [80.24095, 13.09249], [80.24088, 13.09139], [80.24088, 13.09118], [80.24086, 13.09053], [80.24089, 13.09018], [80.24096, 13.08994], [80.24107, 13.08972], [80.2414, 13.08922], [80.24193, 13.08849], [80.24222, 13.08812], [80.24234, 13.08803], [80.24274, 13.08794], [80.24322, 13.08786], [80.24338, 13.08781], [80.24362, 13.08767], [80.24381, 13.0875], [80.24391, 13.0874], [80.24415, 13.08707], [80.24475, 13.08636], [80.24523, 13.08579], [80.24533, 13.08573], [80.24526, 13.08554], [80.24513, 13.0853], [80.24458, 13.08425], [80.24414, 13.08334], [80.24405, 13.0832], [80.24373, 13.08244], [80.24381, 13.08229], [80.24391, 13.08221], [80.24403, 13.08211], [80.24429, 13.08206], [80.24479, 13.08193], [80.24514, 13.08182], [80.2458, 13.0817], [80.247, 13.08158], [80.24841, 13.08152], [80.24889, 13.08152], [80.24927, 13.08147], [80.24947, 13.08144], [80.24969, 13.08201], [80.2498, 13.08242], [80.24991, 13.08317], [80.25005, 13.08387], [80.25023, 13.08483], [80.25039, 13.0859], [80.25043, 13.08597], [80.25054, 13.08591], [80.25062, 13.0859], [80.25084, 13.08587], [80.25127, 13.08583], [80.2521, 13.08569], [80.25289, 13.08561], [80.25311, 13.08558], [80.25336, 13.08558], [80.25392, 13.0856], [80.25446, 13.08568], [80.25454, 13.08564], [80.2546, 13.0856], [80.25465, 13.08556], [80.25459, 13.08475], [80.25454, 13.08403], [80.25452, 13.08371], [80.2546, 13.0837], [80.25452, 13.08371], [80.25449, 13.08336], [80.25446, 13.08271], [80.25444, 13.08229], [80.25482, 13.08162], [80.25483, 13.08113], [80.25477, 13.08081], [80.25461, 13.07982], [80.25455, 13.07955], [80.25455, 13.07941], [80.25461, 13.079], [80.25571, 13.07908], [80.25651, 13.07917], [80.25715, 13.07922], [80.25874, 13.0794], [80.25985, 13.07953], [80.25977, 13.07951], [80.26017, 13.07958], [80.26068, 13.07968], [80.2611, 13.0798], [80.26153, 13.07999], [80.2617, 13.08006], [80.26211, 13.0802], [80.26341, 13.08047], [80.26481, 13.08074], [80.26519, 13.0808], [80.26545, 13.08082], [80.26692, 13.08079], [80.26811, 13.08079], [80.27012, 13.08085], [80.27072, 13.08091], [80.27097, 13.08101], [80.27124, 13.08109], [80.27179, 13.08123], [80.27331, 13.08151], [80.27395, 13.08162], [80.27516, 13.08172], [80.27537, 13.08172], [80.27589, 13.08179], [80.27623, 13.08187], [80.27793, 13.08212], [80.27897, 13.08221], [80.27896, 13.08219], [80.27904, 13.08219], [80.28002, 13.08228], [80.28098, 13.08235], [80.28164, 13.08238], [80.282, 13.08297], [80.28205, 13.08296], [80.28253, 13.08375], [80.28303, 13.08448], [80.28334, 13.08483], [80.2835, 13.08495], [80.28367, 13.08506], [80.28368, 13.08523], [80.28366, 13.08536], [80.2836, 13.08549], [80.28349, 13.08552], [80.2835, 13.08571], [80.28351, 13.08613], [80.28353, 13.08629], [80.28358, 13.08638], [80.28369, 13.08696], [80.28373, 13.08756], [80.28372, 13.08806]]}}]}