{"type": "FeatureCollection", "features": [{"type": "Feature", "properties": {"route_name": "72", "stop_id": "eTJQHplR", "name": "Thiyagaraya Nagar Bus Depot", "city": "CHENNAI"}, "geometry": {"type": "Point", "coordinates": [80.23005108, 13.03449501]}}, {"type": "Feature", "properties": {"route_name": "72", "stop_id": "XqVVjUzr", "name": "Panagal Park", "city": "CHENNAI"}, "geometry": {"type": "Point", "coordinates": [80.23215385272772, 13.042250988051531]}}, {"type": "Feature", "properties": {"route_name": "72", "stop_id": "vpctkpYQ", "name": "Mahalingapuram", "city": "CHENNAI"}, "geometry": {"type": "Point", "coordinates": [80.23197049611201, 13.053932382285767]}}, {"type": "Feature", "properties": {"route_name": "72", "stop_id": "STSGJiIu", "name": "Liberty", "city": "CHENNAI"}, "geometry": {"type": "Point", "coordinates": [80.22726756362397, 13.053777574432031]}}, {"type": "Feature", "properties": {"route_name": "72", "stop_id": "TdfMaTlB", "name": "Trustpuram", "city": "CHENNAI"}, "geometry": {"type": "Point", "coordinates": [80.22157782957811, 13.052619667107582]}}, {"type": "Feature", "properties": {"route_name": "72", "stop_id": "SvGtXrYj", "name": "Power House Kodambakkam", "city": "CHENNAI"}, "geometry": {"type": "Point", "coordinates": [80.22030329254619, 13.051853546689694]}}, {"type": "Feature", "properties": {"route_name": "72", "stop_id": "OPXtWBVk", "name": "Saamiyar Madam", "city": "CHENNAI"}, "geometry": {"type": "Point", "coordinates": [80.21892979702, 13.046827652281399]}}, {"type": "Feature", "properties": {"route_name": "72", "stop_id": "CsDsDrdU", "name": "Vadapalani", "city": "CHENNAI"}, "geometry": {"type": "Point", "coordinates": [80.21209075756212, 13.047010729182706]}}, {"type": "Feature", "properties": {"route_name": "72", "stop_id": "dbPZeeiE", "name": "Thirunagar", "city": "CHENNAI"}, "geometry": {"type": "Point", "coordinates": [80.21129589617203, 13.057412967254244]}}, {"type": "Feature", "properties": {"route_name": "72", "stop_id": "LKVeVUNI", "name": "MMDA Colony Road Junction", "city": "CHENNAI"}, "geometry": {"type": "Point", "coordinates": [80.21088309688639, 13.065076031462795]}}, {"type": "Feature", "properties": {"route_name": "72", "stop_id": "BpAiVnps", "name": "CMBT Koyembedu Bus Depot", "city": "CHENNAI"}, "geometry": {"type": "Point", "coordinates": [80.20518932458458, 13.068981607807045]}}, {"type": "Feature", "properties": {"route_name": "72", "stop_id": "RVGhYAxc", "name": "Koyambedu Chathiram", "city": "CHENNAI"}, "geometry": {"type": "Point", "coordinates": [80.19986513405274, 13.074022468293892]}}, {"type": "Feature", "properties": {"route_name": "72", "stop_id": "xGsoSfhX", "name": "Rohini Theatre", "city": "CHENNAI"}, "geometry": {"type": "Point", "coordinates": [80.19558267913771, 13.075037939301021]}}, {"type": "Feature", "properties": {"route_name": "72", "stop_id": "YULSfngF", "name": "Nerkundram", "city": "CHENNAI"}, "geometry": {"type": "Point", "coordinates": [80.18650393157316, 13.071495474785094]}}, {"type": "Feature", "properties": {"route_name": "72", "stop_id": "UUCrlfWg", "name": "Vengaya Mandi", "city": "CHENNAI"}, "geometry": {"type": "Point", "coordinates": [80.18169536739595, 13.069774564335992]}}, {"type": "Feature", "properties": {"route_name": "72", "stop_id": "eXTjiXiW", "name": "Maduravoyal Ration Shop", "city": "CHENNAI"}, "geometry": {"type": "Point", "coordinates": [80.17526153142762, 13.066797109963272]}}, {"type": "Feature", "properties": {"route_name": "72", "stop_id": "xQSKBJml", "name": "Maduravoyal Post Office", "city": "CHENNAI"}, "geometry": {"type": "Point", "coordinates": [80.17156595752385, 13.064258980755582]}}, {"type": "Feature", "properties": {"route_name": "72", "stop_id": "SwLVnWPq", "name": "Maduravoyal", "city": "CHENNAI"}, "geometry": {"type": "Point", "coordinates": [80.16697852901348, 13.062868952508325]}}, {"type": "Feature", "properties": {"route_name": "72", "stop_id": "oiYuCTCe", "name": "Maduravoyal Yerikarai", "city": "CHENNAI"}, "geometry": {"type": "Point", "coordinates": [80.16451631482187, 13.061180076950619]}}, {"type": "Feature", "properties": {"route_name": "72", "stop_id": "MkXEUCdM", "name": "Vaanagaram", "city": "CHENNAI"}, "geometry": {"type": "Point", "coordinates": [80.15497012171363, 13.060430632661532]}}, {"type": "Feature", "properties": {"route_name": "72", "stop_id": "rSdxnGDj", "name": "Kumar Theatre", "city": "CHENNAI"}, "geometry": {"type": "Point", "coordinates": [80.1497045817789, 13.061932008747092]}}, {"type": "Feature", "properties": {"route_name": "72", "stop_id": "otuYkIZd", "name": "Velappanchavadi", "city": "CHENNAI"}, "geometry": {"type": "Point", "coordinates": [80.13856109898961, 13.061119795531404]}}, {"type": "Feature", "properties": {"route_name": "72", "stop_id": "ygVaThfM", "name": "Perumal Nagar Junction", "city": "CHENNAI"}, "geometry": {"type": "Point", "coordinates": [80.13759295315333, 13.065799420883277]}}, {"type": "Feature", "properties": {"route_name": "72", "stop_id": "kLfGGOkq", "name": "Perumalagaram", "city": "CHENNAI"}, "geometry": {"type": "Point", "coordinates": [80.1358764779635, 13.066658979795397]}}, {"type": "Feature", "properties": {"route_name": "72", "stop_id": "HMiMHaRv", "name": "Thiruverkadu MGR Nagar", "city": "CHENNAI"}, "geometry": {"type": "Point", "coordinates": [80.12936948600293, 13.06762214402189]}}, {"type": "Feature", "properties": {"route_name": "72", "stop_id": "CoFyQOTC", "name": "Gurimedai", "city": "CHENNAI"}, "geometry": {"type": "Point", "coordinates": [80.12600577537796, 13.068305390463317]}}, {"type": "Feature", "properties": {"route_name": "72", "stop_id": "jnDfAorM", "name": "Thiruverkadu Terminus", "city": "CHENNAI"}, "geometry": {"type": "Point", "coordinates": [80.1239847902782, 13.069351214248936]}}, {"type": "Feature", "properties": {"name": "72"}, "geometry": {"type": "LineString", "coordinates": [[80.23002, 13.0345], [80.23002, 13.03423], [80.23038, 13.0342], [80.23033, 13.03436], [80.23029, 13.03467], [80.23019, 13.035], [80.23018, 13.03501], [80.23017, 13.03502], [80.23016, 13.03505], [80.23016, 13.03507], [80.23018, 13.03512], [80.2302, 13.03513], [80.23026, 13.03538], [80.2306, 13.03649], [80.23066, 13.03672], [80.23065, 13.03676], [80.23079, 13.03719], [80.23108, 13.03817], [80.23154, 13.03979], [80.23177, 13.0406], [80.23196, 13.0409], [80.23198, 13.041], [80.2321, 13.04146], [80.23217, 13.04185], [80.23222, 13.0422], [80.23222, 13.04214], [80.23222, 13.0422], [80.23222, 13.04225], [80.23227, 13.04299], [80.23226, 13.04361], [80.23242, 13.04457], [80.23247, 13.04474], [80.23254, 13.04509], [80.23261, 13.04548], [80.23275, 13.04617], [80.23291, 13.04693], [80.23317, 13.04823], [80.2334, 13.04924], [80.23351, 13.04967], [80.23374, 13.05092], [80.23401, 13.05216], [80.23425, 13.05303], [80.23447, 13.05372], [80.23299, 13.05388], [80.23198, 13.05399], [80.23411, 13.05376], [80.23428, 13.05375], [80.23392, 13.05385], [80.23263, 13.05398], [80.23168, 13.05406], [80.23113, 13.05408], [80.22988, 13.05407], [80.22839, 13.05404], [80.22805, 13.05397], [80.22726, 13.05388], [80.22561, 13.05365], [80.22404, 13.05334], [80.22296, 13.05309], [80.22239, 13.05294], [80.22155, 13.05268], [80.22156, 13.05269], [80.22035, 13.05237], [80.22024, 13.05187], [80.22018, 13.05163], [80.22005, 13.05129], [80.2198, 13.05038], [80.2195, 13.0492], [80.21935, 13.04858], [80.21886, 13.04684], [80.21857, 13.04574], [80.2184, 13.04518], [80.21825, 13.04491], [80.21769, 13.0441], [80.21742, 13.04371], [80.21737, 13.04375], [80.217, 13.04405], [80.21656, 13.04427], [80.21587, 13.04448], [80.21561, 13.04453], [80.21512, 13.04457], [80.21478, 13.04459], [80.21354, 13.04448], [80.21281, 13.04445], [80.2125, 13.04444], [80.2124, 13.04438], [80.21221, 13.04431], [80.21221, 13.04442], [80.21221, 13.04511], [80.21214, 13.04701], [80.21208, 13.04835], [80.21201, 13.04926], [80.21199, 13.04971], [80.21199, 13.05016], [80.21204, 13.05097], [80.21208, 13.05159], [80.21208, 13.05187], [80.21204, 13.05212], [80.21194, 13.05252], [80.21186, 13.0526], [80.21179, 13.05289], [80.21163, 13.0535], [80.21143, 13.05441], [80.21139, 13.0547], [80.21139, 13.05537], [80.21141, 13.05741], [80.21139, 13.05741], [80.21141, 13.05802], [80.21142, 13.05879], [80.21151, 13.06072], [80.21154, 13.06162], [80.21155, 13.06199], [80.21154, 13.0625], [80.21151, 13.06302], [80.21142, 13.06408], [80.21126, 13.06458], [80.211, 13.06507], [80.21097, 13.06513], [80.21051, 13.0657], [80.20968, 13.06669], [80.20892, 13.06729], [80.20801, 13.06777], [80.20737, 13.06823], [80.20683, 13.06858], [80.20623, 13.06899], [80.20568, 13.0693], [80.2054, 13.06908], [80.20519, 13.06918], [80.20495, 13.06924], [80.20475, 13.06948], [80.20488, 13.06978], [80.20453, 13.07005], [80.20375, 13.07064], [80.20319, 13.07113], [80.20259, 13.07168], [80.20164, 13.07251], [80.20077, 13.0733], [80.1999, 13.07404], [80.19991, 13.07407], [80.19945, 13.07447], [80.19924, 13.07473], [80.19915, 13.07494], [80.19906, 13.07527], [80.19905, 13.07536], [80.19888, 13.0756], [80.19871, 13.07577], [80.1986, 13.07581], [80.19852, 13.07582], [80.19825, 13.07576], [80.19741, 13.07552], [80.19666, 13.07532], [80.19653, 13.07531], [80.1964, 13.07531], [80.19592, 13.0752], [80.1956, 13.0751], [80.19556, 13.07509], [80.19526, 13.07496], [80.19513, 13.07488], [80.1947, 13.07452], [80.1945, 13.07431], [80.19442, 13.07428], [80.19422, 13.0742], [80.19394, 13.07409], [80.19371, 13.07406], [80.1935, 13.07405], [80.19235, 13.0741], [80.1916, 13.07411], [80.19114, 13.0741], [80.19102, 13.07407], [80.1909, 13.07401], [80.19075, 13.07389], [80.19046, 13.07364], [80.18987, 13.07314], [80.18947, 13.07288], [80.18905, 13.07267], [80.18804, 13.0722], [80.18706, 13.07178], [80.18648, 13.07155], [80.18568, 13.07133], [80.18483, 13.07113], [80.18388, 13.0709], [80.18332, 13.07068], [80.18289, 13.07049], [80.18251, 13.07034], [80.18189, 13.07], [80.18166, 13.06984], [80.1811, 13.06941], [80.18044, 13.06895], [80.18014, 13.06873], [80.17979, 13.06852], [80.17858, 13.06771], [80.1783, 13.06756], [80.17818, 13.06753], [80.17782, 13.06742], [80.17653, 13.06743], [80.17618, 13.06738], [80.17598, 13.06733], [80.17583, 13.06725], [80.17563, 13.06712], [80.17524, 13.06683], [80.17423, 13.06617], [80.17305, 13.06539], [80.17209, 13.06467], [80.17182, 13.06448], [80.17163, 13.06439], [80.17153, 13.06434], [80.17134, 13.06425], [80.17098, 13.06415], [80.17058, 13.0641], [80.17003, 13.0641], [80.16924, 13.06414], [80.16885, 13.06413], [80.16858, 13.06407], [80.1684, 13.06401], [80.1681, 13.06389], [80.16783, 13.06371], [80.16709, 13.06312], [80.1669, 13.06296], [80.16634, 13.06245], [80.16606, 13.06219], [80.16573, 13.06184], [80.16558, 13.06169], [80.16544, 13.06159], [80.16517, 13.06145], [80.16464, 13.06129], [80.1645, 13.06126], [80.16421, 13.06121], [80.1639, 13.0612], [80.16295, 13.06122], [80.1621, 13.06127], [80.16111, 13.0613], [80.16056, 13.06131], [80.15983, 13.06138], [80.15834, 13.06159], [80.15799, 13.0616], [80.15766, 13.06155], [80.1574, 13.06147], [80.15708, 13.06133], [80.15641, 13.06096], [80.15587, 13.06071], [80.1556, 13.06061], [80.15521, 13.06054], [80.15496, 13.06052], [80.1548, 13.06052], [80.15436, 13.06057], [80.15295, 13.06083], [80.15238, 13.061], [80.15204, 13.06114], [80.15081, 13.0618], [80.15048, 13.06194], [80.15016, 13.06201], [80.1497, 13.06203], [80.14732, 13.06198], [80.14687, 13.06195], [80.14617, 13.06186], [80.14385, 13.06159], [80.14194, 13.06143], [80.13976, 13.06128], [80.13856, 13.06121], [80.13856, 13.0612], [80.13836, 13.06119], [80.13835, 13.06128], [80.13837, 13.06145], [80.13839, 13.06161], [80.13848, 13.06265], [80.13846, 13.06287], [80.13821, 13.0632], [80.13817, 13.06328], [80.13815, 13.06338], [80.13825, 13.06387], [80.13828, 13.06407], [80.13828, 13.06418], [80.13827, 13.06422], [80.13823, 13.06424], [80.13813, 13.06427], [80.13769, 13.06429], [80.13758, 13.06433], [80.13752, 13.06437], [80.13749, 13.06449], [80.13764, 13.06549], [80.13764, 13.06567], [80.13758, 13.06581], [80.13752, 13.06586], [80.13744, 13.06588], [80.13685, 13.0659], [80.13652, 13.06592], [80.13646, 13.06595], [80.13644, 13.06605], [80.1365, 13.06636], [80.13651, 13.06648], [80.13649, 13.06655], [80.13645, 13.06659], [80.13638, 13.06662], [80.13588, 13.06669], [80.13557, 13.06674], [80.13482, 13.06678], [80.13417, 13.06686], [80.13283, 13.06708], [80.13263, 13.06714], [80.13207, 13.06736], [80.13174, 13.06748], [80.13148, 13.06755], [80.13075, 13.06765], [80.13052, 13.06767], [80.13019, 13.06764], [80.12979, 13.06762], [80.1295, 13.06764], [80.12938, 13.06767], [80.12837, 13.06791], [80.12798, 13.06799], [80.12753, 13.06806], [80.12719, 13.06812], [80.12684, 13.06821], [80.12602, 13.06836], [80.1254, 13.06849], [80.12511, 13.06857], [80.12441, 13.06876], [80.12415, 13.06887], [80.12413, 13.06893], [80.12412, 13.06905], [80.12414, 13.06917], [80.12416, 13.06933]]}}]}