{"type": "FeatureCollection", "features": [{"type": "Feature", "properties": {"route_name": "62M", "stop_id": "WKWTpoqQ", "name": "MMBT", "city": "CHENNAI"}, "geometry": {"type": "Point", "coordinates": [80.221506, 13.145276]}}, {"type": "Feature", "properties": {"route_name": "62M", "stop_id": "pzcCDVmZ", "name": "Madhavaram Rountana", "city": "CHENNAI"}, "geometry": {"type": "Point", "coordinates": [80.21932189565132, 13.145031360715578]}}, {"type": "Feature", "properties": {"route_name": "62M", "stop_id": "TCBUGaZf", "name": "Kathirvedu Bypass", "city": "CHENNAI"}, "geometry": {"type": "Point", "coordinates": [80.20824812807405, 13.15314502790998]}}, {"type": "Feature", "properties": {"route_name": "62M", "stop_id": "hSdNxZqe", "name": "Puzhal Camp", "city": "CHENNAI"}, "geometry": {"type": "Point", "coordinates": [80.20311292900305, 13.158203557966363]}}, {"type": "Feature", "properties": {"route_name": "62M", "stop_id": "MjMDaXaP", "name": "Chocolate Company", "city": "CHENNAI"}, "geometry": {"type": "Point", "coordinates": [80.19472969955496, 13.15375873255666]}}, {"type": "Feature", "properties": {"route_name": "62M", "stop_id": "wPeqfEci", "name": "Velammal College", "city": "CHENNAI"}, "geometry": {"type": "Point", "coordinates": [80.19151428849432, 13.150784906077709]}}, {"type": "Feature", "properties": {"route_name": "62M", "stop_id": "ZNjvBYak", "name": "Surapet", "city": "CHENNAI"}, "geometry": {"type": "Point", "coordinates": [80.18823112372934, 13.144222246275296]}}, {"type": "Feature", "properties": {"route_name": "62M", "stop_id": "ULMVzkWs", "name": "Sivaprakasam Nagar", "city": "CHENNAI"}, "geometry": {"type": "Point", "coordinates": [80.18552071252373, 13.142481954997585]}}, {"type": "Feature", "properties": {"route_name": "62M", "stop_id": "kFSxtGUW", "name": "Shanmugapuram", "city": "CHENNAI"}, "geometry": {"type": "Point", "coordinates": [80.18080595836261, 13.140628262131404]}}, {"type": "Feature", "properties": {"route_name": "62M", "stop_id": "fytASSfG", "name": "Kallikuppam Tea Kadai Bus Stop", "city": "CHENNAI"}, "geometry": {"type": "Point", "coordinates": [80.17376751539803, 13.133111558950002]}}, {"type": "Feature", "properties": {"route_name": "62M", "stop_id": "QewuHWYk", "name": "Kallikuppam", "city": "CHENNAI"}, "geometry": {"type": "Point", "coordinates": [80.17183159839908, 13.132059569884227]}}, {"type": "Feature", "properties": {"route_name": "62M", "stop_id": "vizUtPmY", "name": "Kallikuppam Koil", "city": "CHENNAI"}, "geometry": {"type": "Point", "coordinates": [80.1695383796814, 13.13200097165418]}}, {"type": "Feature", "properties": {"route_name": "62M", "stop_id": "dAjqsFfg", "name": "Wireless Company", "city": "CHENNAI"}, "geometry": {"type": "Point", "coordinates": [80.16531572264012, 13.131879192276259]}}, {"type": "Feature", "properties": {"route_name": "62M", "stop_id": "tJbXQuOE", "name": "Pudur", "city": "CHENNAI"}, "geometry": {"type": "Point", "coordinates": [80.15855955729944, 13.130294007943425]}}, {"type": "Feature", "properties": {"route_name": "62M", "stop_id": "CpULuhdq", "name": "Oragadam", "city": "CHENNAI"}, "geometry": {"type": "Point", "coordinates": [80.15391915598434, 13.127228993377432]}}, {"type": "Feature", "properties": {"route_name": "62M", "stop_id": "iMjvswBX", "name": "Oragadam OT", "city": "CHENNAI"}, "geometry": {"type": "Point", "coordinates": [80.15095091215971, 13.124046860850612]}}, {"type": "Feature", "properties": {"route_name": "62M", "stop_id": "wFSILCzc", "name": "Raaki Theatre", "city": "CHENNAI"}, "geometry": {"type": "Point", "coordinates": [80.1479253780052, 13.121795406853309]}}, {"type": "Feature", "properties": {"route_name": "62M", "stop_id": "FlYjxOxQ", "name": "Stedford Hospital", "city": "CHENNAI"}, "geometry": {"type": "Point", "coordinates": [80.14358188300969, 13.124411446947889]}}, {"type": "Feature", "properties": {"route_name": "62M", "stop_id": "GkYZbgqg", "name": "Saraswathi Nagar CTH Salai", "city": "CHENNAI"}, "geometry": {"type": "Point", "coordinates": [80.13964594131141, 13.128044553010751]}}, {"type": "Feature", "properties": {"route_name": "62M", "stop_id": "FStgRiBS", "name": "Manikandapuram", "city": "CHENNAI"}, "geometry": {"type": "Point", "coordinates": [80.13632670464676, 13.13041694949477]}}, {"type": "Feature", "properties": {"route_name": "62M", "stop_id": "XiLvnZTk", "name": "Thirumullaivoyal", "city": "CHENNAI"}, "geometry": {"type": "Point", "coordinates": [80.13103425086297, 13.130727007064682]}}, {"type": "Feature", "properties": {"route_name": "62M", "stop_id": "Vlipnutt", "name": "Vaishnavi Nagar", "city": "CHENNAI"}, "geometry": {"type": "Point", "coordinates": [80.12504772543741, 13.129621709283668]}}, {"type": "Feature", "properties": {"route_name": "62M", "stop_id": "bHagonKv", "name": "Murugappa Polytechnic", "city": "CHENNAI"}, "geometry": {"type": "Point", "coordinates": [80.1191290174753, 13.125786743953624]}}, {"type": "Feature", "properties": {"route_name": "62M", "stop_id": "PhjcDdmq", "name": "Tube Products of India", "city": "CHENNAI"}, "geometry": {"type": "Point", "coordinates": [80.112518168713, 13.12331203321694]}}, {"type": "Feature", "properties": {"route_name": "62M", "stop_id": "vacPrbQA", "name": "Avadi Terminal", "city": "CHENNAI"}, "geometry": {"type": "Point", "coordinates": [80.1016854896684, 13.119663764119714]}}, {"type": "Feature", "properties": {"route_name": "62M", "stop_id": "eiOwifcC", "name": "Avadi Check Post", "city": "CHENNAI"}, "geometry": {"type": "Point", "coordinates": [80.09503036492129, 13.119039724937316]}}, {"type": "Feature", "properties": {"route_name": "62M", "stop_id": "waZdIIZY", "name": "Ramarathna Theatre", "city": "CHENNAI"}, "geometry": {"type": "Point", "coordinates": [80.09636722918401, 13.117214657252083]}}, {"type": "Feature", "properties": {"route_name": "62M", "stop_id": "qNiTyrkl", "name": "Kannigapuram", "city": "CHENNAI"}, "geometry": {"type": "Point", "coordinates": [80.10061571274105, 13.11658788032437]}}, {"type": "Feature", "properties": {"route_name": "62M", "stop_id": "FldHcjZC", "name": "Avadi Market", "city": "CHENNAI"}, "geometry": {"type": "Point", "coordinates": [80.10516119236684, 13.115763105815745]}}, {"type": "Feature", "properties": {"route_name": "62M", "stop_id": "LOIXCDqJ", "name": "Avadi Mosque", "city": "CHENNAI"}, "geometry": {"type": "Point", "coordinates": [80.10818089407599, 13.114332177367336]}}, {"type": "Feature", "properties": {"route_name": "62M", "stop_id": "UhAwQaaX", "name": "JB Estate", "city": "CHENNAI"}, "geometry": {"type": "Point", "coordinates": [80.10860694290795, 13.111530277127752]}}, {"type": "Feature", "properties": {"route_name": "62M", "stop_id": "LYitljhu", "name": "Vasantham Nagar", "city": "CHENNAI"}, "geometry": {"type": "Point", "coordinates": [80.10847133702657, 13.10540426826048]}}, {"type": "Feature", "properties": {"route_name": "62M", "stop_id": "gyedwqXM", "name": "Moorthy Nagar", "city": "CHENNAI"}, "geometry": {"type": "Point", "coordinates": [80.10836870062587, 13.102685813381397]}}, {"type": "Feature", "properties": {"route_name": "62M", "stop_id": "BJDTCJYP", "name": "Govardanagiri", "city": "CHENNAI"}, "geometry": {"type": "Point", "coordinates": [80.10837272705714, 13.098411494909767]}}, {"type": "Feature", "properties": {"route_name": "62M", "stop_id": "VMzKgUSR", "name": "Iyankulam", "city": "CHENNAI"}, "geometry": {"type": "Point", "coordinates": [80.10846517244875, 13.093608338886707]}}, {"type": "Feature", "properties": {"route_name": "62M", "stop_id": "GJEXlFdt", "name": "Paruthipattu Road Junction", "city": "CHENNAI"}, "geometry": {"type": "Point", "coordinates": [80.10868127824097, 13.086550268903975]}}, {"type": "Feature", "properties": {"route_name": "62M", "stop_id": "dgLtpUgu", "name": "Melpakkam", "city": "CHENNAI"}, "geometry": {"type": "Point", "coordinates": [80.10932121538963, 13.081671637370007]}}, {"type": "Feature", "properties": {"route_name": "62M", "stop_id": "NRaiNGwl", "name": "Kaduvetti", "city": "CHENNAI"}, "geometry": {"type": "Point", "coordinates": [80.11062171368462, 13.078228154870448]}}, {"type": "Feature", "properties": {"route_name": "62M", "stop_id": "RFLUsFpq", "name": "Panchayat Board", "city": "CHENNAI"}, "geometry": {"type": "Point", "coordinates": [80.11175563661038, 13.074885880231145]}}, {"type": "Feature", "properties": {"route_name": "62M", "stop_id": "apOzgzFy", "name": "Veeraraghavapuram", "city": "CHENNAI"}, "geometry": {"type": "Point", "coordinates": [80.11275318532807, 13.070507962167836]}}, {"type": "Feature", "properties": {"route_name": "62M", "stop_id": "qLQHuyIe", "name": "SA Engineering college", "city": "CHENNAI"}, "geometry": {"type": "Point", "coordinates": [80.11255676021074, 13.066286236636065]}}, {"type": "Feature", "properties": {"route_name": "62M", "stop_id": "jSSkauKM", "name": "Vathal Thottam", "city": "CHENNAI"}, "geometry": {"type": "Point", "coordinates": [80.11298909380935, 13.06203625655518]}}, {"type": "Feature", "properties": {"route_name": "62M", "stop_id": "JbCujTci", "name": "Parivakkam Signal", "city": "CHENNAI"}, "geometry": {"type": "Point", "coordinates": [80.09766351506453, 13.056485001289191]}}, {"type": "Feature", "properties": {"route_name": "62M", "stop_id": "LAmktnrq", "name": "BSNL Exchange", "city": "CHENNAI"}, "geometry": {"type": "Point", "coordinates": [80.08898392606743, 13.049580094385309]}}, {"type": "Feature", "properties": {"route_name": "62M", "stop_id": "qflzswAf", "name": "Poonamallee Terminus", "city": "CHENNAI"}, "geometry": {"type": "Point", "coordinates": [80.09486902391961, 13.051775993180485]}}, {"type": "Feature", "properties": {"name": "62M"}, "geometry": {"type": "LineString", "coordinates": [[80.22179, 13.1449], [80.22207, 13.14479], [80.22215, 13.14506], [80.22297, 13.14697], [80.22152, 13.14755], [80.22091, 13.14607], [80.2206, 13.14528], [80.22059, 13.14509], [80.2206, 13.14472], [80.22061, 13.14466], [80.2206, 13.14445], [80.22052, 13.14429], [80.2204, 13.14417], [80.22021, 13.14409], [80.22004, 13.14409], [80.21993, 13.14412], [80.21983, 13.14417], [80.21969, 13.14432], [80.21964, 13.14443], [80.21963, 13.14449], [80.21954, 13.1447], [80.21938, 13.14501], [80.21934, 13.14505], [80.2181, 13.14593], [80.21532, 13.14795], [80.21444, 13.14859], [80.2132, 13.14952], [80.21123, 13.15102], [80.20981, 13.1521], [80.20965, 13.15221], [80.20961, 13.1522], [80.20953, 13.15224], [80.20917, 13.15245], [80.209, 13.15259], [80.20888, 13.15269], [80.20832, 13.15312], [80.20826, 13.15316], [80.20687, 13.15421], [80.20597, 13.15496], [80.2055, 13.15544], [80.20497, 13.15601], [80.2046, 13.15648], [80.20441, 13.15678], [80.20418, 13.15714], [80.204, 13.15747], [80.20384, 13.15773], [80.2037, 13.1579], [80.20326, 13.15826], [80.20311, 13.15824], [80.20286, 13.15823], [80.20262, 13.15825], [80.20211, 13.15833], [80.20085, 13.15855], [80.19989, 13.15868], [80.1984, 13.1589], [80.19803, 13.15897], [80.19794, 13.15898], [80.19781, 13.15896], [80.19748, 13.15883], [80.19726, 13.15872], [80.19696, 13.1585], [80.19685, 13.15835], [80.19679, 13.15823], [80.19669, 13.15788], [80.1965, 13.1572], [80.19645, 13.15701], [80.1964, 13.15672], [80.19641, 13.1565], [80.19646, 13.15621], [80.19655, 13.15592], [80.19659, 13.15576], [80.19659, 13.15558], [80.19656, 13.15544], [80.1965, 13.15525], [80.19639, 13.15504], [80.19626, 13.15493], [80.19612, 13.15486], [80.19591, 13.1548], [80.19519, 13.15465], [80.19506, 13.15459], [80.19495, 13.15446], [80.19489, 13.15435], [80.19469, 13.15377], [80.19449, 13.15332], [80.19437, 13.15311], [80.19403, 13.15267], [80.19389, 13.15251], [80.1937, 13.15235], [80.19198, 13.15112], [80.19151, 13.15079], [80.19106, 13.15046], [80.19017, 13.14981], [80.18967, 13.14939], [80.18947, 13.14924], [80.1894, 13.14917], [80.18931, 13.14902], [80.18925, 13.14885], [80.18918, 13.14855], [80.18904, 13.14791], [80.18875, 13.14641], [80.1887, 13.14614], [80.18858, 13.14564], [80.18831, 13.14448], [80.18822, 13.14423], [80.1881, 13.14398], [80.18792, 13.14372], [80.18777, 13.14358], [80.18765, 13.1435], [80.18693, 13.14317], [80.1855, 13.14253], [80.18333, 13.14151], [80.18299, 13.14136], [80.18264, 13.14124], [80.18115, 13.14081], [80.18078, 13.14069], [80.18046, 13.14055], [80.18021, 13.14039], [80.18009, 13.1403], [80.17984, 13.14004], [80.17802, 13.13802], [80.1773, 13.1372], [80.17695, 13.1368], [80.17621, 13.13598], [80.17484, 13.13449], [80.17444, 13.13398], [80.17424, 13.1337], [80.17399, 13.13342], [80.17377, 13.13316], [80.17374, 13.13314], [80.17331, 13.13262], [80.17306, 13.13235], [80.17293, 13.13227], [80.17273, 13.1322], [80.17255, 13.13217], [80.17183, 13.13213], [80.16954, 13.13206], [80.16531, 13.13198], [80.16474, 13.13194], [80.16391, 13.13181], [80.16263, 13.13155], [80.16125, 13.13131], [80.16055, 13.1312], [80.16024, 13.13112], [80.15997, 13.13103], [80.15876, 13.13052], [80.15851, 13.13041], [80.15791, 13.13015], [80.15703, 13.12955], [80.15555, 13.12853], [80.15523, 13.12829], [80.15469, 13.12794], [80.15432, 13.12768], [80.15413, 13.12754], [80.154, 13.12744], [80.15394, 13.12738], [80.15396, 13.1273], [80.15397, 13.12724], [80.15394, 13.12738], [80.1539, 13.12734], [80.15376, 13.12711], [80.15322, 13.12612], [80.15263, 13.12512], [80.15256, 13.12502], [80.15244, 13.12492], [80.15209, 13.12474], [80.15092, 13.1241], [80.14986, 13.12351], [80.14957, 13.12336], [80.14914, 13.1231], [80.14894, 13.12296], [80.14878, 13.12279], [80.14872, 13.12271], [80.14867, 13.12255], [80.14861, 13.12236], [80.14855, 13.12193], [80.14855, 13.12162], [80.14849, 13.12156], [80.14843, 13.12152], [80.14815, 13.12171], [80.148, 13.12181], [80.14795, 13.12184], [80.14716, 13.12227], [80.14614, 13.12287], [80.14517, 13.12345], [80.1437, 13.12435], [80.1436, 13.12443], [80.14304, 13.1248], [80.14166, 13.12565], [80.14133, 13.12594], [80.14098, 13.12636], [80.14017, 13.12741], [80.13968, 13.12807], [80.13898, 13.12902], [80.13838, 13.12973], [80.13806, 13.13003], [80.13789, 13.13016], [80.13778, 13.13021], [80.13743, 13.13031], [80.13696, 13.1304], [80.13634, 13.13049], [80.13518, 13.13068], [80.13498, 13.1307], [80.13467, 13.13072], [80.13343, 13.13074], [80.1311, 13.13076], [80.13104, 13.13076], [80.13059, 13.13079], [80.12932, 13.13107], [80.12822, 13.13133], [80.12784, 13.13137], [80.12745, 13.13134], [80.12728, 13.13131], [80.12713, 13.13127], [80.12698, 13.1312], [80.12671, 13.13102], [80.12635, 13.13078], [80.12583, 13.13039], [80.12526, 13.12992], [80.12499, 13.12967], [80.12475, 13.12944], [80.1237, 13.12855], [80.12293, 13.12793], [80.12185, 13.12705], [80.1212, 13.12649], [80.12092, 13.12636], [80.12035, 13.12617], [80.11982, 13.12603], [80.11912, 13.12583], [80.11873, 13.12572], [80.11769, 13.12533], [80.11668, 13.12492], [80.11598, 13.12466], [80.11321, 13.12365], [80.11249, 13.12342], [80.11194, 13.12332], [80.11164, 13.12328], [80.11105, 13.12325], [80.11068, 13.12321], [80.11052, 13.12316], [80.11037, 13.12307], [80.10939, 13.12238], [80.10888, 13.12202], [80.10834, 13.12152], [80.10763, 13.12076], [80.10745, 13.12061], [80.10729, 13.1205], [80.107, 13.12038], [80.1061, 13.1201], [80.10524, 13.11986], [80.10498, 13.11981], [80.10365, 13.11966], [80.10289, 13.11964], [80.10229, 13.11967], [80.10174, 13.11973], [80.10169, 13.11973], [80.10127, 13.11975], [80.10035, 13.11964], [80.09964, 13.11958], [80.09843, 13.11953], [80.09723, 13.11948], [80.09555, 13.11942], [80.09521, 13.1194], [80.09514, 13.11934], [80.09507, 13.11926], [80.095, 13.11916], [80.09499, 13.11903], [80.09503, 13.11903], [80.09499, 13.11903], [80.09497, 13.11878], [80.09495, 13.11861], [80.09492, 13.11832], [80.09493, 13.11807], [80.09496, 13.11793], [80.09502, 13.11777], [80.09521, 13.11751], [80.09542, 13.11739], [80.09564, 13.11734], [80.0961, 13.11726], [80.09637, 13.11722], [80.09748, 13.11706], [80.09851, 13.11693], [80.10002, 13.11666], [80.10062, 13.11659], [80.10196, 13.11639], [80.10308, 13.11617], [80.10342, 13.1161], [80.10365, 13.11604], [80.10371, 13.11601], [80.10396, 13.11596], [80.10495, 13.11582], [80.10515, 13.11574], [80.10553, 13.11565], [80.10575, 13.11563], [80.10694, 13.11561], [80.10778, 13.11561], [80.10784, 13.11559], [80.10789, 13.11553], [80.10791, 13.11545], [80.10793, 13.11542], [80.10798, 13.1152], [80.10815, 13.11433], [80.10827, 13.11344], [80.10859, 13.11153], [80.10859, 13.1115], [80.10863, 13.11085], [80.10861, 13.11004], [80.1086, 13.1096], [80.10859, 13.10911], [80.10854, 13.10821], [80.1085, 13.10729], [80.10849, 13.10694], [80.10846, 13.10621], [80.10843, 13.10541], [80.10834, 13.10269], [80.10827, 13.10136], [80.10826, 13.10028], [80.10829, 13.09992], [80.10833, 13.09841], [80.10842, 13.09503], [80.10843, 13.09361], [80.10849, 13.09071], [80.10859, 13.08786], [80.10863, 13.08655], [80.10862, 13.08655], [80.10869, 13.08525], [80.10876, 13.08343], [80.10876, 13.08315], [80.10879, 13.08296], [80.10897, 13.08245], [80.10929, 13.08166], [80.11005, 13.07977], [80.11042, 13.07877], [80.1106, 13.07822], [80.11126, 13.07616], [80.1117, 13.07491], [80.11172, 13.07487], [80.11201, 13.07392], [80.11217, 13.07329], [80.11248, 13.07199], [80.11263, 13.07136], [80.11271, 13.07089], [80.11273, 13.07051], [80.11269, 13.06936], [80.11262, 13.06802], [80.11253, 13.06629], [80.11248, 13.06504], [80.11249, 13.06479], [80.11247, 13.06446], [80.11247, 13.06412], [80.11249, 13.06391], [80.11253, 13.06358], [80.1127, 13.06295], [80.11296, 13.06203], [80.11325, 13.06075], [80.11364, 13.05918], [80.11374, 13.05866], [80.11382, 13.05813], [80.11383, 13.0578], [80.11385, 13.05734], [80.11391, 13.05703], [80.11392, 13.0567], [80.11385, 13.05669], [80.11265, 13.05664], [80.11184, 13.0566], [80.1111, 13.05661], [80.11059, 13.05663], [80.10995, 13.05665], [80.10984, 13.05666], [80.10972, 13.05677], [80.1083, 13.05687], [80.10741, 13.05695], [80.10661, 13.05704], [80.10553, 13.05715], [80.10261, 13.05728], [80.10206, 13.0573], [80.1015, 13.05727], [80.10078, 13.05718], [80.09891, 13.05676], [80.09766, 13.0565], [80.09724, 13.05644], [80.09595, 13.05631], [80.0952, 13.05623], [80.09475, 13.05612], [80.09427, 13.05596], [80.09343, 13.0556], [80.0922, 13.05503], [80.09183, 13.05483], [80.09156, 13.05464], [80.09117, 13.05432], [80.0909, 13.05402], [80.09074, 13.05381], [80.09045, 13.05332], [80.08957, 13.05156], [80.0891, 13.05068], [80.08887, 13.05029], [80.08893, 13.05023], [80.08865, 13.04985], [80.0886, 13.04975], [80.08859, 13.04968], [80.08861, 13.04962], [80.08864, 13.04958], [80.08875, 13.04953], [80.08898, 13.04958], [80.09041, 13.04993], [80.09111, 13.05003], [80.09147, 13.05007], [80.09158, 13.05005], [80.09176, 13.0501], [80.09224, 13.05023], [80.09404, 13.05091], [80.09475, 13.05095], [80.09506, 13.05096], [80.09511, 13.05207], [80.09491, 13.05207], [80.0949, 13.05178]]}}]}