{"type": "FeatureCollection", "features": [{"type": "Feature", "properties": {"route_name": "25", "stop_id": "qflzswAf", "name": "Poonamallee Terminus", "city": "CHENNAI"}, "geometry": {"type": "Point", "coordinates": [80.09486902391961, 13.051775993180485]}}, {"type": "Feature", "properties": {"route_name": "25", "stop_id": "WIZPpGvl", "name": "Parivakkam Signal", "city": "CHENNAI"}, "geometry": {"type": "Point", "coordinates": [80.09796746340929, 13.056784832360787]}}, {"type": "Feature", "properties": {"route_name": "25", "stop_id": "MnTeelLR", "name": "Saveetha Hospital", "city": "CHENNAI"}, "geometry": {"type": "Point", "coordinates": [80.12376605799534, 13.05321390347687]}}, {"type": "Feature", "properties": {"route_name": "25", "stop_id": "uaQvVFAB", "name": "Kattupakkam", "city": "CHENNAI"}, "geometry": {"type": "Point", "coordinates": [80.12859851796179, 13.040725772964462]}}, {"type": "Feature", "properties": {"route_name": "25", "stop_id": "taPJzyhF", "name": "Iyyappanthangal Bus Depot", "city": "CHENNAI"}, "geometry": {"type": "Point", "coordinates": [80.13579469821752, 13.037980261663424]}}, {"type": "Feature", "properties": {"route_name": "25", "stop_id": "FhKkSAFH", "name": "Iyappanthangal", "city": "CHENNAI"}, "geometry": {"type": "Point", "coordinates": [80.1386853469329, 13.037436914660523]}}, {"type": "Feature", "properties": {"route_name": "25", "stop_id": "glDvUhXc", "name": "Ramachandra Hospital", "city": "CHENNAI"}, "geometry": {"type": "Point", "coordinates": [80.1420415853961, 13.036927911883108]}}, {"type": "Feature", "properties": {"route_name": "25", "stop_id": "HpfZbCVA", "name": "Porur", "city": "CHENNAI"}, "geometry": {"type": "Point", "coordinates": [80.15322653015039, 13.036305413484957]}}, {"type": "Feature", "properties": {"route_name": "25", "stop_id": "fyqDJAhS", "name": "Porur Arcot Road", "city": "CHENNAI"}, "geometry": {"type": "Point", "coordinates": [80.15648499876443, 13.035512787014495]}}, {"type": "Feature", "properties": {"route_name": "25", "stop_id": "oXQrzcje", "name": "Karambakkam", "city": "CHENNAI"}, "geometry": {"type": "Point", "coordinates": [80.15893100268818, 13.037379099606204]}}, {"type": "Feature", "properties": {"route_name": "25", "stop_id": "gHWJyJxY", "name": "Lakshmi Nagar", "city": "CHENNAI"}, "geometry": {"type": "Point", "coordinates": [80.16502273244157, 13.038321751702668]}}, {"type": "Feature", "properties": {"route_name": "25", "stop_id": "uuIZngLh", "name": "Jai Garden", "city": "CHENNAI"}, "geometry": {"type": "Point", "coordinates": [80.16828764500087, 13.038848243454213]}}, {"type": "Feature", "properties": {"route_name": "25", "stop_id": "rWJbJwsc", "name": "Valasaravakkam", "city": "CHENNAI"}, "geometry": {"type": "Point", "coordinates": [80.17357067506782, 13.041183646914389]}}, {"type": "Feature", "properties": {"route_name": "25", "stop_id": "GmRorurF", "name": "Kesavardhini", "city": "CHENNAI"}, "geometry": {"type": "Point", "coordinates": [80.17811275075064, 13.042079345901993]}}, {"type": "Feature", "properties": {"route_name": "25", "stop_id": "pUxrqkbR", "name": "Alwarthirunagar", "city": "CHENNAI"}, "geometry": {"type": "Point", "coordinates": [80.18476097409757, 13.044380903537744]}}, {"type": "Feature", "properties": {"route_name": "25", "stop_id": "pRsoSsPh", "name": "Virugambakkam", "city": "CHENNAI"}, "geometry": {"type": "Point", "coordinates": [80.19157020980799, 13.046670974851082]}}, {"type": "Feature", "properties": {"route_name": "25", "stop_id": "eKMWhxRF", "name": "Avichi School", "city": "CHENNAI"}, "geometry": {"type": "Point", "coordinates": [80.19777311974701, 13.047522700664429]}}, {"type": "Feature", "properties": {"route_name": "25", "stop_id": "lqMPnIra", "name": "Vadapalani Bus Stand", "city": "CHENNAI"}, "geometry": {"type": "Point", "coordinates": [80.20703522, 13.04932793]}}, {"type": "Feature", "properties": {"route_name": "25", "stop_id": "HGjkimBc", "name": "Vadapalani Kovil", "city": "CHENNAI"}, "geometry": {"type": "Point", "coordinates": [80.21352052746465, 13.050200279975009]}}, {"type": "Feature", "properties": {"route_name": "25", "stop_id": "pPqywgRl", "name": "Power House Kodambakkam", "city": "CHENNAI"}, "geometry": {"type": "Point", "coordinates": [80.22024830726139, 13.052461049156314]}}, {"type": "Feature", "properties": {"route_name": "25", "stop_id": "yprCGtVa", "name": "Trustpuram", "city": "CHENNAI"}, "geometry": {"type": "Point", "coordinates": [80.22150742159147, 13.052837844908307]}}, {"type": "Feature", "properties": {"route_name": "25", "stop_id": "psXocZQH", "name": "Liberty", "city": "CHENNAI"}, "geometry": {"type": "Point", "coordinates": [80.22724074153382, 13.054106799197433]}}, {"type": "Feature", "properties": {"route_name": "25", "stop_id": "ylfNfbjf", "name": "Meenakshi College", "city": "CHENNAI"}, "geometry": {"type": "Point", "coordinates": [80.22790688678795, 13.054086116665367]}}, {"type": "Feature", "properties": {"route_name": "25", "stop_id": "PlyJazqR", "name": "Kamdar Nagar", "city": "CHENNAI"}, "geometry": {"type": "Point", "coordinates": [80.23499752310931, 13.053777171075867]}}, {"type": "Feature", "properties": {"route_name": "25", "stop_id": "iEKuRfDT", "name": "Periyar Salai", "city": "CHENNAI"}, "geometry": {"type": "Point", "coordinates": [80.23682363671765, 13.053403245630598]}}, {"type": "Feature", "properties": {"route_name": "25", "stop_id": "ImIhxSnH", "name": "Vetnary Hospital", "city": "CHENNAI"}, "geometry": {"type": "Point", "coordinates": [80.23977037234306, 13.052823738605921]}}, {"type": "Feature", "properties": {"route_name": "25", "stop_id": "UWOHRooW", "name": "Josiyar Street", "city": "CHENNAI"}, "geometry": {"type": "Point", "coordinates": [80.24514582314175, 13.052882739619314]}}, {"type": "Feature", "properties": {"route_name": "25", "stop_id": "Fwqgdxfa", "name": "MGR Salai Nungambakkam Or Plam Grove", "city": "CHENNAI"}, "geometry": {"type": "Point", "coordinates": [80.24804193119257, 13.053384145796525]}}, {"type": "Feature", "properties": {"route_name": "25", "stop_id": "suszCmcx", "name": "Anand Theatre or Thousand Light", "city": "CHENNAI"}, "geometry": {"type": "Point", "coordinates": [80.25671112714463, 13.056879507984267]}}, {"type": "Feature", "properties": {"route_name": "25", "stop_id": "ojYgsDtJ", "name": "New College", "city": "CHENNAI"}, "geometry": {"type": "Point", "coordinates": [80.26155726533557, 13.05420695966914]}}, {"type": "Feature", "properties": {"route_name": "25", "stop_id": "ErjukRDc", "name": "Meersahibpet Market", "city": "CHENNAI"}, "geometry": {"type": "Point", "coordinates": [80.26898819295445, 13.053490769866402]}}, {"type": "Feature", "properties": {"route_name": "25", "stop_id": "fTOPrrgc", "name": "Ice House Police Station", "city": "CHENNAI"}, "geometry": {"type": "Point", "coordinates": [80.27371755440322, 13.052820895202263]}}, {"type": "Feature", "properties": {"route_name": "25", "stop_id": "PbNNbEKu", "name": "Swami Vivekananda House", "city": "CHENNAI"}, "geometry": {"type": "Point", "coordinates": [80.27730447902604, 13.051563238601066]}}, {"type": "Feature", "properties": {"route_name": "25", "stop_id": "xnBCUPNx", "name": "Kannagi Statue Or Presidency College", "city": "CHENNAI"}, "geometry": {"type": "Point", "coordinates": [80.281707933196, 13.056427710112223]}}, {"type": "Feature", "properties": {"route_name": "25", "stop_id": "FTwVCxQy", "name": "Marina Beach", "city": "CHENNAI"}, "geometry": {"type": "Point", "coordinates": [80.28275206242665, 13.061415983604778]}}, {"type": "Feature", "properties": {"route_name": "25", "stop_id": "pSVDMeCH", "name": "Madras University", "city": "CHENNAI"}, "geometry": {"type": "Point", "coordinates": [80.2836325989881, 13.06540783148406]}}, {"type": "Feature", "properties": {"route_name": "25", "stop_id": "gaLZwYvS", "name": "Anna Square", "city": "CHENNAI"}, "geometry": {"type": "Point", "coordinates": [80.2844001598744, 13.066389593658073]}}, {"type": "Feature", "properties": {"name": "25"}, "geometry": {"type": "LineString", "coordinates": [[80.0949, 13.05178], [80.09491, 13.05207], [80.09506, 13.05207], [80.09546, 13.05209], [80.09562, 13.05209], [80.09566, 13.05207], [80.09571, 13.05203], [80.09573, 13.05197], [80.09575, 13.05184], [80.09585, 13.05183], [80.09687, 13.05191], [80.09678, 13.05278], [80.09677, 13.05315], [80.09678, 13.05354], [80.0968, 13.05369], [80.09686, 13.05391], [80.09699, 13.05426], [80.09705, 13.05449], [80.09713, 13.05522], [80.09721, 13.05566], [80.09733, 13.05607], [80.0975, 13.05639], [80.09756, 13.0566], [80.09758, 13.0567], [80.09797, 13.05677], [80.09877, 13.05693], [80.10056, 13.05737], [80.10131, 13.05749], [80.10175, 13.05751], [80.10255, 13.0575], [80.1043, 13.05741], [80.1057, 13.05734], [80.10621, 13.0573], [80.10726, 13.05718], [80.10854, 13.05706], [80.10904, 13.05703], [80.10975, 13.05699], [80.10977, 13.05688], [80.11173, 13.05685], [80.11192, 13.05686], [80.11379, 13.05693], [80.11428, 13.05694], [80.11465, 13.05692], [80.11505, 13.05686], [80.11556, 13.05677], [80.1162, 13.05658], [80.11798, 13.05604], [80.11899, 13.05573], [80.12045, 13.05525], [80.12093, 13.05505], [80.12187, 13.05474], [80.1221, 13.05473], [80.12218, 13.05468], [80.12226, 13.05465], [80.12241, 13.05463], [80.12268, 13.05461], [80.12311, 13.05465], [80.12387, 13.05479], [80.12391, 13.05467], [80.12395, 13.05463], [80.12397, 13.05446], [80.12395, 13.05399], [80.12382, 13.05356], [80.12369, 13.05324], [80.1234, 13.05258], [80.12323, 13.0523], [80.12258, 13.0514], [80.12227, 13.05096], [80.12164, 13.04998], [80.12078, 13.04862], [80.1207, 13.04846], [80.12029, 13.04782], [80.11993, 13.04729], [80.11971, 13.04701], [80.11917, 13.04642], [80.11903, 13.04631], [80.11875, 13.04615], [80.11719, 13.04539], [80.11711, 13.04527], [80.11735, 13.04516], [80.11753, 13.04511], [80.11784, 13.04503], [80.11851, 13.04482], [80.11923, 13.04456], [80.11965, 13.04439], [80.12061, 13.04398], [80.12119, 13.04376], [80.12224, 13.04333], [80.12326, 13.04294], [80.12467, 13.04233], [80.12572, 13.04188], [80.12759, 13.04104], [80.12858, 13.04068], [80.12894, 13.04056], [80.12966, 13.04028], [80.13085, 13.03985], [80.13178, 13.0395], [80.13258, 13.03921], [80.13355, 13.03883], [80.13419, 13.03856], [80.13452, 13.03842], [80.13534, 13.0381], [80.13578, 13.03794], [80.13658, 13.03769], [80.13709, 13.0376], [80.13801, 13.03747], [80.13868, 13.0374], [80.14204, 13.0369], [80.14367, 13.03667], [80.14548, 13.03642], [80.14625, 13.0363], [80.14679, 13.03627], [80.14815, 13.03626], [80.14923, 13.03626], [80.15188, 13.03631], [80.15244, 13.03633], [80.15281, 13.03632], [80.15315, 13.03623], [80.15319, 13.03621], [80.1532, 13.03624], [80.1537, 13.03601], [80.15474, 13.03553], [80.15551, 13.03514], [80.15566, 13.03507], [80.15598, 13.0349], [80.15605, 13.03496], [80.15611, 13.03501], [80.15632, 13.03525], [80.1565, 13.0355], [80.15662, 13.03564], [80.15666, 13.03565], [80.15679, 13.03586], [80.15703, 13.03617], [80.1572, 13.03636], [80.15741, 13.03656], [80.15761, 13.03669], [80.15798, 13.03688], [80.15849, 13.03712], [80.15879, 13.03725], [80.15886, 13.03731], [80.15894, 13.03734], [80.15921, 13.03743], [80.15969, 13.03758], [80.16061, 13.03771], [80.16165, 13.03783], [80.16291, 13.03808], [80.16342, 13.03818], [80.164, 13.03826], [80.16502, 13.03831], [80.1656, 13.03835], [80.16616, 13.03844], [80.16735, 13.03863], [80.16829, 13.03883], [80.16899, 13.039], [80.16929, 13.03912], [80.16977, 13.03939], [80.17029, 13.03967], [80.17069, 13.03992], [80.17128, 13.04025], [80.17199, 13.04063], [80.17273, 13.04089], [80.17358, 13.04116], [80.17414, 13.04133], [80.17572, 13.04174], [80.17653, 13.04198], [80.17692, 13.04205], [80.17728, 13.04207], [80.17811, 13.04205], [80.17815, 13.04205], [80.17915, 13.042], [80.17965, 13.04208], [80.18001, 13.04216], [80.18058, 13.04231], [80.18119, 13.04249], [80.18143, 13.04256], [80.1817, 13.04268], [80.18188, 13.04283], [80.18198, 13.04295], [80.18219, 13.04317], [80.18237, 13.04327], [80.18317, 13.04363], [80.18478, 13.04435], [80.18596, 13.0449], [80.18664, 13.0454], [80.18694, 13.04564], [80.18717, 13.04576], [80.188, 13.04607], [80.18861, 13.04628], [80.18915, 13.04644], [80.18938, 13.04649], [80.19141, 13.04662], [80.19157, 13.04663], [80.19325, 13.04669], [80.19388, 13.04676], [80.19409, 13.04684], [80.19451, 13.04713], [80.19492, 13.04741], [80.19501, 13.04744], [80.19522, 13.04748], [80.19588, 13.04747], [80.19672, 13.04748], [80.19777, 13.04747], [80.19896, 13.04746], [80.19983, 13.04744], [80.20077, 13.0474], [80.20101, 13.0474], [80.2013, 13.04742], [80.20182, 13.04748], [80.20213, 13.04754], [80.2025, 13.04766], [80.20346, 13.04789], [80.20388, 13.04799], [80.20476, 13.04823], [80.20595, 13.04859], [80.20686, 13.04889], [80.20716, 13.049], [80.20829, 13.04939], [80.20875, 13.04949], [80.21117, 13.04983], [80.21174, 13.04993], [80.21183, 13.04996], [80.21193, 13.04999], [80.21213, 13.05], [80.21275, 13.05005], [80.21306, 13.0501], [80.21337, 13.05016], [80.21352, 13.05018], [80.21373, 13.05025], [80.2146, 13.0506], [80.21496, 13.05074], [80.21615, 13.05111], [80.21719, 13.05148], [80.2179, 13.05172], [80.21873, 13.05204], [80.2202, 13.0524], [80.22026, 13.05242], [80.22152, 13.05279], [80.22278, 13.05313], [80.22358, 13.05331], [80.22419, 13.05342], [80.22569, 13.0538], [80.22657, 13.05393], [80.22725, 13.05401], [80.22789, 13.05408], [80.22791, 13.05408], [80.22822, 13.05408], [80.22827, 13.05406], [80.22837, 13.05404], [80.22948, 13.05409], [80.23067, 13.05412], [80.23133, 13.05413], [80.23161, 13.05413], [80.23183, 13.0541], [80.23247, 13.05403], [80.23392, 13.05391], [80.2345, 13.05386], [80.23457, 13.05384], [80.23458, 13.05384], [80.23499, 13.05375], [80.23674, 13.05342], [80.23682, 13.05341], [80.23682, 13.05337], [80.23753, 13.05324], [80.23845, 13.0531], [80.23899, 13.05299], [80.23977, 13.05281], [80.23977, 13.05283], [80.24084, 13.05254], [80.24104, 13.05254], [80.24138, 13.05258], [80.24164, 13.05263], [80.2428, 13.05284], [80.24324, 13.05285], [80.24335, 13.05284], [80.24366, 13.05277], [80.2441, 13.05272], [80.24446, 13.05272], [80.24488, 13.05277], [80.24516, 13.0528], [80.24577, 13.05288], [80.24656, 13.05299], [80.24699, 13.05309], [80.24805, 13.05334], [80.24805, 13.05335], [80.25012, 13.0538], [80.25023, 13.05383], [80.25027, 13.05376], [80.25074, 13.05289], [80.25101, 13.05252], [80.25106, 13.0525], [80.25115, 13.05262], [80.25184, 13.05309], [80.2523, 13.05343], [80.25247, 13.05354], [80.25262, 13.05359], [80.25275, 13.05369], [80.25306, 13.05391], [80.25362, 13.05434], [80.2542, 13.05478], [80.25513, 13.05549], [80.25563, 13.05584], [80.25618, 13.05625], [80.25656, 13.0566], [80.25677, 13.05684], [80.25766, 13.0578], [80.25771, 13.05768], [80.25776, 13.05662], [80.25784, 13.05663], [80.25784, 13.05636], [80.25784, 13.05624], [80.25779, 13.0561], [80.25767, 13.0559], [80.25766, 13.05585], [80.25776, 13.0552], [80.25786, 13.05461], [80.25787, 13.05451], [80.25869, 13.05445], [80.25888, 13.05443], [80.25963, 13.05436], [80.26035, 13.05429], [80.26066, 13.05425], [80.26155, 13.05416], [80.26176, 13.05409], [80.26286, 13.05398], [80.26405, 13.05387], [80.26599, 13.05369], [80.26742, 13.05357], [80.26899, 13.05348], [80.26921, 13.05345], [80.26954, 13.05337], [80.27034, 13.05332], [80.27048, 13.05333], [80.27102, 13.0533], [80.27131, 13.05324], [80.27172, 13.05318], [80.27233, 13.05306], [80.27298, 13.05295], [80.27368, 13.0528], [80.27371, 13.05279], [80.27414, 13.05267], [80.27507, 13.05234], [80.27536, 13.05228], [80.2755, 13.05223], [80.27627, 13.05196], [80.27678, 13.05175], [80.27702, 13.05162], [80.27729, 13.05153], [80.27836, 13.05112], [80.27872, 13.051], [80.27911, 13.05084], [80.27965, 13.05063], [80.27976, 13.0506], [80.28014, 13.05058], [80.28029, 13.05061], [80.28061, 13.05077], [80.28076, 13.05084], [80.2808, 13.05085], [80.28083, 13.05107], [80.281, 13.05194], [80.28102, 13.05225], [80.28115, 13.05296], [80.28119, 13.05325], [80.28128, 13.05379], [80.28138, 13.05432], [80.28158, 13.05537], [80.28179, 13.05641], [80.28182, 13.05641], [80.28207, 13.05771], [80.28267, 13.06062], [80.28285, 13.06139], [80.28335, 13.06379], [80.2834, 13.06401], [80.28338, 13.06414], [80.2834, 13.06423], [80.28367, 13.0654], [80.28415, 13.06764], [80.28417, 13.06779], [80.2842, 13.06808], [80.28476, 13.07033], [80.2853, 13.07242], [80.28531, 13.07312], [80.28528, 13.07334], [80.28529, 13.07359], [80.28534, 13.07378], [80.28547, 13.0739], [80.28562, 13.07399], [80.28572, 13.07403], [80.28582, 13.07401], [80.28591, 13.07395], [80.28596, 13.07388], [80.28599, 13.07379], [80.28602, 13.07361], [80.28602, 13.07348], [80.28592, 13.07329], [80.28561, 13.07279], [80.2855, 13.07255], [80.28542, 13.07232], [80.28513, 13.07124], [80.28469, 13.0695], [80.28436, 13.06811], [80.28433, 13.06771], [80.28428, 13.06741], [80.2844, 13.06702], [80.2844, 13.06681], [80.28438, 13.06666], [80.28431, 13.06642]]}}]}