{"type": "FeatureCollection", "features": [{"type": "Feature", "properties": {"route_name": "5B", "stop_id": "eTJQHplR", "name": "Thiyagaraya Nagar Bus Depot", "city": "CHENNAI"}, "geometry": {"type": "Point", "coordinates": [80.23005108, 13.03449501]}}, {"type": "Feature", "properties": {"route_name": "5B", "stop_id": "nEXpIbiD", "name": "CIT Nagar", "city": "CHENNAI"}, "geometry": {"type": "Point", "coordinates": [80.23084860962217, 13.029891933620636]}}, {"type": "Feature", "properties": {"route_name": "5B", "stop_id": "DOGyniWl", "name": "Saidapet Metro", "city": "CHENNAI"}, "geometry": {"type": "Point", "coordinates": [80.2281859358351, 13.023758074666299]}}, {"type": "Feature", "properties": {"route_name": "5B", "stop_id": "GbYxEXTt", "name": "Tamil Nadu Open University Or Panagal Maligai", "city": "CHENNAI"}, "geometry": {"type": "Point", "coordinates": [80.22567676852101, 13.021143761114198]}}, {"type": "Feature", "properties": {"route_name": "5B", "stop_id": "YmkUpvHU", "name": "Chinnamalai B S or Saidapet Court", "city": "CHENNAI"}, "geometry": {"type": "Point", "coordinates": [80.22645940770053, 13.0139397637957]}}, {"type": "Feature", "properties": {"route_name": "5B", "stop_id": "qKeCDDXI", "name": "Anna University Or Engineer College", "city": "CHENNAI"}, "geometry": {"type": "Point", "coordinates": [80.233474145983, 13.008316004554988]}}, {"type": "Feature", "properties": {"route_name": "5B", "stop_id": "TcsyXYNn", "name": "IIT Madras Or Guindy National Park", "city": "CHENNAI"}, "geometry": {"type": "Point", "coordinates": [80.24098102151038, 13.006834895702841]}}, {"type": "Feature", "properties": {"route_name": "5B", "stop_id": "biJBLznK", "name": "Madhya Kailash", "city": "CHENNAI"}, "geometry": {"type": "Point", "coordinates": [80.24674342935407, 13.006806700930548]}}, {"type": "Feature", "properties": {"route_name": "5B", "stop_id": "UfJDroVz", "name": "Adyar Gandhi Nagar", "city": "CHENNAI"}, "geometry": {"type": "Point", "coordinates": [80.24946444439593, 13.006933502128126]}}, {"type": "Feature", "properties": {"route_name": "5B", "stop_id": "lsFGVtlq", "name": "Adyar Old Depot", "city": "CHENNAI"}, "geometry": {"type": "Point", "coordinates": [80.2532048438162, 13.006656693302986]}}, {"type": "Feature", "properties": {"route_name": "5B", "stop_id": "Yhslgmod", "name": "Adyar Signal", "city": "CHENNAI"}, "geometry": {"type": "Point", "coordinates": [80.25829350823562, 13.007317565628746]}}, {"type": "Feature", "properties": {"route_name": "5B", "stop_id": "IgEBJNwX", "name": "M G R Janaki College Or Sathya Studio", "city": "CHENNAI"}, "geometry": {"type": "Point", "coordinates": [80.2595102964633, 13.016234316383857]}}, {"type": "Feature", "properties": {"route_name": "5B", "stop_id": "MOTjsakF", "name": "Music College Annamalai Puram", "city": "CHENNAI"}, "geometry": {"type": "Point", "coordinates": [80.26267727994104, 13.020304184501633]}}, {"type": "Feature", "properties": {"route_name": "5B", "stop_id": "CTdLzzOf", "name": "Rani Meyyammai School", "city": "CHENNAI"}, "geometry": {"type": "Point", "coordinates": [80.263613266849, 13.022780272775927]}}, {"type": "Feature", "properties": {"route_name": "5B", "stop_id": "xjaGpszF", "name": "C I D Quarters Mandaveli", "city": "CHENNAI"}, "geometry": {"type": "Point", "coordinates": [80.26417118970335, 13.026431929013956]}}, {"type": "Feature", "properties": {"route_name": "5B", "stop_id": "HeRWBWAv", "name": "Mandaveli Market", "city": "CHENNAI"}, "geometry": {"type": "Point", "coordinates": [80.2664956846229, 13.029271335364056]}}, {"type": "Feature", "properties": {"route_name": "5B", "stop_id": "gbxdgQQp", "name": "Mylapore Tank", "city": "CHENNAI"}, "geometry": {"type": "Point", "coordinates": [80.26785275508485, 13.034013425861204]}}, {"type": "Feature", "properties": {"name": "5B"}, "geometry": {"type": "LineString", "coordinates": [[80.23002, 13.0345], [80.23002, 13.03423], [80.23038, 13.0342], [80.23046, 13.0342], [80.23046, 13.03403], [80.23055, 13.0331], [80.23062, 13.03229], [80.23079, 13.03022], [80.23081, 13.02989], [80.23097, 13.0283], [80.23104, 13.02766], [80.23105, 13.02764], [80.23113, 13.02762], [80.23174, 13.02771], [80.23281, 13.02796], [80.23295, 13.02704], [80.23306, 13.02657], [80.2326, 13.02635], [80.23215, 13.02622], [80.2314, 13.02603], [80.23108, 13.02592], [80.23089, 13.02586], [80.23051, 13.02571], [80.23024, 13.02557], [80.22952, 13.02507], [80.22909, 13.02473], [80.22894, 13.02456], [80.22873, 13.02438], [80.22809, 13.02386], [80.22772, 13.02352], [80.22757, 13.02338], [80.22631, 13.02197], [80.22569, 13.02114], [80.22513, 13.02039], [80.22497, 13.02023], [80.22468, 13.01979], [80.22459, 13.01965], [80.22452, 13.01949], [80.22446, 13.01919], [80.22447, 13.01893], [80.22514, 13.01725], [80.22537, 13.01666], [80.22545, 13.01641], [80.22569, 13.01577], [80.22622, 13.01442], [80.22641, 13.01392], [80.22672, 13.01307], [80.22699, 13.01237], [80.22751, 13.01108], [80.22792, 13.01013], [80.22827, 13.00934], [80.22847, 13.00926], [80.22872, 13.00918], [80.23094, 13.00871], [80.2331, 13.00831], [80.23326, 13.00833], [80.23342, 13.00831], [80.23347, 13.0083], [80.23373, 13.00821], [80.23378, 13.00817], [80.23459, 13.00801], [80.23506, 13.00792], [80.23726, 13.00747], [80.23792, 13.00732], [80.23798, 13.00733], [80.23806, 13.00733], [80.24021, 13.00692], [80.24098, 13.0068], [80.24152, 13.00676], [80.24275, 13.00673], [80.24294, 13.00669], [80.24535, 13.00674], [80.24674, 13.00677], [80.24798, 13.00677], [80.24835, 13.00676], [80.24837, 13.00688], [80.24889, 13.0069], [80.24943, 13.00692], [80.24946, 13.00692], [80.24982, 13.00691], [80.25002, 13.00683], [80.25087, 13.00684], [80.25131, 13.00682], [80.25239, 13.00661], [80.2529, 13.00659], [80.2532, 13.00658], [80.25381, 13.00657], [80.2544, 13.0066], [80.25476, 13.00664], [80.25524, 13.00665], [80.2559, 13.00666], [80.25697, 13.00666], [80.25709, 13.00667], [80.25741, 13.00675], [80.25772, 13.00686], [80.25791, 13.00695], [80.25832, 13.00725], [80.25834, 13.00727], [80.25858, 13.00752], [80.25874, 13.00781], [80.25891, 13.00813], [80.25895, 13.00827], [80.25897, 13.00834], [80.25902, 13.00866], [80.25906, 13.00991], [80.25908, 13.01072], [80.25909, 13.01233], [80.25914, 13.01345], [80.25921, 13.01527], [80.25928, 13.01559], [80.25934, 13.01578], [80.25947, 13.01607], [80.25956, 13.01621], [80.26023, 13.01724], [80.26071, 13.018], [80.26105, 13.01845], [80.26125, 13.01879], [80.26153, 13.01902], [80.26159, 13.01913], [80.26207, 13.01962], [80.26249, 13.02001], [80.26262, 13.02016], [80.2627, 13.02029], [80.26286, 13.02076], [80.263, 13.0215], [80.26342, 13.02236], [80.26363, 13.02277], [80.26428, 13.02394], [80.26445, 13.02425], [80.26479, 13.02471], [80.26493, 13.0249], [80.26537, 13.02543], [80.2655, 13.02563], [80.26585, 13.02629], [80.26585, 13.0263], [80.26531, 13.02639], [80.26419, 13.02656], [80.26336, 13.02666], [80.26352, 13.02744], [80.26365, 13.02794], [80.26375, 13.02842], [80.26387, 13.02871], [80.26395, 13.02892], [80.264, 13.02916], [80.26407, 13.02941], [80.26427, 13.02942], [80.26468, 13.02935], [80.26519, 13.02935], [80.26641, 13.02922], [80.2665, 13.02926], [80.26651, 13.02924], [80.26651, 13.02927], [80.26669, 13.03026], [80.26692, 13.03126], [80.26706, 13.03169], [80.26742, 13.0325], [80.26753, 13.03267], [80.26765, 13.03277], [80.26769, 13.03287], [80.26791, 13.034]]}}]}