{"type": "FeatureCollection", "features": [{"type": "Feature", "properties": {"route_name": "500A", "stop_id": "FGqBFXAc", "name": "Hasthinapuram", "city": "CHENNAI"}, "geometry": {"type": "Point", "coordinates": [80.15059422425986, 12.94044614690508]}}, {"type": "Feature", "properties": {"route_name": "500A", "stop_id": "BlIFmvgd", "name": "Gayathri Nagar Or Venkatraman Nagar", "city": "CHENNAI"}, "geometry": {"type": "Point", "coordinates": [80.14808856380091, 12.940833901896285]}}, {"type": "Feature", "properties": {"route_name": "500A", "stop_id": "BgrWMruP", "name": "Muthumariamman Kovil", "city": "CHENNAI"}, "geometry": {"type": "Point", "coordinates": [80.14513532750243, 12.941476214178838]}}, {"type": "Feature", "properties": {"route_name": "500A", "stop_id": "tNjBpHdR", "name": "Kumaran Kundram", "city": "CHENNAI"}, "geometry": {"type": "Point", "coordinates": [80.14301397049303, 12.941875691365636]}}, {"type": "Feature", "properties": {"route_name": "500A", "stop_id": "egyFOSbs", "name": "Nehru Nagar", "city": "CHENNAI"}, "geometry": {"type": "Point", "coordinates": [80.14057593995472, 12.94257971688726]}}, {"type": "Feature", "properties": {"route_name": "500A", "stop_id": "GgMfrgKO", "name": "Indra Cotton Mill", "city": "CHENNAI"}, "geometry": {"type": "Point", "coordinates": [80.13825073497094, 12.943348685760059]}}, {"type": "Feature", "properties": {"route_name": "500A", "stop_id": "bAkINhTV", "name": "Mount Union Office", "city": "CHENNAI"}, "geometry": {"type": "Point", "coordinates": [80.13816227058703, 12.940850247969758]}}, {"type": "Feature", "properties": {"route_name": "500A", "stop_id": "ZnZTVhpc", "name": "Varadharaja Theatre", "city": "CHENNAI"}, "geometry": {"type": "Point", "coordinates": [80.13870488126838, 12.937295783189835]}}, {"type": "Feature", "properties": {"route_name": "500A", "stop_id": "GjpldjkU", "name": "Tambaram Sanatorium Railway Station", "city": "CHENNAI"}, "geometry": {"type": "Point", "coordinates": [80.13299507822785, 12.938070226899676]}}, {"type": "Feature", "properties": {"route_name": "500A", "stop_id": "eaNsVWDR", "name": "Tambaram Sanatorium Bus Stand", "city": "CHENNAI"}, "geometry": {"type": "Point", "coordinates": [80.12809022215106, 12.937055899909849]}}, {"type": "Feature", "properties": {"route_name": "500A", "stop_id": "CKorGRkE", "name": "Kadaperi", "city": "CHENNAI"}, "geometry": {"type": "Point", "coordinates": [80.12469723891547, 12.93337144029531]}}, {"type": "Feature", "properties": {"route_name": "500A", "stop_id": "XFPAZveS", "name": "Tambaram Railway Station", "city": "CHENNAI"}, "geometry": {"type": "Point", "coordinates": [80.11732575024665, 12.925641090542161]}}, {"type": "Feature", "properties": {"route_name": "500A", "stop_id": "AUmOMGnp", "name": "Irumbuliyur", "city": "CHENNAI"}, "geometry": {"type": "Point", "coordinates": [80.10666718, 12.91663681]}}, {"type": "Feature", "properties": {"route_name": "500A", "stop_id": "YqlTLIQa", "name": "Perungalatgur Lake View Stop", "city": "CHENNAI"}, "geometry": {"type": "Point", "coordinates": [80.0985925050926, 12.908779320619445]}}, {"type": "Feature", "properties": {"route_name": "500A", "stop_id": "ALhaazBT", "name": "Perungalattur", "city": "CHENNAI"}, "geometry": {"type": "Point", "coordinates": [80.09644663992617, 12.906403356437842]}}, {"type": "Feature", "properties": {"route_name": "500A", "stop_id": "AoRkaUmb", "name": "Sriram Gate", "city": "CHENNAI"}, "geometry": {"type": "Point", "coordinates": [80.09228760816568, 12.900984026911052]}}, {"type": "Feature", "properties": {"route_name": "500A", "stop_id": "KgwKZlse", "name": "Iraniyamman Koil", "city": "CHENNAI"}, "geometry": {"type": "Point", "coordinates": [80.08960316901448, 12.897427677710802]}}, {"type": "Feature", "properties": {"route_name": "500A", "stop_id": "FZsFzszJ", "name": "Vandalur Gate", "city": "CHENNAI"}, "geometry": {"type": "Point", "coordinates": [80.08640892276996, 12.89311473169435]}}, {"type": "Feature", "properties": {"route_name": "500A", "stop_id": "gzTQJVMW", "name": "Vandalur Zoo", "city": "CHENNAI"}, "geometry": {"type": "Point", "coordinates": [80.0808152705822, 12.88055624912894]}}, {"type": "Feature", "properties": {"route_name": "500A", "stop_id": "RVEyrwjR", "name": "Kilambakkam Bus Terminus", "city": "CHENNAI"}, "geometry": {"type": "Point", "coordinates": [80.07837988343238, 12.874093789888684]}}, {"type": "Feature", "properties": {"route_name": "500A", "stop_id": "XLVjRryq", "name": "Urappakam", "city": "CHENNAI"}, "geometry": {"type": "Point", "coordinates": [80.07576903505412, 12.867815440896505]}}, {"type": "Feature", "properties": {"route_name": "500A", "stop_id": "NxbXiMUL", "name": "Urapakkam Or Ananthavalli SchoolAnanthavalli School", "city": "CHENNAI"}, "geometry": {"type": "Point", "coordinates": [80.07362946240994, 12.86209629173468]}}, {"type": "Feature", "properties": {"route_name": "500A", "stop_id": "MyGqmywG", "name": "Palakka Company", "city": "CHENNAI"}, "geometry": {"type": "Point", "coordinates": [80.07001123216105, 12.85695912302813]}}, {"type": "Feature", "properties": {"route_name": "500A", "stop_id": "iEKDTvNf", "name": "Akshaya Apartments Guduvanchery", "city": "CHENNAI"}, "geometry": {"type": "Point", "coordinates": [80.06776409587064, 12.854014247858574]}}, {"type": "Feature", "properties": {"route_name": "500A", "stop_id": "vDFCntfg", "name": "Guduvancheri EB Office", "city": "CHENNAI"}, "geometry": {"type": "Point", "coordinates": [80.06579046, 12.85120776]}}, {"type": "Feature", "properties": {"route_name": "500A", "stop_id": "YvwuVYMF", "name": "Guduvancheri Bus Terminus", "city": "CHENNAI"}, "geometry": {"type": "Point", "coordinates": [80.06156057583712, 12.845099416050214]}}, {"type": "Feature", "properties": {"route_name": "500A", "stop_id": "SwTowoaO", "name": "Srinivasapuram", "city": "CHENNAI"}, "geometry": {"type": "Point", "coordinates": [80.05553505179523, 12.839816823736793]}}, {"type": "Feature", "properties": {"route_name": "500A", "stop_id": "TkHOmLHQ", "name": "Thailavaram", "city": "CHENNAI"}, "geometry": {"type": "Point", "coordinates": [80.04610717067567, 12.830760770543334]}}, {"type": "Feature", "properties": {"route_name": "500A", "stop_id": "oYdkYEMp", "name": "SRM College", "city": "CHENNAI"}, "geometry": {"type": "Point", "coordinates": [80.04103115857765, 12.825786315255836]}}, {"type": "Feature", "properties": {"route_name": "500A", "stop_id": "EIHKZlEa", "name": "Potheri", "city": "CHENNAI"}, "geometry": {"type": "Point", "coordinates": [80.03673652074872, 12.819856553564838]}}, {"type": "Feature", "properties": {"route_name": "500A", "stop_id": "mkpQpPSv", "name": "Sivanandha Gurukulam", "city": "CHENNAI"}, "geometry": {"type": "Point", "coordinates": [80.0328048018946, 12.81425303644407]}}, {"type": "Feature", "properties": {"route_name": "500A", "stop_id": "GYxWnXpv", "name": "Kattankulathur", "city": "CHENNAI"}, "geometry": {"type": "Point", "coordinates": [80.02959901012446, 12.809235629939066]}}, {"type": "Feature", "properties": {"route_name": "500A", "stop_id": "ZgqhsueA", "name": "Maraimalai Nagar", "city": "CHENNAI"}, "geometry": {"type": "Point", "coordinates": [80.02327606350445, 12.799494910170328]}}, {"type": "Feature", "properties": {"route_name": "500A", "stop_id": "HeSMGtlu", "name": "Samiyar Gate", "city": "CHENNAI"}, "geometry": {"type": "Point", "coordinates": [80.02017697264773, 12.794932508639613]}}, {"type": "Feature", "properties": {"route_name": "500A", "stop_id": "iGMYbQYg", "name": "Stange", "city": "CHENNAI"}, "geometry": {"type": "Point", "coordinates": [80.01689814351016, 12.789597093784955]}}, {"type": "Feature", "properties": {"route_name": "500A", "stop_id": "tDhKnafe", "name": "Ford", "city": "CHENNAI"}, "geometry": {"type": "Point", "coordinates": [80.01515174042163, 12.786756478373835]}}, {"type": "Feature", "properties": {"route_name": "500A", "stop_id": "TabXWeiJ", "name": "Keelkaranai", "city": "CHENNAI"}, "geometry": {"type": "Point", "coordinates": [80.01051771787536, 12.776878787372459]}}, {"type": "Feature", "properties": {"route_name": "500A", "stop_id": "eyUKPfnA", "name": "Singaperumal Kovil", "city": "CHENNAI"}, "geometry": {"type": "Point", "coordinates": [80.00374053632402, 12.761268224379528]}}, {"type": "Feature", "properties": {"route_name": "500A", "stop_id": "WhCgdKgR", "name": "Tirutheri", "city": "CHENNAI"}, "geometry": {"type": "Point", "coordinates": [80.00198135642609, 12.75594328935176]}}, {"type": "Feature", "properties": {"route_name": "500A", "stop_id": "LeICPOtv", "name": "Tirutheri Sathya Nagar", "city": "CHENNAI"}, "geometry": {"type": "Point", "coordinates": [79.99777857462814, 12.749733366054194]}}, {"type": "Feature", "properties": {"route_name": "500A", "stop_id": "vjVhbIrq", "name": "Mahendira World City Or Chettipunyam", "city": "CHENNAI"}, "geometry": {"type": "Point", "coordinates": [79.99265765171958, 12.743286641929114]}}, {"type": "Feature", "properties": {"route_name": "500A", "stop_id": "OSxOVFcp", "name": "Paranur", "city": "CHENNAI"}, "geometry": {"type": "Point", "coordinates": [79.98855446581229, 12.738135585580766]}}, {"type": "Feature", "properties": {"route_name": "500A", "stop_id": "XQiQvefE", "name": "Paranur Toll Plaza", "city": "CHENNAI"}, "geometry": {"type": "Point", "coordinates": [79.9819998101449, 12.724252554441662]}}, {"type": "Feature", "properties": {"route_name": "500A", "stop_id": "DeWEzUGk", "name": "Rajakulipettai", "city": "CHENNAI"}, "geometry": {"type": "Point", "coordinates": [79.98089822698591, 12.716840775107176]}}, {"type": "Feature", "properties": {"route_name": "500A", "stop_id": "rBGGtpqI", "name": "Pulipakkam", "city": "CHENNAI"}, "geometry": {"type": "Point", "coordinates": [79.97903034556327, 12.711444125216117]}}, {"type": "Feature", "properties": {"route_name": "500A", "stop_id": "qheIKvdP", "name": "Chengalpattu Old Bus Terminal", "city": "CHENNAI"}, "geometry": {"type": "Point", "coordinates": [79.97681095842995, 12.696941113450553]}}, {"type": "Feature", "properties": {"route_name": "500A", "stop_id": "bInfxKVp", "name": "Chengalpattu New Bus Terminal", "city": "CHENNAI"}, "geometry": {"type": "Point", "coordinates": [79.98032107910274, 12.691013107249205]}}, {"type": "Feature", "properties": {"name": "500A"}, "geometry": {"type": "LineString", "coordinates": [[80.15055, 12.94029], [80.1496, 12.94054], [80.14813, 12.94085], [80.1481, 12.94086], [80.14748, 12.94102], [80.14702, 12.94111], [80.14514, 12.9415], [80.14302, 12.94191], [80.14277, 12.94197], [80.14225, 12.94209], [80.14167, 12.94229], [80.14099, 12.94249], [80.14059, 12.94261], [80.13991, 12.94284], [80.13898, 12.9432], [80.13826, 12.94338], [80.13793, 12.94348], [80.13795, 12.94271], [80.138, 12.94205], [80.13813, 12.94085], [80.1382, 12.94019], [80.13826, 12.93915], [80.13833, 12.93859], [80.13851, 12.93808], [80.13886, 12.93736], [80.1387, 12.93732], [80.13729, 12.93743], [80.13561, 12.93763], [80.1339, 12.93791], [80.13301, 12.93809], [80.13299, 12.93809], [80.13287, 12.93808], [80.1321, 12.93713], [80.13155, 12.93644], [80.13138, 12.93627], [80.13115, 12.93621], [80.13086, 12.93631], [80.13034, 12.93654], [80.13009, 12.93662], [80.12995, 12.93668], [80.12984, 12.93668], [80.12964, 12.93673], [80.12951, 12.93675], [80.1294, 12.93677], [80.12924, 12.93684], [80.1291, 12.93695], [80.12897, 12.93706], [80.1288, 12.93714], [80.12867, 12.9372], [80.12856, 12.93725], [80.12847, 12.93732], [80.12835, 12.9374], [80.12808, 12.93711], [80.12807, 12.93711], [80.12804, 12.9371], [80.12706, 12.93597], [80.12528, 12.93403], [80.12465, 12.93341], [80.12184, 12.93063], [80.12005, 12.92884], [80.11852, 12.92725], [80.11794, 12.92671], [80.11773, 12.92647], [80.1179, 12.92619], [80.11795, 12.9261], [80.11739, 12.92561], [80.11737, 12.92559], [80.1168, 12.92508], [80.11674, 12.92505], [80.11664, 12.92504], [80.11647, 12.92506], [80.11642, 12.92508], [80.11634, 12.92511], [80.11489, 12.9237], [80.11432, 12.92308], [80.114, 12.92279], [80.11323, 12.92205], [80.11241, 12.92122], [80.11229, 12.92113], [80.11192, 12.92076], [80.1111, 12.92001], [80.11073, 12.91968], [80.10945, 12.91862], [80.10854, 12.91794], [80.10767, 12.91726], [80.10664, 12.91669], [80.10583, 12.91624], [80.10358, 12.91503], [80.10294, 12.91465], [80.10269, 12.91448], [80.10198, 12.91398], [80.10173, 12.91371], [80.10165, 12.91352], [80.10161, 12.91338], [80.10146, 12.91205], [80.1013, 12.91113], [80.10119, 12.91078], [80.10104, 12.91049], [80.10085, 12.91023], [80.10074, 12.91012], [80.10059, 12.91001], [80.10019, 12.9098], [80.09966, 12.90954], [80.09894, 12.90918], [80.09863, 12.90897], [80.09871, 12.90886], [80.09864, 12.90882], [80.09859, 12.90878], [80.09852, 12.90888], [80.09815, 12.9086], [80.09794, 12.9084], [80.09765, 12.9081], [80.09714, 12.90745], [80.09681, 12.90702], [80.09687, 12.90697], [80.09649, 12.90638], [80.09641, 12.90643], [80.09561, 12.9053], [80.09447, 12.90375], [80.0938, 12.90294], [80.09336, 12.90242], [80.09248, 12.90131], [80.09225, 12.90101], [80.09138, 12.89991], [80.09025, 12.89827], [80.08956, 12.89746], [80.08942, 12.89728], [80.08826, 12.89573], [80.08656, 12.89346], [80.08634, 12.89316], [80.08595, 12.89262], [80.08591, 12.89258], [80.08549, 12.89196], [80.08527, 12.89158], [80.08485, 12.8906], [80.08378, 12.88807], [80.08262, 12.88522], [80.08244, 12.88486], [80.08231, 12.88459], [80.08231, 12.88446], [80.08229, 12.88422], [80.08226, 12.88409], [80.0822, 12.8839], [80.08213, 12.88366], [80.08194, 12.88321], [80.08179, 12.88286], [80.08149, 12.88211], [80.08129, 12.88159], [80.08101, 12.88094], [80.08096, 12.88089], [80.08083, 12.88057], [80.07955, 12.87713], [80.0784, 12.87407], [80.07835, 12.8741], [80.07822, 12.87382], [80.07812, 12.87373], [80.07782, 12.87296], [80.07756, 12.87228], [80.07655, 12.86968], [80.07582, 12.8678], [80.07575, 12.86782], [80.0753, 12.86672], [80.07539, 12.86668], [80.07497, 12.86552], [80.07451, 12.86429], [80.07425, 12.86363], [80.07388, 12.86266], [80.07362, 12.8621], [80.07339, 12.86164], [80.07306, 12.86105], [80.07256, 12.86026], [80.07236, 12.85998], [80.07228, 12.86001], [80.07169, 12.85916], [80.07069, 12.85795], [80.06996, 12.85699], [80.06833, 12.85481], [80.06774, 12.85403], [80.06777, 12.85401], [80.06599, 12.85159], [80.06576, 12.85123], [80.0649, 12.85], [80.06405, 12.84884], [80.06233, 12.84654], [80.06206, 12.84621], [80.06145, 12.84552], [80.06152, 12.84536], [80.06164, 12.84515], [80.06148, 12.8454], [80.06147, 12.84538], [80.06121, 12.84513], [80.06115, 12.84519], [80.06046, 12.84455], [80.05939, 12.84358], [80.05876, 12.84296], [80.05842, 12.84265], [80.05808, 12.84228], [80.0569, 12.84116], [80.05629, 12.8406], [80.05551, 12.83984], [80.05459, 12.83896], [80.05417, 12.83856], [80.05371, 12.83816], [80.0528, 12.83731], [80.05088, 12.83549], [80.04998, 12.83466], [80.04829, 12.833], [80.04599, 12.8308], [80.04585, 12.83068], [80.0459, 12.83063], [80.04596, 12.83069], [80.04609, 12.83078], [80.0459, 12.83063], [80.04585, 12.83068], [80.04582, 12.83065], [80.0451, 12.82993], [80.04477, 12.8296], [80.04307, 12.82802], [80.04162, 12.82666], [80.04132, 12.82635], [80.04139, 12.82623], [80.04102, 12.8258], [80.04062, 12.82533], [80.0405, 12.82515], [80.04005, 12.82449], [80.03947, 12.82367], [80.03877, 12.82272], [80.03861, 12.8225], [80.03828, 12.82201], [80.03823, 12.82204], [80.03773, 12.82134], [80.03756, 12.82109], [80.03723, 12.82066], [80.03691, 12.82018], [80.0367, 12.81988], [80.03638, 12.81942], [80.03618, 12.81917], [80.03487, 12.8172], [80.03284, 12.81437], [80.03278, 12.81427], [80.03119, 12.81185], [80.03046, 12.81074], [80.03029, 12.8105], [80.02999, 12.81004], [80.02998, 12.80993], [80.02993, 12.8098], [80.02957, 12.80925], [80.02937, 12.80892], [80.02935, 12.80893], [80.02927, 12.80897], [80.02902, 12.80856], [80.02795, 12.80691], [80.02721, 12.80567], [80.02647, 12.80459], [80.02584, 12.80361], [80.02487, 12.80206], [80.02413, 12.80103], [80.02368, 12.80034], [80.02347, 12.80001], [80.02346, 12.79993], [80.02342, 12.7998], [80.02325, 12.79951], [80.02314, 12.79936], [80.02302, 12.79924], [80.02295, 12.79922], [80.02278, 12.79896], [80.0223, 12.79825], [80.0213, 12.79674], [80.02064, 12.79576], [80.02049, 12.79551], [80.02015, 12.79495], [80.01931, 12.79372], [80.01862, 12.7927], [80.01825, 12.79211], [80.01743, 12.79077], [80.01712, 12.79022], [80.01712, 12.79021], [80.01713, 12.79016], [80.01712, 12.79009], [80.01685, 12.78963], [80.01667, 12.78936], [80.0166, 12.78933], [80.01657, 12.78932], [80.0164, 12.78904], [80.01584, 12.7881], [80.01523, 12.78703], [80.01508, 12.7868], [80.01397, 12.78491], [80.01377, 12.78453], [80.01349, 12.78392], [80.01324, 12.78332], [80.01295, 12.78273], [80.01215, 12.78091], [80.01127, 12.77887], [80.01069, 12.77758], [80.0107, 12.77748], [80.01061, 12.77715], [80.0105, 12.77692], [80.01049, 12.7769], [80.01035, 12.7767], [80.0103, 12.77669], [80.01023, 12.77652], [80.00945, 12.77481], [80.00919, 12.77415], [80.00859, 12.77286], [80.0072, 12.76984], [80.00662, 12.76876], [80.00658, 12.76869], [80.00658, 12.7686], [80.00656, 12.76852], [80.00609, 12.7675], [80.005, 12.765], [80.00451, 12.76382], [80.00437, 12.76347], [80.00399, 12.76245], [80.00373, 12.76127], [80.00343, 12.76014], [80.00324, 12.75954], [80.00297, 12.75867], [80.00265, 12.75763], [80.00239, 12.75691], [80.002, 12.75606], [80.00195, 12.75595], [80.00195, 12.75596], [80.00129, 12.75484], [80.00031, 12.75332], [79.99956, 12.75221], [79.99926, 12.75176], [79.99837, 12.75053], [79.99776, 12.74974], [79.99535, 12.74678], [79.99296, 12.74382], [79.99295, 12.74375], [79.99288, 12.74358], [79.99266, 12.74329], [79.99267, 12.74327], [79.99254, 12.74312], [79.99236, 12.74304], [79.99204, 12.74271], [79.98986, 12.74], [79.98907, 12.73902], [79.98882, 12.73869], [79.98882, 12.73862], [79.98878, 12.73851], [79.98856, 12.73817], [79.98854, 12.73815], [79.98838, 12.73797], [79.98831, 12.73793], [79.98827, 12.73793], [79.98775, 12.73714], [79.987, 12.73609], [79.98667, 12.73567], [79.98632, 12.73529], [79.98596, 12.73498], [79.98539, 12.73454], [79.98435, 12.73377], [79.98387, 12.73338], [79.98356, 12.73303], [79.98341, 12.73281], [79.98329, 12.73255], [79.98321, 12.73224], [79.98316, 12.73194], [79.98299, 12.73051], [79.98271, 12.72782], [79.98254, 12.72668], [79.98235, 12.72584], [79.98228, 12.72549], [79.98198, 12.72426], [79.98175, 12.72332], [79.98147, 12.72222], [79.98137, 12.72168], [79.98127, 12.72092], [79.9811, 12.7194], [79.981, 12.71816], [79.98086, 12.71684], [79.98087, 12.71684], [79.98077, 12.71625], [79.98058, 12.7155], [79.98036, 12.71471], [79.98, 12.71347], [79.97976, 12.71276], [79.97964, 12.71251], [79.97943, 12.71217], [79.97892, 12.71154], [79.97862, 12.71114], [79.97821, 12.71045], [79.9781, 12.71025], [79.97807, 12.71008], [79.97792, 12.70938], [79.97786, 12.70895], [79.97764, 12.70774], [79.97751, 12.70709], [79.97718, 12.70557], [79.97664, 12.70299], [79.97642, 12.70199], [79.97611, 12.70028], [79.97595, 12.69886], [79.97596, 12.69867], [79.97633, 12.69774], [79.97656, 12.69724], [79.97677, 12.69691], [79.97707, 12.69655], [79.97755, 12.69602], [79.97771, 12.69582], [79.97811, 12.69505], [79.97845, 12.69454], [79.97856, 12.6944], [79.9788, 12.69414], [79.97897, 12.69403], [79.97912, 12.69392], [79.97926, 12.69378], [79.9794, 12.69356], [79.97946, 12.69339], [79.9795, 12.69309], [79.97954, 12.69297], [79.97964, 12.69281], [79.9802, 12.69202], [79.98061, 12.69149], [79.98107, 12.69097], [79.98147, 12.69052], [79.98167, 12.69034], [79.98141, 12.69001], [79.98081, 12.69014], [79.9805, 12.69016], [79.98051, 12.69024], [79.98059, 12.69061], [79.98067, 12.69092]]}}]}