{"type": "FeatureCollection", "features": [{"type": "Feature", "properties": {"route_name": "23V", "stop_id": "KQSHMGnw", "name": "Villivakkam Bus Stand", "city": "CHENNAI"}, "geometry": {"type": "Point", "coordinates": [80.20803643643512, 13.105421374732401]}}, {"type": "Feature", "properties": {"route_name": "23V", "stop_id": "HFKfgJoc", "name": "Kalpana Hotel", "city": "CHENNAI"}, "geometry": {"type": "Point", "coordinates": [80.20768397513632, 13.103206714775167]}}, {"type": "Feature", "properties": {"route_name": "23V", "stop_id": "NJSgWoOc", "name": "Kallukkadai", "city": "CHENNAI"}, "geometry": {"type": "Point", "coordinates": [80.21100708978702, 13.102091789178067]}}, {"type": "Feature", "properties": {"route_name": "23V", "stop_id": "WtptgYtz", "name": "ICF Annexe", "city": "CHENNAI"}, "geometry": {"type": "Point", "coordinates": [80.21252690849656, 13.10157949424285]}}, {"type": "Feature", "properties": {"route_name": "23V", "stop_id": "TcTonWJL", "name": "ICF", "city": "CHENNAI"}, "geometry": {"type": "Point", "coordinates": [80.21578320103663, 13.100222337697073]}}, {"type": "Feature", "properties": {"route_name": "23V", "stop_id": "HJTsgSzj", "name": "Kambar Arangam", "city": "CHENNAI"}, "geometry": {"type": "Point", "coordinates": [80.21976074824761, 13.0992472123686]}}, {"type": "Feature", "properties": {"route_name": "23V", "stop_id": "YvwQRHTE", "name": "Railway Quarters", "city": "CHENNAI"}, "geometry": {"type": "Point", "coordinates": [80.22534070183735, 13.100000025373078]}}, {"type": "Feature", "properties": {"route_name": "23V", "stop_id": "QrdELzCu", "name": "Joint Office", "city": "CHENNAI"}, "geometry": {"type": "Point", "coordinates": [80.22988659818111, 13.099765103995907]}}, {"type": "Feature", "properties": {"route_name": "23V", "stop_id": "fRxWIrbs", "name": "Noor Hotel", "city": "CHENNAI"}, "geometry": {"type": "Point", "coordinates": [80.23428872329623, 13.09862110170927]}}, {"type": "Feature", "properties": {"route_name": "23V", "stop_id": "ryMrZCSE", "name": "Sayani Theatre Aynavaram", "city": "CHENNAI"}, "geometry": {"type": "Point", "coordinates": [80.23976256796573, 13.097793041345161]}}, {"type": "Feature", "properties": {"route_name": "23V", "stop_id": "OkTOljoV", "name": "E S I Hospital", "city": "CHENNAI"}, "geometry": {"type": "Point", "coordinates": [80.24136573346641, 13.094755041394231]}}, {"type": "Feature", "properties": {"route_name": "23V", "stop_id": "svamcGgQ", "name": "Medavakkam Mental Hospital", "city": "CHENNAI"}, "geometry": {"type": "Point", "coordinates": [80.24095586823455, 13.091173815450553]}}, {"type": "Feature", "properties": {"route_name": "23V", "stop_id": "yZEnTGkU", "name": "Medavakkam Kellys", "city": "CHENNAI"}, "geometry": {"type": "Point", "coordinates": [80.2419529533995, 13.088510357883557]}}, {"type": "Feature", "properties": {"route_name": "23V", "stop_id": "jzhhipmd", "name": "Motcham Aysha Hospital Or Motcham Theatre", "city": "CHENNAI"}, "geometry": {"type": "Point", "coordinates": [80.25024250261423, 13.084832567580577]}}, {"type": "Feature", "properties": {"route_name": "23V", "stop_id": "upZFxFqB", "name": "Madhar Sha", "city": "CHENNAI"}, "geometry": {"type": "Point", "coordinates": [80.25180701077508, 13.085782296021032]}}, {"type": "Feature", "properties": {"route_name": "23V", "stop_id": "xkdRvtRu", "name": "Purasaivakkam Tank", "city": "CHENNAI"}, "geometry": {"type": "Point", "coordinates": [80.25459983015855, 13.083658031929831]}}, {"type": "Feature", "properties": {"route_name": "23V", "stop_id": "JvhqCmbT", "name": "Alagappa Schools", "city": "CHENNAI"}, "geometry": {"type": "Point", "coordinates": [80.25451299, 13.08270776]}}, {"type": "Feature", "properties": {"route_name": "23V", "stop_id": "FmTbQszJ", "name": "Dharma Prakash Or MCTM School", "city": "CHENNAI"}, "geometry": {"type": "Point", "coordinates": [80.25486360182936, 13.080794310517591]}}, {"type": "Feature", "properties": {"route_name": "23V", "stop_id": "HTKZNJTs", "name": "Das Prakash Hotel Or Petrol Pump", "city": "CHENNAI"}, "geometry": {"type": "Point", "coordinates": [80.25462333184373, 13.079812230361082]}}, {"type": "Feature", "properties": {"route_name": "23V", "stop_id": "FFLftRlg", "name": "T N Sports Authority", "city": "CHENNAI"}, "geometry": {"type": "Point", "coordinates": [80.2586635753139, 13.07561399657108]}}, {"type": "Feature", "properties": {"route_name": "23V", "stop_id": "vBGGqNND", "name": "Egmore Railway Station", "city": "CHENNAI"}, "geometry": {"type": "Point", "coordinates": [80.26215448617404, 13.077874240888205]}}, {"type": "Feature", "properties": {"route_name": "23V", "stop_id": "nhOrrzGl", "name": "Egmore ", "city": "CHENNAI"}, "geometry": {"type": "Point", "coordinates": [80.2637108826545, 13.077812255902316]}}, {"type": "Feature", "properties": {"route_name": "23V", "stop_id": "qSowWcvN", "name": "Albert Theatre", "city": "CHENNAI"}, "geometry": {"type": "Point", "coordinates": [80.2642657951535, 13.076224256633315]}}, {"type": "Feature", "properties": {"route_name": "23V", "stop_id": "QRrhNfpu", "name": "Commissioner Office", "city": "CHENNAI"}, "geometry": {"type": "Point", "coordinates": [80.26171612841563, 13.073701724341005]}}, {"type": "Feature", "properties": {"route_name": "23V", "stop_id": "BgYvcKFh", "name": "Egmore Court", "city": "CHENNAI"}, "geometry": {"type": "Point", "coordinates": [80.26200220209853, 13.073021989427929]}}, {"type": "Feature", "properties": {"route_name": "23V", "stop_id": "bKKUjGhb", "name": "Pudupet", "city": "CHENNAI"}, "geometry": {"type": "Point", "coordinates": [80.26606998649197, 13.070223462861536]}}, {"type": "Feature", "properties": {"route_name": "23V", "stop_id": "LbKosGpD", "name": "Shanthi Theatre", "city": "CHENNAI"}, "geometry": {"type": "Point", "coordinates": [80.27047620448093, 13.067231830340535]}}, {"type": "Feature", "properties": {"route_name": "23V", "stop_id": "NBopaFdP", "name": "Lic", "city": "CHENNAI"}, "geometry": {"type": "Point", "coordinates": [80.2663441938297, 13.06467874213801]}}, {"type": "Feature", "properties": {"route_name": "23V", "stop_id": "mHRdWDIt", "name": "Spensor Plaza TVS", "city": "CHENNAI"}, "geometry": {"type": "Point", "coordinates": [80.2599162395787, 13.059476027356299]}}, {"type": "Feature", "properties": {"route_name": "23V", "stop_id": "XFLojCJa", "name": "Anand Theatre", "city": "CHENNAI"}, "geometry": {"type": "Point", "coordinates": [80.25718621, 13.05641246]}}, {"type": "Feature", "properties": {"route_name": "23V", "stop_id": "qpacHTVx", "name": "Church Park School", "city": "CHENNAI"}, "geometry": {"type": "Point", "coordinates": [80.25381812534101, 13.054320507629198]}}, {"type": "Feature", "properties": {"route_name": "23V", "stop_id": "cPCRxZjy", "name": "Thousand light Or U S Embassy", "city": "CHENNAI"}, "geometry": {"type": "Point", "coordinates": [80.25297039129896, 13.053612965708266]}}, {"type": "Feature", "properties": {"route_name": "23V", "stop_id": "LPfgjVyT", "name": "DMS", "city": "CHENNAI"}, "geometry": {"type": "Point", "coordinates": [80.24861385254701, 13.046978028476232]}}, {"type": "Feature", "properties": {"route_name": "23V", "stop_id": "cniBuICf", "name": "Vanavil", "city": "CHENNAI"}, "geometry": {"type": "Point", "coordinates": [80.24742096301384, 13.041493303435086]}}, {"type": "Feature", "properties": {"route_name": "23V", "stop_id": "WtPVEKaC", "name": "Teynampet Metro or SIET College", "city": "CHENNAI"}, "geometry": {"type": "Point", "coordinates": [80.24651083106585, 13.037120995799397]}}, {"type": "Feature", "properties": {"route_name": "23V", "stop_id": "HvQMjFdy", "name": "S I E T College", "city": "CHENNAI"}, "geometry": {"type": "Point", "coordinates": [80.24613247, 13.03527919]}}, {"type": "Feature", "properties": {"route_name": "23V", "stop_id": "BYsSDXCP", "name": "Nandanam Metro", "city": "CHENNAI"}, "geometry": {"type": "Point", "coordinates": [80.24112919587397, 13.031649101433104]}}, {"type": "Feature", "properties": {"route_name": "23V", "stop_id": "zjSAMvDn", "name": "Nandanam YMCA", "city": "CHENNAI"}, "geometry": {"type": "Point", "coordinates": [80.2366264217136, 13.02885415557313]}}, {"type": "Feature", "properties": {"route_name": "23V", "stop_id": "fubLBmAl", "name": "Saidapet Veterinary Hospital Or Raja Hostel", "city": "CHENNAI"}, "geometry": {"type": "Point", "coordinates": [80.22976399085928, 13.025144344408464]}}, {"type": "Feature", "properties": {"route_name": "23V", "stop_id": "DOGyniWl", "name": "Saidapet Metro", "city": "CHENNAI"}, "geometry": {"type": "Point", "coordinates": [80.2281859358351, 13.023758074666299]}}, {"type": "Feature", "properties": {"route_name": "23V", "stop_id": "GbYxEXTt", "name": "Tamil Nadu Open University Or Panagal Maligai", "city": "CHENNAI"}, "geometry": {"type": "Point", "coordinates": [80.22567676852101, 13.021143761114198]}}, {"type": "Feature", "properties": {"route_name": "23V", "stop_id": "YmkUpvHU", "name": "Chinnamalai B S or Saidapet Court", "city": "CHENNAI"}, "geometry": {"type": "Point", "coordinates": [80.22645940770053, 13.0139397637957]}}, {"type": "Feature", "properties": {"route_name": "23V", "stop_id": "rRGVruPM", "name": "Raj Bhavan Quarters", "city": "CHENNAI"}, "geometry": {"type": "Point", "coordinates": [80.22517469844684, 13.010580746325664]}}, {"type": "Feature", "properties": {"route_name": "23V", "stop_id": "POsNTwnJ", "name": "Halda", "city": "CHENNAI"}, "geometry": {"type": "Point", "coordinates": [80.22286082, 13.0106453]}}, {"type": "Feature", "properties": {"route_name": "23V", "stop_id": "OXcUkifL", "name": "Kannaigapuram", "city": "CHENNAI"}, "geometry": {"type": "Point", "coordinates": [80.22041006, 13.00511158]}}, {"type": "Feature", "properties": {"route_name": "23V", "stop_id": "WCllcJIC", "name": "Vellacherry Check Post", "city": "CHENNAI"}, "geometry": {"type": "Point", "coordinates": [80.21657282, 12.99757362]}}, {"type": "Feature", "properties": {"route_name": "23V", "stop_id": "SEjojzMr", "name": "Guru Nanak College", "city": "CHENNAI"}, "geometry": {"type": "Point", "coordinates": [80.22023578275683, 12.990783918859547]}}, {"type": "Feature", "properties": {"route_name": "23V", "stop_id": "TgzZcdmy", "name": "Gandhi Road", "city": "CHENNAI"}, "geometry": {"type": "Point", "coordinates": [80.22308184171618, 12.987704690097594]}}, {"type": "Feature", "properties": {"route_name": "23V", "stop_id": "KIvXTDlT", "name": "Dhandeeswaran Nagar", "city": "CHENNAI"}, "geometry": {"type": "Point", "coordinates": [80.22330789312657, 12.985402644684891]}}, {"type": "Feature", "properties": {"route_name": "23V", "stop_id": "IvXmMOhB", "name": "Velachery", "city": "CHENNAI"}, "geometry": {"type": "Point", "coordinates": [80.22131848487322, 12.975765216490158]}}, {"type": "Feature", "properties": {"name": "23V"}, "geometry": {"type": "LineString", "coordinates": [[80.2079, 13.10544], [80.20752, 13.1032], [80.20766, 13.10315], [80.20893, 13.10273], [80.20961, 13.10251], [80.21079, 13.1021], [80.21099, 13.10203], [80.2125, 13.1015], [80.2133, 13.10118], [80.21383, 13.10099], [80.21408, 13.10087], [80.21429, 13.10082], [80.2148, 13.10063], [80.21576, 13.10017], [80.21654, 13.09983], [80.21699, 13.09968], [80.21747, 13.09957], [80.21771, 13.09954], [80.21865, 13.09937], [80.21939, 13.09928], [80.21975, 13.09921], [80.22133, 13.09893], [80.22166, 13.09888], [80.22246, 13.09878], [80.22282, 13.0988], [80.2229, 13.09883], [80.22315, 13.09897], [80.22366, 13.09939], [80.22387, 13.09955], [80.22418, 13.09969], [80.22444, 13.09977], [80.2251, 13.09992], [80.22531, 13.09996], [80.22535, 13.09996], [80.22616, 13.10005], [80.22678, 13.10009], [80.22704, 13.10011], [80.22773, 13.10012], [80.2279, 13.10011], [80.22799, 13.10007], [80.22852, 13.09998], [80.22893, 13.0999], [80.22933, 13.09984], [80.22988, 13.09973], [80.23053, 13.09955], [80.23079, 13.09946], [80.23187, 13.099], [80.23216, 13.0989], [80.2326, 13.0988], [80.23336, 13.09866], [80.23366, 13.09862], [80.23429, 13.09858], [80.23491, 13.09851], [80.23599, 13.09834], [80.23721, 13.09811], [80.23734, 13.09811], [80.23769, 13.09804], [80.23889, 13.09783], [80.23976, 13.09776], [80.24052, 13.09772], [80.24141, 13.09761], [80.24207, 13.09748], [80.24214, 13.09747], [80.24211, 13.09738], [80.24191, 13.09674], [80.24183, 13.09634], [80.24172, 13.09599], [80.24163, 13.09575], [80.24145, 13.0952], [80.24135, 13.09476], [80.24124, 13.09426], [80.24106, 13.09333], [80.24095, 13.09249], [80.24088, 13.09139], [80.24088, 13.09118], [80.24086, 13.09053], [80.24089, 13.09018], [80.24096, 13.08994], [80.24107, 13.08972], [80.2414, 13.08922], [80.24193, 13.08849], [80.24222, 13.08812], [80.24234, 13.08803], [80.24274, 13.08794], [80.24322, 13.08786], [80.24338, 13.08781], [80.24362, 13.08767], [80.24381, 13.0875], [80.24391, 13.0874], [80.24415, 13.08707], [80.24475, 13.08636], [80.24521, 13.08582], [80.24526, 13.08576], [80.24533, 13.08573], [80.24529, 13.08565], [80.2452, 13.08543], [80.2446, 13.08429], [80.24412, 13.08332], [80.24384, 13.0827], [80.24373, 13.08244], [80.24378, 13.08234], [80.24385, 13.08225], [80.24403, 13.08211], [80.2446, 13.08198], [80.24503, 13.08186], [80.24568, 13.08172], [80.24658, 13.08162], [80.24791, 13.08154], [80.24882, 13.08153], [80.24922, 13.08148], [80.24934, 13.08146], [80.24947, 13.08144], [80.24969, 13.08201], [80.2498, 13.08242], [80.24989, 13.083], [80.25002, 13.08374], [80.25023, 13.08483], [80.25039, 13.0859], [80.25043, 13.08597], [80.25054, 13.08591], [80.25062, 13.0859], [80.25084, 13.08587], [80.25127, 13.08583], [80.2518, 13.08575], [80.25228, 13.08567], [80.25311, 13.08558], [80.25367, 13.08558], [80.25446, 13.08568], [80.25458, 13.08562], [80.25465, 13.08556], [80.25457, 13.08433], [80.25452, 13.08375], [80.25452, 13.08371], [80.2546, 13.0837], [80.25452, 13.08371], [80.25449, 13.08336], [80.25446, 13.08271], [80.25444, 13.08229], [80.25482, 13.08162], [80.25483, 13.08113], [80.25477, 13.08081], [80.25461, 13.07982], [80.25455, 13.07948], [80.25456, 13.07932], [80.25461, 13.079], [80.25555, 13.07913], [80.25593, 13.07916], [80.2566, 13.07921], [80.25666, 13.0789], [80.25665, 13.07873], [80.25671, 13.07762], [80.25677, 13.07736], [80.25689, 13.07708], [80.25707, 13.07681], [80.25726, 13.0766], [80.25799, 13.07577], [80.25817, 13.07553], [80.25822, 13.07545], [80.2584, 13.07553], [80.25852, 13.07558], [80.25866, 13.07561], [80.25893, 13.07567], [80.25921, 13.07578], [80.25937, 13.07586], [80.25959, 13.07607], [80.26009, 13.07665], [80.26025, 13.07686], [80.26041, 13.07702], [80.26059, 13.07716], [80.26073, 13.07724], [80.26081, 13.07727], [80.26096, 13.07731], [80.26108, 13.07739], [80.26117, 13.07744], [80.26185, 13.07768], [80.26185, 13.07772], [80.26188, 13.07776], [80.26216, 13.07787], [80.26241, 13.07793], [80.26259, 13.07794], [80.2632, 13.07821], [80.2632, 13.07822], [80.26321, 13.07824], [80.26324, 13.07827], [80.26327, 13.0783], [80.26336, 13.07829], [80.26342, 13.07822], [80.26342, 13.07818], [80.26342, 13.07816], [80.2637, 13.0778], [80.26398, 13.07744], [80.26408, 13.07728], [80.26415, 13.07694], [80.26423, 13.07622], [80.26424, 13.07603], [80.26429, 13.07581], [80.26432, 13.07573], [80.26426, 13.07569], [80.26391, 13.07546], [80.2632, 13.07494], [80.26279, 13.07462], [80.26182, 13.07383], [80.2617, 13.07372], [80.26153, 13.07355], [80.26134, 13.07332], [80.26129, 13.07323], [80.26129, 13.07322], [80.2613, 13.0732], [80.26199, 13.07299], [80.26221, 13.0729], [80.26278, 13.07269], [80.26327, 13.07251], [80.26362, 13.07237], [80.26397, 13.07215], [80.26454, 13.07165], [80.2652, 13.07102], [80.26545, 13.07077], [80.26554, 13.07073], [80.26576, 13.07051], [80.26606, 13.07023], [80.26704, 13.06927], [80.26719, 13.06914], [80.26736, 13.06901], [80.26778, 13.06885], [80.26815, 13.06872], [80.26916, 13.06841], [80.26934, 13.06836], [80.26945, 13.0683], [80.26988, 13.06823], [80.2703, 13.06822], [80.27074, 13.06818], [80.27087, 13.06813], [80.27094, 13.06809], [80.27103, 13.06785], [80.27044, 13.06726], [80.27009, 13.06691], [80.2698, 13.06667], [80.26962, 13.06655], [80.26953, 13.0665], [80.26945, 13.06646], [80.26923, 13.06639], [80.26893, 13.06635], [80.26851, 13.06633], [80.26843, 13.06631], [80.26833, 13.06625], [80.26787, 13.06595], [80.26756, 13.06571], [80.2663, 13.06473], [80.26507, 13.06373], [80.26461, 13.06339], [80.26383, 13.06264], [80.26326, 13.06221], [80.26247, 13.06161], [80.26146, 13.06077], [80.26138, 13.06069], [80.2599, 13.05949], [80.25902, 13.05877], [80.25836, 13.05824], [80.25771, 13.05768], [80.25776, 13.05662], [80.25761, 13.05659], [80.25728, 13.05652], [80.25717, 13.05649], [80.25715, 13.05648], [80.25689, 13.05642], [80.25667, 13.05639], [80.25651, 13.05639], [80.25625, 13.05618], [80.25454, 13.05494], [80.25417, 13.05463], [80.2538, 13.05434], [80.25291, 13.05369], [80.25293, 13.05368], [80.25232, 13.05327], [80.25203, 13.05306], [80.25116, 13.05242], [80.25074, 13.05209], [80.25048, 13.05181], [80.25036, 13.05166], [80.25027, 13.05152], [80.25018, 13.05132], [80.25008, 13.05096], [80.25, 13.05045], [80.24992, 13.04979], [80.24985, 13.0494], [80.2498, 13.04884], [80.24972, 13.04858], [80.24958, 13.04834], [80.24933, 13.048], [80.24875, 13.04744], [80.24865, 13.0473], [80.24858, 13.04713], [80.24855, 13.047], [80.2483, 13.04599], [80.2482, 13.04556], [80.24819, 13.04539], [80.24813, 13.04496], [80.24793, 13.04393], [80.2478, 13.04332], [80.2474, 13.0415], [80.2472, 13.04048], [80.24704, 13.03946], [80.24697, 13.0392], [80.24685, 13.03872], [80.24656, 13.03748], [80.24649, 13.03713], [80.24611, 13.03555], [80.24605, 13.03531], [80.24592, 13.03504], [80.24581, 13.03491], [80.24567, 13.03478], [80.24489, 13.03416], [80.24429, 13.03373], [80.24299, 13.03274], [80.24254, 13.03244], [80.24229, 13.03229], [80.24141, 13.03181], [80.24112, 13.03166], [80.24019, 13.03123], [80.23974, 13.031], [80.23785, 13.02991], [80.23735, 13.0296], [80.23706, 13.02936], [80.23657, 13.02892], [80.23656, 13.02892], [80.23564, 13.02809], [80.23548, 13.02796], [80.23442, 13.02738], [80.23282, 13.02644], [80.23249, 13.02631], [80.2314, 13.02603], [80.23072, 13.0258], [80.23035, 13.02564], [80.23017, 13.02553], [80.22972, 13.02521], [80.22973, 13.02518], [80.22835, 13.02408], [80.22809, 13.02386], [80.22772, 13.02352], [80.22757, 13.02338], [80.22631, 13.02197], [80.22569, 13.02114], [80.22513, 13.02039], [80.22497, 13.02023], [80.22468, 13.01979], [80.22459, 13.01965], [80.22452, 13.01949], [80.22446, 13.01919], [80.22447, 13.01893], [80.22514, 13.01725], [80.22537, 13.01666], [80.22545, 13.01641], [80.22569, 13.01577], [80.22622, 13.01442], [80.22641, 13.01392], [80.22672, 13.01307], [80.22699, 13.01237], [80.22751, 13.01108], [80.22792, 13.01013], [80.22796, 13.00976], [80.22792, 13.00961], [80.22783, 13.00955], [80.22774, 13.00952], [80.22769, 13.00952], [80.22747, 13.00959], [80.22629, 13.01014], [80.22615, 13.01018], [80.22607, 13.01018], [80.22541, 13.0105], [80.22519, 13.01061], [80.22492, 13.01074], [80.22486, 13.01075], [80.22467, 13.01083], [80.22358, 13.01129], [80.22324, 13.01144], [80.22299, 13.01104], [80.2228, 13.01067], [80.22285, 13.01065], [80.22199, 13.00909], [80.22107, 13.00733], [80.22082, 13.00685], [80.22071, 13.00664], [80.22059, 13.00628], [80.22043, 13.00545], [80.22036, 13.00512], [80.22027, 13.00466], [80.2202, 13.00448], [80.22012, 13.00416], [80.21999, 13.00354], [80.21989, 13.00316], [80.21974, 13.00283], [80.21963, 13.00262], [80.21949, 13.00246], [80.21882, 13.00183], [80.21866, 13.00167], [80.21834, 13.00127], [80.21813, 13.00095], [80.21777, 13.00034], [80.21722, 12.99944], [80.21699, 12.99901], [80.21684, 12.99871], [80.21669, 12.99837], [80.21662, 12.99814], [80.21657, 12.99788], [80.21654, 12.99758], [80.21653, 12.99694], [80.21657, 12.99655], [80.21661, 12.99624], [80.21676, 12.99568], [80.21692, 12.99529], [80.21711, 12.99499], [80.21729, 12.99473], [80.21885, 12.99258], [80.21955, 12.99161], [80.21978, 12.99132], [80.22022, 12.99077], [80.22068, 12.99015], [80.22088, 12.98994], [80.22097, 12.98984], [80.22148, 12.98941], [80.22171, 12.98925], [80.22229, 12.98875], [80.22263, 12.98838], [80.22295, 12.98797], [80.22303, 12.98784], [80.22306, 12.98775], [80.22306, 12.9877], [80.22307, 12.98736], [80.22304, 12.98708], [80.22297, 12.98674], [80.22296, 12.9864], [80.22297, 12.98616], [80.22297, 12.98597], [80.223, 12.98582], [80.22303, 12.98575], [80.22313, 12.98561], [80.22324, 12.9855], [80.22329, 12.98541], [80.22329, 12.98539], [80.22329, 12.98529], [80.22323, 12.98508], [80.22302, 12.9847], [80.22284, 12.98441], [80.22261, 12.98403], [80.22208, 12.98316], [80.22187, 12.98276], [80.2217, 12.98224], [80.22159, 12.98205], [80.22125, 12.98155], [80.22107, 12.98115], [80.22098, 12.98081], [80.22098, 12.98058], [80.22102, 12.98021], [80.22104, 12.98001], [80.2211, 12.97961], [80.22115, 12.97908], [80.22118, 12.97856], [80.22121, 12.97823], [80.22119, 12.97794], [80.22121, 12.97756], [80.22123, 12.97704], [80.22121, 12.97679], [80.22122, 12.97627], [80.22142, 12.97597], [80.22128, 12.97586]]}}]}