{"type": "FeatureCollection", "features": [{"type": "Feature", "properties": {"route_name": "221", "stop_id": "mAREpQlu", "name": "Thiruporur Bus Stand", "city": "CHENNAI"}, "geometry": {"type": "Point", "coordinates": [80.18725535471185, 12.722137179764035]}}, {"type": "Feature", "properties": {"route_name": "221", "stop_id": "pkAaqtnD", "name": "Kandhaswami Temple Tank Thiruporur", "city": "CHENNAI"}, "geometry": {"type": "Point", "coordinates": [80.18789604034373, 12.724598357742186]}}, {"type": "Feature", "properties": {"route_name": "221", "stop_id": "HJijptKA", "name": "Thiruporur Kovil", "city": "CHENNAI"}, "geometry": {"type": "Point", "coordinates": [80.18895353175196, 12.729914446503047]}}, {"type": "Feature", "properties": {"route_name": "221", "stop_id": "lRwzpFEA", "name": "Thiruporur Or Kannagapattu", "city": "CHENNAI"}, "geometry": {"type": "Point", "coordinates": [80.19038615893464, 12.736224572940568]}}, {"type": "Feature", "properties": {"route_name": "221", "stop_id": "EWoqQawU", "name": "Kalavakkam", "city": "CHENNAI"}, "geometry": {"type": "Point", "coordinates": [80.19727762935008, 12.741861009717345]}}, {"type": "Feature", "properties": {"route_name": "221", "stop_id": "tnRCfdJr", "name": "Kalavakkam School", "city": "CHENNAI"}, "geometry": {"type": "Point", "coordinates": [80.20025127119561, 12.744334781934427]}}, {"type": "Feature", "properties": {"route_name": "221", "stop_id": "LlpMjrks", "name": "SSN College", "city": "CHENNAI"}, "geometry": {"type": "Point", "coordinates": [80.20411860503397, 12.751436949935604]}}, {"type": "Feature", "properties": {"route_name": "221", "stop_id": "oeTroIck", "name": "Koman Nagar Road Junction", "city": "CHENNAI"}, "geometry": {"type": "Point", "coordinates": [80.20719366361891, 12.75696238963906]}}, {"type": "Feature", "properties": {"route_name": "221", "stop_id": "BsovYeFI", "name": "Vijaya Shanthi Lotus Pond", "city": "CHENNAI"}, "geometry": {"type": "Point", "coordinates": [80.2088683625085, 12.760142566383951]}}, {"type": "Feature", "properties": {"route_name": "221", "stop_id": "azqUKhQu", "name": "Chenganmal Road Junction", "city": "CHENNAI"}, "geometry": {"type": "Point", "coordinates": [80.2130667848553, 12.770894116705879]}}, {"type": "Feature", "properties": {"route_name": "221", "stop_id": "hvwrhWFk", "name": "Elavanthangal", "city": "CHENNAI"}, "geometry": {"type": "Point", "coordinates": [80.21723455470939, 12.780641000718918]}}, {"type": "Feature", "properties": {"route_name": "221", "stop_id": "uxBjVsKf", "name": "Kelambakkmm Police Station", "city": "CHENNAI"}, "geometry": {"type": "Point", "coordinates": [80.21990367384092, 12.785399610431222]}}, {"type": "Feature", "properties": {"route_name": "221", "stop_id": "ngtiheSM", "name": "Kelambakkmm General Hospital", "city": "CHENNAI"}, "geometry": {"type": "Point", "coordinates": [80.22043933846362, 12.786694812130275]}}, {"type": "Feature", "properties": {"route_name": "221", "stop_id": "rPcYYZtd", "name": "AP Super Market", "city": "CHENNAI"}, "geometry": {"type": "Point", "coordinates": [80.22132770552253, 12.789027384331868]}}, {"type": "Feature", "properties": {"route_name": "221", "stop_id": "bzkCWXwV", "name": "Chettinad Hospital", "city": "CHENNAI"}, "geometry": {"type": "Point", "coordinates": [80.2228130055016, 12.795946845148737]}}, {"type": "Feature", "properties": {"route_name": "221", "stop_id": "aEhaaulL", "name": "Hindustan College", "city": "CHENNAI"}, "geometry": {"type": "Point", "coordinates": [80.22351492279154, 12.801378939055358]}}, {"type": "Feature", "properties": {"route_name": "221", "stop_id": "syNMMSsu", "name": "Padur", "city": "CHENNAI"}, "geometry": {"type": "Point", "coordinates": [80.22406912062661, 12.805495364581848]}}, {"type": "Feature", "properties": {"route_name": "221", "stop_id": "nermFKBU", "name": "Akshaya Padur", "city": "CHENNAI"}, "geometry": {"type": "Point", "coordinates": [80.22794594651066, 12.811019888178407]}}, {"type": "Feature", "properties": {"route_name": "221", "stop_id": "eHBdrFbQ", "name": "Kazhipattur", "city": "CHENNAI"}, "geometry": {"type": "Point", "coordinates": [80.2303923928731, 12.819641442911562]}}, {"type": "Feature", "properties": {"route_name": "221", "stop_id": "AQHsowCO", "name": "Vaniyanchavadi Padma Adarsh School", "city": "CHENNAI"}, "geometry": {"type": "Point", "coordinates": [80.23128127090364, 12.826347836413337]}}, {"type": "Feature", "properties": {"route_name": "221", "stop_id": "oLzlCKof", "name": "IT Park Siruseri Or Muttukadu", "city": "CHENNAI"}, "geometry": {"type": "Point", "coordinates": [80.22873179927922, 12.833150500179274]}}, {"type": "Feature", "properties": {"route_name": "221", "stop_id": "QxkHLGuk", "name": "Navallur", "city": "CHENNAI"}, "geometry": {"type": "Point", "coordinates": [80.22643294554973, 12.844722701975323]}}, {"type": "Feature", "properties": {"route_name": "221", "stop_id": "MlXQVZuf", "name": "AGS Complex Navalur", "city": "CHENNAI"}, "geometry": {"type": "Point", "coordinates": [80.22641201043257, 12.850397437266455]}}, {"type": "Feature", "properties": {"route_name": "221", "stop_id": "VHmQaoRO", "name": "Semmancheri", "city": "CHENNAI"}, "geometry": {"type": "Point", "coordinates": [80.22640137469716, 12.861658751682949]}}, {"type": "Feature", "properties": {"route_name": "221", "stop_id": "kbNsckqG", "name": "Satyabhama University", "city": "CHENNAI"}, "geometry": {"type": "Point", "coordinates": [80.22641348472621, 12.871049493792462]}}, {"type": "Feature", "properties": {"route_name": "221", "stop_id": "qQJgvOFz", "name": "Kumaran Nagar", "city": "CHENNAI"}, "geometry": {"type": "Point", "coordinates": [80.22664666211551, 12.87764362828838]}}, {"type": "Feature", "properties": {"route_name": "221", "stop_id": "oRUBDfuD", "name": "Ponniamman Kovil", "city": "CHENNAI"}, "geometry": {"type": "Point", "coordinates": [80.22668805211401, 12.886070391143019]}}, {"type": "Feature", "properties": {"route_name": "221", "stop_id": "nunLDRbE", "name": "Government School Sholinganallur", "city": "CHENNAI"}, "geometry": {"type": "Point", "coordinates": [80.22740828807878, 12.894547209831996]}}, {"type": "Feature", "properties": {"route_name": "221", "stop_id": "deapEAbC", "name": "Sholinganallur", "city": "CHENNAI"}, "geometry": {"type": "Point", "coordinates": [80.22767726599693, 12.899912649167579]}}, {"type": "Feature", "properties": {"route_name": "221", "stop_id": "aZtqChJJ", "name": "Dollar Or Accenture", "city": "CHENNAI"}, "geometry": {"type": "Point", "coordinates": [80.22815376423773, 12.907483001033574]}}, {"type": "Feature", "properties": {"route_name": "221", "stop_id": "ttVqQknl", "name": "Karapakkam", "city": "CHENNAI"}, "geometry": {"type": "Point", "coordinates": [80.22904078402053, 12.913497563941869]}}, {"type": "Feature", "properties": {"route_name": "221", "stop_id": "ryJVAbFB", "name": "KCG College", "city": "CHENNAI"}, "geometry": {"type": "Point", "coordinates": [80.22990280231544, 12.919772388546608]}}, {"type": "Feature", "properties": {"route_name": "221", "stop_id": "vnfcOAch", "name": "Okkiyampet", "city": "CHENNAI"}, "geometry": {"type": "Point", "coordinates": [80.23068170361807, 12.925773911721457]}}, {"type": "Feature", "properties": {"route_name": "221", "stop_id": "pjRBTtLk", "name": "PTC Quarters Or Mootakaran Chavadi", "city": "CHENNAI"}, "geometry": {"type": "Point", "coordinates": [80.23226845685394, 12.932983957165462]}}, {"type": "Feature", "properties": {"route_name": "221", "stop_id": "ZKEtlMvK", "name": "Mettukuppam", "city": "CHENNAI"}, "geometry": {"type": "Point", "coordinates": [80.23517663146639, 12.939144572388123]}}, {"type": "Feature", "properties": {"route_name": "221", "stop_id": "kohCEyKT", "name": "D B Jain College", "city": "CHENNAI"}, "geometry": {"type": "Point", "coordinates": [80.2395089526666, 12.946610098943609]}}, {"type": "Feature", "properties": {"route_name": "221", "stop_id": "FaHpkwNs", "name": "Seevaram", "city": "CHENNAI"}, "geometry": {"type": "Point", "coordinates": [80.24123143189831, 12.951040325394723]}}, {"type": "Feature", "properties": {"route_name": "221", "stop_id": "DpeufCiu", "name": "Perungudi", "city": "CHENNAI"}, "geometry": {"type": "Point", "coordinates": [80.24428318538433, 12.958837152218576]}}, {"type": "Feature", "properties": {"route_name": "221", "stop_id": "SGVPbDEb", "name": "Kandanchavadi", "city": "CHENNAI"}, "geometry": {"type": "Point", "coordinates": [80.24782736363784, 12.96693486906636]}}, {"type": "Feature", "properties": {"route_name": "221", "stop_id": "MtINPaKl", "name": "I G P", "city": "CHENNAI"}, "geometry": {"type": "Point", "coordinates": [80.25036841247538, 12.974300093869873]}}, {"type": "Feature", "properties": {"route_name": "221", "stop_id": "RuAJZyMI", "name": "SRP Tools", "city": "CHENNAI"}, "geometry": {"type": "Point", "coordinates": [80.25223488499046, 12.978552510802254]}}, {"type": "Feature", "properties": {"route_name": "221", "stop_id": "rSnWVhOw", "name": "Tidel Park", "city": "CHENNAI"}, "geometry": {"type": "Point", "coordinates": [80.25073061004582, 12.9896336475486]}}, {"type": "Feature", "properties": {"route_name": "221", "stop_id": "CqefHKGq", "name": "Womens Polytechnic College", "city": "CHENNAI"}, "geometry": {"type": "Point", "coordinates": [80.2489356315998, 12.996787491573743]}}, {"type": "Feature", "properties": {"route_name": "221", "stop_id": "nYVfIRsk", "name": "Madhya Kailash", "city": "CHENNAI"}, "geometry": {"type": "Point", "coordinates": [80.2461821771177, 13.00651661419635]}}, {"type": "Feature", "properties": {"route_name": "221", "stop_id": "knCDNjnp", "name": "IIT Madras Or Guindy National Park", "city": "CHENNAI"}, "geometry": {"type": "Point", "coordinates": [80.23999363331677, 13.00679210140227]}}, {"type": "Feature", "properties": {"route_name": "221", "stop_id": "mLBQtksd", "name": "Anna University Or Engineer College", "city": "CHENNAI"}, "geometry": {"type": "Point", "coordinates": [80.2366756977184, 13.007404587801359]}}, {"type": "Feature", "properties": {"route_name": "221", "stop_id": "rRGVruPM", "name": "Raj Bhavan Quarters", "city": "CHENNAI"}, "geometry": {"type": "Point", "coordinates": [80.22517469844684, 13.010580746325664]}}, {"type": "Feature", "properties": {"route_name": "221", "stop_id": "GpnhEWuy", "name": "Concorde or Chellammal College", "city": "CHENNAI"}, "geometry": {"type": "Point", "coordinates": [80.22194994, 13.01186343]}}, {"type": "Feature", "properties": {"route_name": "221", "stop_id": "FyoAuDvn", "name": "Little Mount ", "city": "CHENNAI"}, "geometry": {"type": "Point", "coordinates": [80.2250649963828, 13.015597546918361]}}, {"type": "Feature", "properties": {"route_name": "221", "stop_id": "NXLrCKMp", "name": "Panagal Maligai Or Saiadapet Bridge", "city": "CHENNAI"}, "geometry": {"type": "Point", "coordinates": [80.2243533022414, 13.019119618356324]}}, {"type": "Feature", "properties": {"route_name": "221", "stop_id": "xiTGCYEl", "name": "Saidapet", "city": "CHENNAI"}, "geometry": {"type": "Point", "coordinates": [80.22645189784225, 13.02237471448576]}}, {"type": "Feature", "properties": {"route_name": "221", "stop_id": "yNIUaSyZ", "name": "Thadandar Nagar", "city": "CHENNAI"}, "geometry": {"type": "Point", "coordinates": [80.22842398188516, 13.024420523467967]}}, {"type": "Feature", "properties": {"route_name": "221", "stop_id": "cNuIRYrx", "name": "Saidapet Veterinary Hospital Or Raja Hostel", "city": "CHENNAI"}, "geometry": {"type": "Point", "coordinates": [80.22971101723124, 13.025441595631346]}}, {"type": "Feature", "properties": {"route_name": "221", "stop_id": "OrbXRiVv", "name": "Nandanam YMCA", "city": "CHENNAI"}, "geometry": {"type": "Point", "coordinates": [80.2363018744228, 13.028867874662678]}}, {"type": "Feature", "properties": {"route_name": "221", "stop_id": "anWZyaGW", "name": "Nandanam Metro", "city": "CHENNAI"}, "geometry": {"type": "Point", "coordinates": [80.24096021670603, 13.031732721594496]}}, {"type": "Feature", "properties": {"route_name": "221", "stop_id": "DeiIsjyA", "name": "Teynampet Metro or SIET College", "city": "CHENNAI"}, "geometry": {"type": "Point", "coordinates": [80.24630274553174, 13.037169042763376]}}, {"type": "Feature", "properties": {"route_name": "221", "stop_id": "HQVZivsH", "name": "Vanavil", "city": "CHENNAI"}, "geometry": {"type": "Point", "coordinates": [80.24704813596077, 13.040751202786833]}}, {"type": "Feature", "properties": {"route_name": "221", "stop_id": "UTBcifAN", "name": "DMS", "city": "CHENNAI"}, "geometry": {"type": "Point", "coordinates": [80.24829534022649, 13.046974109023331]}}, {"type": "Feature", "properties": {"route_name": "221", "stop_id": "suszCmcx", "name": "Anand Theatre or Thousand Light", "city": "CHENNAI"}, "geometry": {"type": "Point", "coordinates": [80.25671112714463, 13.056879507984267]}}, {"type": "Feature", "properties": {"route_name": "221", "stop_id": "lwcIkPvE", "name": "Spensor Plaza TVS", "city": "CHENNAI"}, "geometry": {"type": "Point", "coordinates": [80.2612747814826, 13.06090035070302]}}, {"type": "Feature", "properties": {"route_name": "221", "stop_id": "EocVuyzS", "name": "Lic", "city": "CHENNAI"}, "geometry": {"type": "Point", "coordinates": [80.26386382104317, 13.063008515983547]}}, {"type": "Feature", "properties": {"route_name": "221", "stop_id": "lctVuVOk", "name": "Shanthi Theatre", "city": "CHENNAI"}, "geometry": {"type": "Point", "coordinates": [80.2689268934987, 13.067733478670458]}}, {"type": "Feature", "properties": {"route_name": "221", "stop_id": "iPNesxKP", "name": "Simson Or Periyar Bridge", "city": "CHENNAI"}, "geometry": {"type": "Point", "coordinates": [80.27400513, 13.07108876]}}, {"type": "Feature", "properties": {"route_name": "221", "stop_id": "NQaaFyOm", "name": "Pallavan Salai", "city": "CHENNAI"}, "geometry": {"type": "Point", "coordinates": [80.27618439, 13.0754805]}}, {"type": "Feature", "properties": {"route_name": "221", "stop_id": "gzZgDndk", "name": "MGR Central Station", "city": "CHENNAI"}, "geometry": {"type": "Point", "coordinates": [80.27560345417622, 13.082012529953504]}}, {"type": "Feature", "properties": {"name": "221"}, "geometry": {"type": "LineString", "coordinates": [[80.18728, 12.72213], [80.18778, 12.724], [80.18793, 12.72459], [80.18802, 12.72508], [80.18817, 12.72624], [80.18836, 12.7271], [80.18854, 12.72782], [80.18869, 12.72815], [80.18887, 12.72878], [80.18892, 12.72895], [80.18896, 12.72927], [80.18899, 12.72991], [80.18911, 12.73093], [80.18918, 12.7317], [80.18927, 12.73212], [80.1894, 12.73275], [80.1894, 12.73297], [80.18941, 12.73314], [80.18948, 12.73396], [80.18955, 12.73474], [80.18965, 12.73511], [80.18971, 12.73528], [80.18992, 12.73567], [80.1901, 12.73588], [80.19029, 12.73607], [80.19042, 12.7362], [80.19233, 12.73813], [80.19286, 12.73862], [80.19422, 12.73962], [80.19731, 12.74182], [80.19762, 12.74204], [80.19818, 12.74249], [80.19991, 12.744], [80.20026, 12.74432], [80.20042, 12.74447], [80.20076, 12.74484], [80.20099, 12.74518], [80.2012, 12.74555], [80.2019, 12.74689], [80.20318, 12.74947], [80.20384, 12.75082], [80.2041, 12.75137], [80.20414, 12.75143], [80.20566, 12.75426], [80.20719, 12.7569], [80.20721, 12.75695], [80.20891, 12.76012], [80.20945, 12.76112], [80.21025, 12.76296], [80.21056, 12.76376], [80.21126, 12.76567], [80.21219, 12.76825], [80.21309, 12.77088], [80.2131, 12.77088], [80.21383, 12.77292], [80.21503, 12.77598], [80.21556, 12.77719], [80.2159, 12.77804], [80.2166, 12.77943], [80.21724, 12.78061], [80.21725, 12.78063], [80.21858, 12.7831], [80.21881, 12.78344], [80.21898, 12.78371], [80.21944, 12.78459], [80.21953, 12.78473], [80.21991, 12.78538], [80.22011, 12.78576], [80.2202, 12.78607], [80.22028, 12.78623], [80.22046, 12.78669], [80.22065, 12.78717], [80.22094, 12.78794], [80.22135, 12.78902], [80.22166, 12.78992], [80.22187, 12.79079], [80.22224, 12.79227], [80.22236, 12.79289], [80.22253, 12.79412], [80.22283, 12.79594], [80.22313, 12.79747], [80.22321, 12.79811], [80.22338, 12.79994], [80.22352, 12.80146], [80.22376, 12.80326], [80.22389, 12.80412], [80.22392, 12.80472], [80.22397, 12.80504], [80.22409, 12.80549], [80.22416, 12.80566], [80.22422, 12.80575], [80.22558, 12.80735], [80.22596, 12.8078], [80.22686, 12.80877], [80.22725, 12.80932], [80.22753, 12.80984], [80.228, 12.811], [80.22834, 12.81197], [80.22885, 12.81349], [80.22912, 12.81443], [80.22924, 12.81532], [80.2294, 12.81605], [80.22952, 12.81682], [80.22968, 12.8173], [80.23009, 12.81817], [80.23042, 12.81895], [80.23045, 12.81922], [80.23044, 12.81965], [80.23039, 12.82085], [80.23042, 12.82143], [80.23054, 12.82211], [80.23077, 12.82292], [80.23099, 12.82358], [80.23121, 12.8245], [80.23131, 12.82497], [80.23134, 12.82525], [80.23133, 12.82592], [80.2313, 12.82636], [80.23124, 12.82688], [80.23116, 12.82716], [80.23101, 12.82749], [80.23044, 12.8285], [80.23014, 12.82909], [80.2293, 12.83121], [80.22911, 12.83183], [80.22904, 12.83186], [80.22898, 12.83205], [80.22887, 12.83249], [80.22879, 12.83293], [80.22875, 12.83315], [80.22865, 12.83378], [80.22873, 12.8338], [80.2286, 12.83451], [80.22853, 12.83493], [80.22844, 12.83548], [80.22833, 12.83637], [80.22814, 12.83743], [80.22802, 12.83814], [80.22783, 12.83889], [80.22754, 12.84], [80.22729, 12.84094], [80.22708, 12.84166], [80.22702, 12.84192], [80.22694, 12.8419], [80.22681, 12.84244], [80.22667, 12.84317], [80.22652, 12.84412], [80.22645, 12.84472], [80.22642, 12.84555], [80.2264, 12.84661], [80.2264, 12.84688], [80.22652, 12.84687], [80.2265, 12.84866], [80.2265, 12.84933], [80.2264, 12.84933], [80.2264, 12.8496], [80.22643, 12.85041], [80.2265, 12.85237], [80.22659, 12.85237], [80.2266, 12.85284], [80.22661, 12.85293], [80.22657, 12.85368], [80.22642, 12.85527], [80.22621, 12.85723], [80.22617, 12.85796], [80.22621, 12.85869], [80.22647, 12.86059], [80.22637, 12.8606], [80.22638, 12.86067], [80.22641, 12.86112], [80.22641, 12.86166], [80.22639, 12.86207], [80.22637, 12.86249], [80.22647, 12.86249], [80.22645, 12.8629], [80.22645, 12.86367], [80.22651, 12.86488], [80.22651, 12.86566], [80.22649, 12.86623], [80.22647, 12.86651], [80.22632, 12.86795], [80.22629, 12.86842], [80.22633, 12.86893], [80.22649, 12.8703], [80.2265, 12.87053], [80.22641, 12.87054], [80.22643, 12.87103], [80.22643, 12.87105], [80.22649, 12.87189], [80.22651, 12.87297], [80.22656, 12.87298], [80.22659, 12.87299], [80.22659, 12.87313], [80.22659, 12.87365], [80.22667, 12.87428], [80.22678, 12.87496], [80.22684, 12.87551], [80.22687, 12.8765], [80.22678, 12.87649], [80.22673, 12.87709], [80.22669, 12.87737], [80.22666, 12.87764], [80.22663, 12.87833], [80.22674, 12.87834], [80.22672, 12.87854], [80.22666, 12.87947], [80.22664, 12.88039], [80.22663, 12.88225], [80.22662, 12.88435], [80.22663, 12.88484], [80.22666, 12.8851], [80.22668, 12.88525], [80.22658, 12.88529], [80.22666, 12.88585], [80.2267, 12.88607], [80.22691, 12.8868], [80.22704, 12.88754], [80.22713, 12.88832], [80.22714, 12.88861], [80.22715, 12.88914], [80.22718, 12.89121], [80.22722, 12.89246], [80.22725, 12.89283], [80.22735, 12.89366], [80.22742, 12.89455], [80.22747, 12.89512], [80.22748, 12.89549], [80.22757, 12.89548], [80.22761, 12.89643], [80.22763, 12.89708], [80.2277, 12.8983], [80.22771, 12.89866], [80.2276, 12.89866], [80.22769, 12.89991], [80.22774, 12.90022], [80.22775, 12.90025], [80.22781, 12.90028], [80.22781, 12.90039], [80.22783, 12.90068], [80.22786, 12.90146], [80.22793, 12.90263], [80.228, 12.90385], [80.2279, 12.90386], [80.22795, 12.90405], [80.22796, 12.90433], [80.228, 12.9051], [80.22802, 12.90553], [80.22806, 12.90622], [80.22812, 12.90701], [80.22817, 12.90748], [80.2283, 12.90837], [80.2284, 12.90835], [80.22849, 12.90894], [80.22868, 12.91012], [80.22885, 12.91137], [80.22904, 12.91266], [80.22905, 12.91274], [80.22898, 12.91276], [80.22904, 12.91333], [80.22906, 12.9135], [80.22918, 12.91435], [80.22923, 12.91476], [80.22933, 12.91474], [80.22939, 12.91516], [80.2296, 12.91653], [80.2298, 12.91795], [80.22995, 12.91909], [80.22988, 12.9191], [80.22993, 12.91965], [80.22995, 12.91981], [80.23007, 12.92072], [80.23008, 12.92077], [80.23015, 12.92076], [80.23025, 12.92152], [80.23063, 12.92397], [80.23069, 12.92433], [80.23066, 12.92442], [80.23064, 12.92448], [80.23062, 12.92466], [80.23066, 12.92533], [80.2307, 12.92577], [80.23079, 12.92622], [80.2309, 12.92702], [80.23099, 12.92774], [80.23107, 12.92772], [80.2312, 12.92862], [80.23138, 12.92963], [80.2315, 12.93014], [80.23186, 12.93133], [80.23219, 12.93236], [80.23223, 12.93248], [80.23214, 12.9325], [80.2322, 12.93276], [80.23228, 12.93298], [80.23238, 12.93325], [80.23258, 12.93362], [80.23273, 12.93392], [80.23313, 12.93478], [80.2341, 12.93681], [80.23471, 12.93806], [80.23521, 12.9391], [80.23526, 12.93912], [80.23569, 12.93999], [80.2359, 12.94059], [80.23623, 12.94195], [80.23646, 12.94264], [80.23663, 12.94298], [80.23701, 12.94342], [80.23781, 12.94421], [80.23869, 12.945], [80.23905, 12.9454], [80.23938, 12.94593], [80.23961, 12.94659], [80.23962, 12.94659], [80.23977, 12.94691], [80.24002, 12.94754], [80.24021, 12.94799], [80.24057, 12.9488], [80.24083, 12.94949], [80.24133, 12.95101], [80.24124, 12.95104], [80.24142, 12.9516], [80.2415, 12.95157], [80.24167, 12.95209], [80.24187, 12.9526], [80.24207, 12.95316], [80.24241, 12.95397], [80.24278, 12.95499], [80.24334, 12.95638], [80.24381, 12.95749], [80.24402, 12.95797], [80.24399, 12.95805], [80.24398, 12.95808], [80.24403, 12.95823], [80.24429, 12.95882], [80.24452, 12.95939], [80.24527, 12.96102], [80.24596, 12.96245], [80.24602, 12.96239], [80.24647, 12.9633], [80.24656, 12.96347], [80.2468, 12.96398], [80.24737, 12.96554], [80.24753, 12.96593], [80.24772, 12.96639], [80.24788, 12.96678], [80.24779, 12.9668], [80.24785, 12.96693], [80.24779, 12.9668], [80.24788, 12.96678], [80.24797, 12.96699], [80.24813, 12.96733], [80.24848, 12.96812], [80.24885, 12.96899], [80.2493, 12.97015], [80.24959, 12.97105], [80.25008, 12.97279], [80.25022, 12.97333], [80.25015, 12.97334], [80.25037, 12.97421], [80.25039, 12.97429], [80.25122, 12.9772], [80.25133, 12.97742], [80.25145, 12.97757], [80.25162, 12.97774], [80.25186, 12.97799], [80.25216, 12.9784], [80.25225, 12.97855], [80.25186, 12.97799], [80.25149, 12.97762], [80.25127, 12.97732], [80.25114, 12.97693], [80.25086, 12.97594], [80.25044, 12.97448], [80.25019, 12.9735], [80.25015, 12.97334], [80.25022, 12.97333], [80.25046, 12.97419], [80.25076, 12.97522], [80.25106, 12.97632], [80.2512, 12.97684], [80.25139, 12.97732], [80.25155, 12.97759], [80.25163, 12.97771], [80.25196, 12.97805], [80.25221, 12.97834], [80.2524, 12.97868], [80.25253, 12.97916], [80.25257, 12.97936], [80.25257, 12.97953], [80.25261, 12.97998], [80.2526, 12.98044], [80.25254, 12.98257], [80.25249, 12.98321], [80.25244, 12.98355], [80.25199, 12.98528], [80.25171, 12.98639], [80.25165, 12.98667], [80.25142, 12.98735], [80.25134, 12.98741], [80.2513, 12.98752], [80.25119, 12.9877], [80.25111, 12.98778], [80.25107, 12.98779], [80.25102, 12.98782], [80.25091, 12.98787], [80.25085, 12.98792], [80.25083, 12.98801], [80.25085, 12.98812], [80.25095, 12.98831], [80.25097, 12.98845], [80.25095, 12.98856], [80.25084, 12.98892], [80.25086, 12.98907], [80.25079, 12.98941], [80.25074, 12.98964], [80.25066, 12.99003], [80.25058, 12.99034], [80.25029, 12.99149], [80.25018, 12.99192], [80.2503, 12.99193], [80.25003, 12.993], [80.24977, 12.99394], [80.24923, 12.99606], [80.2491, 12.99658], [80.24891, 12.9974], [80.24882, 12.99738], [80.24889, 12.99708], [80.24895, 12.99679], [80.24882, 12.99738], [80.24849, 12.99872], [80.24823, 12.99976], [80.24802, 13.00064], [80.24767, 13.00198], [80.24748, 13.00278], [80.24733, 13.00364], [80.24717, 13.00503], [80.24718, 13.00514], [80.2472, 13.00519], [80.24722, 13.00522], [80.24718, 13.00529], [80.24711, 13.00561], [80.24705, 13.00592], [80.24691, 13.00616], [80.24674, 13.00635], [80.24654, 13.00648], [80.24621, 13.00661], [80.24621, 13.0066], [80.24599, 13.00666], [80.24538, 13.00664], [80.24455, 13.00663], [80.24297, 13.00662], [80.24237, 13.00662], [80.24206, 13.0066], [80.24162, 13.0066], [80.24132, 13.00664], [80.24108, 13.00665], [80.24058, 13.00672], [80.24019, 13.00678], [80.24, 13.00683], [80.23812, 13.0072], [80.2372, 13.0074], [80.237, 13.00744], [80.23693, 13.00742], [80.23692, 13.00742], [80.23669, 13.00747], [80.2367, 13.0075], [80.23504, 13.00784], [80.23164, 13.00851], [80.22853, 13.00913], [80.2282, 13.0092], [80.22753, 13.00947], [80.22625, 13.01004], [80.22613, 13.01011], [80.22607, 13.01018], [80.22541, 13.0105], [80.22519, 13.01061], [80.22492, 13.01074], [80.22486, 13.01075], [80.22467, 13.01083], [80.22409, 13.01106], [80.22357, 13.01125], [80.22323, 13.01137], [80.22204, 13.01188], [80.22196, 13.0119], [80.22159, 13.01203], [80.22149, 13.01207], [80.22143, 13.01218], [80.22141, 13.01223], [80.2214, 13.01231], [80.22146, 13.01241], [80.22174, 13.01263], [80.2224, 13.01314], [80.22313, 13.01375], [80.22316, 13.01379], [80.22317, 13.01387], [80.22367, 13.01429], [80.22395, 13.01453], [80.2247, 13.0151], [80.22479, 13.0153], [80.22493, 13.01553], [80.22503, 13.0156], [80.22505, 13.01561], [80.22523, 13.01581], [80.2253, 13.01593], [80.22534, 13.01605], [80.22536, 13.01614], [80.22535, 13.01627], [80.22527, 13.01662], [80.22509, 13.01709], [80.22441, 13.01877], [80.22436, 13.0191], [80.22436, 13.01912], [80.2244, 13.01942], [80.22451, 13.0197], [80.22462, 13.01991], [80.22491, 13.02035], [80.22625, 13.02209], [80.22648, 13.02235], [80.22747, 13.02349], [80.22771, 13.02374], [80.22799, 13.02398], [80.22846, 13.02437], [80.22978, 13.02536], [80.22998, 13.02552], [80.23026, 13.02571], [80.23051, 13.02583], [80.23083, 13.02593], [80.23138, 13.0261], [80.23215, 13.0263], [80.23274, 13.02654], [80.2333, 13.02684], [80.23439, 13.0275], [80.23534, 13.02804], [80.23613, 13.0287], [80.23632, 13.02885], [80.237, 13.02947], [80.23749, 13.02984], [80.23891, 13.03066], [80.23975, 13.03115], [80.24075, 13.03163], [80.24096, 13.03173], [80.24185, 13.03216], [80.24288, 13.03279], [80.24308, 13.03292], [80.24354, 13.03329], [80.24443, 13.03397], [80.24486, 13.0343], [80.24554, 13.0348], [80.24577, 13.03502], [80.24586, 13.03514], [80.24592, 13.03527], [80.24617, 13.03626], [80.2464, 13.03715], [80.24661, 13.03823], [80.24686, 13.03923], [80.24715, 13.04073], [80.2473, 13.04156], [80.24739, 13.04195], [80.24752, 13.04254], [80.24808, 13.04542], [80.24834, 13.04682], [80.24837, 13.04695], [80.24844, 13.04719], [80.24852, 13.04735], [80.24885, 13.04772], [80.24929, 13.04819], [80.24955, 13.04855], [80.24962, 13.04879], [80.24973, 13.0494], [80.24977, 13.04982], [80.24989, 13.05024], [80.25005, 13.05109], [80.25011, 13.05128], [80.25025, 13.05159], [80.25052, 13.05202], [80.25083, 13.05229], [80.25138, 13.05269], [80.25168, 13.0529], [80.25262, 13.05359], [80.25324, 13.05406], [80.25426, 13.05483], [80.25553, 13.05579], [80.25605, 13.05615], [80.25634, 13.05638], [80.25657, 13.0566], [80.25677, 13.05683], [80.25712, 13.05723], [80.25737, 13.05751], [80.25766, 13.05778], [80.25871, 13.05866], [80.25923, 13.05908], [80.2595, 13.05928], [80.25951, 13.05936], [80.2596, 13.05948], [80.26003, 13.05984], [80.2609, 13.06058], [80.26129, 13.06088], [80.26188, 13.06137], [80.26234, 13.06174], [80.26249, 13.06183], [80.26261, 13.06185], [80.26297, 13.06215], [80.26393, 13.06293], [80.26429, 13.06322], [80.26448, 13.0634], [80.26488, 13.06374], [80.26535, 13.06411], [80.26591, 13.06458], [80.2672, 13.06563], [80.26746, 13.06582], [80.26781, 13.06609], [80.26814, 13.06631], [80.26817, 13.06636], [80.26823, 13.06648], [80.26832, 13.06663], [80.26837, 13.0667], [80.26841, 13.06682], [80.2686, 13.06711], [80.2689, 13.06756], [80.26898, 13.06771], [80.2693, 13.06829], [80.26945, 13.0683], [80.26988, 13.06823], [80.27032, 13.06821], [80.27085, 13.06819], [80.27125, 13.06816], [80.27169, 13.06846], [80.27179, 13.06857], [80.27187, 13.06874], [80.2721, 13.0692], [80.27224, 13.06939], [80.27235, 13.06952], [80.27278, 13.06986], [80.27391, 13.07078], [80.27403, 13.07108], [80.27435, 13.07177], [80.27459, 13.07208], [80.27497, 13.07243], [80.27636, 13.07371], [80.27632, 13.07398], [80.27623, 13.07516], [80.27622, 13.07548], [80.27612, 13.07789], [80.27608, 13.07801], [80.27601, 13.07809], [80.27588, 13.07815], [80.27556, 13.07825], [80.27533, 13.07835], [80.27518, 13.07851], [80.27514, 13.07859], [80.2751, 13.07872], [80.2751, 13.07889], [80.27516, 13.0792], [80.27524, 13.07962], [80.27527, 13.07988], [80.27527, 13.08001], [80.27519, 13.0813], [80.27516, 13.08164], [80.27516, 13.08172], [80.27525, 13.08186], [80.27527, 13.0819], [80.27533, 13.08193], [80.27553, 13.08198], [80.27561, 13.08199]]}}]}