{"type": "FeatureCollection", "features": [{"type": "Feature", "properties": {"route_name": "M52ET", "stop_id": "myLzZQdt", "name": "Pozhichalur", "city": "CHENNAI"}, "geometry": {"type": "Point", "coordinates": [80.1437620412421, 12.989572893203077]}}, {"type": "Feature", "properties": {"route_name": "M52ET", "stop_id": "jbCYGAcv", "name": "Sivan Kovil Pozhichalur", "city": "CHENNAI"}, "geometry": {"type": "Point", "coordinates": [80.14212335276125, 12.98815411942513]}}, {"type": "Feature", "properties": {"route_name": "M52ET", "stop_id": "hVJtIJom", "name": "Venkateswara Nagar", "city": "CHENNAI"}, "geometry": {"type": "Point", "coordinates": [80.13950502937746, 12.982020492052525]}}, {"type": "Feature", "properties": {"route_name": "M52ET", "stop_id": "rlKLMakt", "name": "Pammal Iyyappan Nagar", "city": "CHENNAI"}, "geometry": {"type": "Point", "coordinates": [80.1361134566813, 12.978726694161091]}}, {"type": "Feature", "properties": {"route_name": "M52ET", "stop_id": "DNyXiZzj", "name": "Pammal", "city": "CHENNAI"}, "geometry": {"type": "Point", "coordinates": [80.13528008832327, 12.974458672581367]}}, {"type": "Feature", "properties": {"route_name": "M52ET", "stop_id": "pXlenLUq", "name": "Krishna Nagar", "city": "CHENNAI"}, "geometry": {"type": "Point", "coordinates": [80.13835511886168, 12.97289655219043]}}, {"type": "Feature", "properties": {"route_name": "M52ET", "stop_id": "XbgiSLmy", "name": "Muthamil Nagar Pallavaram", "city": "CHENNAI"}, "geometry": {"type": "Point", "coordinates": [80.14244304020781, 12.971600972735805]}}, {"type": "Feature", "properties": {"route_name": "M52ET", "stop_id": "EDdQplwd", "name": "Pallavaram Aadu Thotti", "city": "CHENNAI"}, "geometry": {"type": "Point", "coordinates": [80.14499791683875, 12.970758223028511]}}, {"type": "Feature", "properties": {"route_name": "M52ET", "stop_id": "ffjXMuak", "name": "Pallavaram  Market", "city": "CHENNAI"}, "geometry": {"type": "Point", "coordinates": [80.14755402331355, 12.969708693108611]}}, {"type": "Feature", "properties": {"route_name": "M52ET", "stop_id": "qeXIqBgp", "name": "Pallavaram Bus Stand", "city": "CHENNAI"}, "geometry": {"type": "Point", "coordinates": [80.15020472965345, 12.969321927480118]}}, {"type": "Feature", "properties": {"route_name": "M52ET", "stop_id": "aojHvPEg", "name": "Ponds Company", "city": "CHENNAI"}, "geometry": {"type": "Point", "coordinates": [80.14615837927238, 12.961398521978591]}}, {"type": "Feature", "properties": {"route_name": "M52ET", "stop_id": "BZCtSmhk", "name": "Saravana Store Chromepet", "city": "CHENNAI"}, "geometry": {"type": "Point", "coordinates": [80.14344682, 12.95656648]}}, {"type": "Feature", "properties": {"route_name": "M52ET", "stop_id": "ywuGpANM", "name": "Chromepet", "city": "CHENNAI"}, "geometry": {"type": "Point", "coordinates": [80.14056159, 12.95162355]}}, {"type": "Feature", "properties": {"route_name": "M52ET", "stop_id": "VgUdLlOW", "name": "MIT Gate", "city": "CHENNAI"}, "geometry": {"type": "Point", "coordinates": [80.13701978537733, 12.947061243115431]}}, {"type": "Feature", "properties": {"route_name": "M52ET", "stop_id": "hpACGGyB", "name": "TB Hospital", "city": "CHENNAI"}, "geometry": {"type": "Point", "coordinates": [80.13469781949811, 12.944093289066009]}}, {"type": "Feature", "properties": {"route_name": "M52ET", "stop_id": "eaNsVWDR", "name": "Tambaram Sanatorium Bus Stand", "city": "CHENNAI"}, "geometry": {"type": "Point", "coordinates": [80.12809022215106, 12.937055899909849]}}, {"type": "Feature", "properties": {"route_name": "M52ET", "stop_id": "ejMjPdTH", "name": "Tambaram West Bus Stand", "city": "CHENNAI"}, "geometry": {"type": "Point", "coordinates": [80.118864, 12.92758911]}}, {"type": "Feature", "properties": {"route_name": "M52ET", "stop_id": "AUmOMGnp", "name": "Irumbuliyur", "city": "CHENNAI"}, "geometry": {"type": "Point", "coordinates": [80.10666718, 12.91663681]}}, {"type": "Feature", "properties": {"route_name": "M52ET", "stop_id": "ALhaazBT", "name": "Perungalattur", "city": "CHENNAI"}, "geometry": {"type": "Point", "coordinates": [80.09644663992617, 12.906403356437842]}}, {"type": "Feature", "properties": {"route_name": "M52ET", "stop_id": "FZsFzszJ", "name": "Vandalur Gate", "city": "CHENNAI"}, "geometry": {"type": "Point", "coordinates": [80.08640892276996, 12.89311473169435]}}, {"type": "Feature", "properties": {"route_name": "M52ET", "stop_id": "gzTQJVMW", "name": "Vandalur Zoo", "city": "CHENNAI"}, "geometry": {"type": "Point", "coordinates": [80.0808152705822, 12.88055624912894]}}, {"type": "Feature", "properties": {"route_name": "M52ET", "stop_id": "RVEyrwjR", "name": "Kilambakkam Bus Terminus", "city": "CHENNAI"}, "geometry": {"type": "Point", "coordinates": [80.07837988343238, 12.874093789888684]}}, {"type": "Feature", "properties": {"route_name": "M52ET", "stop_id": "XLVjRryq", "name": "Urappakam", "city": "CHENNAI"}, "geometry": {"type": "Point", "coordinates": [80.07576903505412, 12.867815440896505]}}, {"type": "Feature", "properties": {"route_name": "M52ET", "stop_id": "NxbXiMUL", "name": "Urapakkam Or Ananthavalli SchoolAnanthavalli School", "city": "CHENNAI"}, "geometry": {"type": "Point", "coordinates": [80.07362946240994, 12.86209629173468]}}, {"type": "Feature", "properties": {"route_name": "M52ET", "stop_id": "iEKDTvNf", "name": "Akshaya Apartments Guduvanchery", "city": "CHENNAI"}, "geometry": {"type": "Point", "coordinates": [80.06776409587064, 12.854014247858574]}}, {"type": "Feature", "properties": {"route_name": "M52ET", "stop_id": "vDFCntfg", "name": "Guduvancheri EB Office", "city": "CHENNAI"}, "geometry": {"type": "Point", "coordinates": [80.06579046, 12.85120776]}}, {"type": "Feature", "properties": {"route_name": "M52ET", "stop_id": "YvwuVYMF", "name": "Guduvancheri Bus Terminus", "city": "CHENNAI"}, "geometry": {"type": "Point", "coordinates": [80.06156057583712, 12.845099416050214]}}, {"type": "Feature", "properties": {"name": "M52ET"}, "geometry": {"type": "LineString", "coordinates": [[80.14379, 12.98961], [80.14361, 12.98972], [80.14341, 12.98979], [80.14327, 12.9898], [80.14289, 12.9897], [80.14251, 12.98958], [80.14215, 12.98948], [80.14201, 12.98938], [80.14203, 12.98895], [80.14209, 12.98815], [80.14209, 12.98796], [80.14206, 12.9877], [80.14202, 12.98734], [80.14203, 12.98723], [80.14209, 12.98671], [80.14207, 12.98654], [80.142, 12.98619], [80.1418, 12.98574], [80.14174, 12.98564], [80.14164, 12.9855], [80.14135, 12.98517], [80.14082, 12.98463], [80.14055, 12.98434], [80.14028, 12.98399], [80.14016, 12.9838], [80.14005, 12.98369], [80.14, 12.98364], [80.13993, 12.98355], [80.13988, 12.98348], [80.13974, 12.98304], [80.13962, 12.98264], [80.13953, 12.98222], [80.13949, 12.98202], [80.13934, 12.98141], [80.13831, 12.98168], [80.13794, 12.98177], [80.13772, 12.98179], [80.13764, 12.98176], [80.13757, 12.98172], [80.13753, 12.98166], [80.13744, 12.98147], [80.13738, 12.98134], [80.13733, 12.98123], [80.13722, 12.98108], [80.13691, 12.98068], [80.13663, 12.98016], [80.13632, 12.97937], [80.1361, 12.97873], [80.136, 12.97846], [80.13584, 12.97788], [80.13554, 12.97645], [80.13544, 12.97582], [80.13538, 12.97536], [80.13521, 12.97446], [80.13525, 12.97444], [80.13658, 12.97359], [80.13697, 12.97339], [80.13721, 12.97325], [80.13743, 12.97317], [80.13791, 12.97302], [80.13814, 12.97294], [80.13834, 12.97286], [80.13945, 12.97232], [80.13988, 12.97213], [80.14052, 12.97191], [80.14101, 12.97179], [80.14191, 12.97163], [80.14243, 12.97154], [80.14279, 12.97147], [80.14314, 12.97136], [80.14384, 12.97113], [80.14436, 12.97094], [80.14498, 12.97066], [80.14504, 12.9707], [80.14569, 12.97108], [80.14624, 12.9714], [80.14753, 12.96969], [80.14823, 12.96867], [80.14888, 12.96776], [80.14905, 12.96754], [80.14932, 12.96816], [80.14981, 12.96921], [80.15005, 12.96968], [80.15021, 12.96962], [80.1501, 12.96937], [80.14983, 12.96878], [80.14949, 12.96811], [80.14918, 12.9674], [80.14886, 12.96674], [80.14842, 12.96582], [80.14764, 12.96445], [80.14715, 12.96357], [80.14707, 12.96345], [80.1471, 12.96338], [80.14711, 12.96332], [80.1471, 12.96313], [80.14679, 12.96256], [80.14642, 12.96193], [80.14614, 12.96141], [80.14572, 12.96066], [80.14543, 12.96008], [80.1452, 12.95961], [80.14451, 12.95833], [80.14441, 12.95831], [80.14439, 12.95829], [80.14435, 12.95828], [80.14429, 12.95827], [80.1441, 12.95792], [80.14367, 12.9571], [80.14341, 12.95658], [80.14296, 12.95575], [80.14253, 12.95492], [80.14175, 12.95349], [80.14143, 12.95292], [80.14134, 12.95278], [80.14092, 12.95225], [80.14049, 12.95167], [80.13904, 12.94979], [80.13868, 12.9494], [80.13869, 12.94938], [80.13869, 12.94932], [80.13867, 12.94926], [80.13844, 12.94898], [80.13778, 12.94811], [80.13726, 12.94737], [80.13703, 12.94709], [80.13703, 12.94704], [80.13699, 12.94694], [80.13692, 12.9469], [80.13658, 12.94644], [80.13526, 12.94474], [80.13506, 12.94455], [80.135, 12.94452], [80.13494, 12.94447], [80.13467, 12.94411], [80.13444, 12.94384], [80.1339, 12.94326], [80.13335, 12.94267], [80.13315, 12.9425], [80.13272, 12.94208], [80.13165, 12.94106], [80.13109, 12.94047], [80.13096, 12.94032], [80.13073, 12.94013], [80.13011, 12.93946], [80.12946, 12.93873], [80.12854, 12.93766], [80.12804, 12.9371], [80.12706, 12.93597], [80.12528, 12.93403], [80.12294, 12.93174], [80.1212, 12.92995], [80.12043, 12.92921], [80.11972, 12.92848], [80.11884, 12.92761], [80.1177, 12.92646], [80.1174, 12.92617], [80.11738, 12.92608], [80.11727, 12.9259], [80.11692, 12.92555], [80.11642, 12.92508], [80.11577, 12.92444], [80.11545, 12.92414], [80.11523, 12.92394], [80.11488, 12.92357], [80.11444, 12.92309], [80.1139, 12.92254], [80.11287, 12.92151], [80.11267, 12.92133], [80.11258, 12.92127], [80.11241, 12.92122], [80.11229, 12.92113], [80.11192, 12.92076], [80.1111, 12.92001], [80.11073, 12.91968], [80.10945, 12.91862], [80.10854, 12.91794], [80.10767, 12.91726], [80.10664, 12.91669], [80.10583, 12.91624], [80.10358, 12.91503], [80.10294, 12.91465], [80.10269, 12.91448], [80.10198, 12.91398], [80.10173, 12.91371], [80.10165, 12.91352], [80.10161, 12.91338], [80.10146, 12.91205], [80.1013, 12.91113], [80.10119, 12.91078], [80.10104, 12.91049], [80.10085, 12.91023], [80.10074, 12.91012], [80.10059, 12.91001], [80.10019, 12.9098], [80.09966, 12.90954], [80.09894, 12.90918], [80.09829, 12.90872], [80.09782, 12.90828], [80.09755, 12.90798], [80.09681, 12.90702], [80.09641, 12.90643], [80.09561, 12.9053], [80.09447, 12.90375], [80.0938, 12.90294], [80.09336, 12.90242], [80.09248, 12.90131], [80.09138, 12.89991], [80.09025, 12.89827], [80.08946, 12.89734], [80.0891, 12.89684], [80.08792, 12.89528], [80.08705, 12.89409], [80.08634, 12.89316], [80.08595, 12.89262], [80.08591, 12.89258], [80.08549, 12.89196], [80.08527, 12.89158], [80.08485, 12.8906], [80.08378, 12.88807], [80.08262, 12.88522], [80.08244, 12.88486], [80.08231, 12.88459], [80.08231, 12.88446], [80.08229, 12.88422], [80.08226, 12.88409], [80.0822, 12.8839], [80.08213, 12.88366], [80.08194, 12.88321], [80.08179, 12.88286], [80.08149, 12.88211], [80.08129, 12.88159], [80.08101, 12.88094], [80.08096, 12.88089], [80.08083, 12.88057], [80.07982, 12.87774], [80.07928, 12.87634], [80.07837, 12.87405], [80.07835, 12.8741], [80.07822, 12.87382], [80.07812, 12.87373], [80.07782, 12.87296], [80.07756, 12.87228], [80.07655, 12.86968], [80.07582, 12.8678], [80.07573, 12.86783], [80.07582, 12.8678], [80.07558, 12.86717], [80.07537, 12.86668], [80.07453, 12.86434], [80.07434, 12.86386], [80.07392, 12.86277], [80.07373, 12.86233], [80.07362, 12.8621], [80.07306, 12.86105], [80.07236, 12.85998], [80.07199, 12.85941], [80.07178, 12.85929], [80.07173, 12.85928], [80.07085, 12.85811], [80.06966, 12.8566], [80.0691, 12.85586], [80.06811, 12.85454], [80.06777, 12.85401], [80.06599, 12.85159], [80.06576, 12.85123], [80.0649, 12.85], [80.06405, 12.84884], [80.06233, 12.84654], [80.06206, 12.84621], [80.06145, 12.84552], [80.06152, 12.84536], [80.06164, 12.84515]]}}]}