{"type": "FeatureCollection", "features": [{"type": "Feature", "properties": {"route_name": "S15", "stop_id": "nYVfIRsk", "name": "Madhya Kailash", "city": "CHENNAI"}, "geometry": {"type": "Point", "coordinates": [80.2461821771177, 13.00651661419635]}}, {"type": "Feature", "properties": {"route_name": "S15", "stop_id": "MbaVkBEC", "name": "IIT Madras", "city": "CHENNAI"}, "geometry": {"type": "Point", "coordinates": [80.24360924290866, 13.006579279132337]}}, {"type": "Feature", "properties": {"route_name": "S15", "stop_id": "yvgmRaLW", "name": "Water Tank", "city": "CHENNAI"}, "geometry": {"type": "Point", "coordinates": [80.24371297945642, 13.002845660643606]}}, {"type": "Feature", "properties": {"route_name": "S15", "stop_id": "NolCvOBf", "name": "Kazhikundram", "city": "CHENNAI"}, "geometry": {"type": "Point", "coordinates": [80.2431669893387, 12.995469854426412]}}, {"type": "Feature", "properties": {"route_name": "S15", "stop_id": "mQErbufQ", "name": "Kanagam Government School", "city": "CHENNAI"}, "geometry": {"type": "Point", "coordinates": [80.24236853988887, 12.992681628166633]}}, {"type": "Feature", "properties": {"route_name": "S15", "stop_id": "xfoaGXVJ", "name": "Ascendas IT Park", "city": "CHENNAI"}, "geometry": {"type": "Point", "coordinates": [80.24651219442944, 12.9863669358029]}}, {"type": "Feature", "properties": {"route_name": "S15", "stop_id": "iRCUMEiV", "name": "Spatic Socity School", "city": "CHENNAI"}, "geometry": {"type": "Point", "coordinates": [80.25018289264834, 12.986336958519855]}}, {"type": "Feature", "properties": {"route_name": "S15", "stop_id": "uGfLmQAc", "name": "Thiruvanmiyur Railway Station", "city": "CHENNAI"}, "geometry": {"type": "Point", "coordinates": [80.2511566105909, 12.989337680672142]}}, {"type": "Feature", "properties": {"name": "S15"}, "geometry": {"type": "LineString", "coordinates": [[80.24621, 13.00661], [80.24599, 13.00666], [80.24538, 13.00664], [80.24455, 13.00663], [80.2436, 13.00664], [80.24359, 13.00659], [80.24314, 13.00506], [80.24297, 13.00445], [80.24297, 13.00441], [80.24298, 13.00439], [80.24307, 13.00438], [80.24375, 13.0044], [80.24379, 13.00439], [80.2438, 13.00429], [80.2438, 13.00405], [80.2437, 13.00296], [80.24369, 13.00285], [80.24368, 13.00245], [80.2437, 13.00202], [80.2437, 13.0019], [80.24352, 13.0012], [80.24346, 13.00102], [80.24346, 13.00089], [80.24354, 13.00047], [80.24358, 13.00027], [80.24354, 12.99978], [80.24341, 12.99888], [80.24315, 12.9978], [80.24311, 12.99748], [80.2431, 12.99729], [80.2431, 12.99711], [80.24313, 12.99654], [80.24317, 12.99633], [80.24319, 12.99609], [80.24319, 12.99582], [80.24315, 12.99547], [80.24314, 12.99543], [80.24295, 12.99547], [80.24274, 12.99436], [80.24265, 12.99394], [80.24245, 12.99319], [80.24235, 12.99269], [80.24228, 12.99235], [80.24196, 12.992], [80.2417, 12.99198], [80.24162, 12.99161], [80.24166, 12.99147], [80.2417, 12.99103], [80.24168, 12.99044], [80.24159, 12.98989], [80.2415, 12.98936], [80.24124, 12.98855], [80.24091, 12.98716], [80.24079, 12.98672], [80.24077, 12.98644], [80.24103, 12.98634], [80.24152, 12.98632], [80.24203, 12.98633], [80.24282, 12.98634], [80.24377, 12.98632], [80.24446, 12.98634], [80.24564, 12.98632], [80.24646, 12.98634], [80.24651, 12.98631], [80.25018, 12.98631], [80.25135, 12.98634], [80.25151, 12.98643], [80.25155, 12.98648], [80.25158, 12.98657], [80.25165, 12.98667], [80.25142, 12.98735], [80.2513, 12.98789], [80.25107, 12.98883], [80.25088, 12.98956], [80.25073, 12.99023], [80.2503, 12.99193], [80.24984, 12.99369], [80.24965, 12.99439], [80.24985, 12.99444], [80.25006, 12.99363], [80.25033, 12.99254], [80.25067, 12.99138], [80.25097, 12.9901], [80.25112, 12.98933]]}}]}