{"type": "FeatureCollection", "features": [{"type": "Feature", "properties": {"route_name": "S24", "stop_id": "jnDfAorM", "name": "Thiruverkadu Terminus", "city": "CHENNAI"}, "geometry": {"type": "Point", "coordinates": [80.1239847902782, 13.069351214248936]}}, {"type": "Feature", "properties": {"route_name": "S24", "stop_id": "rcsEeYnc", "name": "Gurimedai", "city": "CHENNAI"}, "geometry": {"type": "Point", "coordinates": [80.12654825215122, 13.068292000155036]}}, {"type": "Feature", "properties": {"route_name": "S24", "stop_id": "RSRIdzBF", "name": "Thiruverkadu MGR Nagar", "city": "CHENNAI"}, "geometry": {"type": "Point", "coordinates": [80.12951164308072, 13.067701832891391]}}, {"type": "Feature", "properties": {"route_name": "S24", "stop_id": "buRRNGGe", "name": "Perumal Nagar Junction", "city": "CHENNAI"}, "geometry": {"type": "Point", "coordinates": [80.13770560593196, 13.065731815462355]}}, {"type": "Feature", "properties": {"route_name": "S24", "stop_id": "CheNYOmP", "name": "Velappanchavadi", "city": "CHENNAI"}, "geometry": {"type": "Point", "coordinates": [80.13888028186238, 13.061401979827533]}}, {"type": "Feature", "properties": {"route_name": "S24", "stop_id": "ZbCTanaA", "name": "Dummy Signal", "city": "CHENNAI"}, "geometry": {"type": "Point", "coordinates": [80.1442541885023, 13.061740345143756]}}, {"type": "Feature", "properties": {"route_name": "S24", "stop_id": "pmpkniEk", "name": "Vedanta Academy", "city": "CHENNAI"}, "geometry": {"type": "Point", "coordinates": [80.14389910620366, 13.058149607420017]}}, {"type": "Feature", "properties": {"route_name": "S24", "stop_id": "ywVRCZsJ", "name": "Tennis Court", "city": "CHENNAI"}, "geometry": {"type": "Point", "coordinates": [80.14407549908245, 13.056708977823002]}}, {"type": "Feature", "properties": {"route_name": "S24", "stop_id": "NLIDfsLR", "name": "Rajiv Nagar", "city": "CHENNAI"}, "geometry": {"type": "Point", "coordinates": [80.14912770816856, 13.055833188015233]}}, {"type": "Feature", "properties": {"route_name": "S24", "stop_id": "zoQRaUuB", "name": "Tasmac Wine Shop", "city": "CHENNAI"}, "geometry": {"type": "Point", "coordinates": [80.14920595041792, 13.050091767176564]}}, {"type": "Feature", "properties": {"route_name": "S24", "stop_id": "SjrIulZC", "name": "Murugan Temple", "city": "CHENNAI"}, "geometry": {"type": "Point", "coordinates": [80.14552129418895, 13.048073807315543]}}, {"type": "Feature", "properties": {"route_name": "S24", "stop_id": "ZmAHrmfv", "name": "T R Studio", "city": "CHENNAI"}, "geometry": {"type": "Point", "coordinates": [80.1456355858965, 13.04597478091084]}}, {"type": "Feature", "properties": {"route_name": "S24", "stop_id": "zvLqJZxI", "name": "Chettiyar Agaram", "city": "CHENNAI"}, "geometry": {"type": "Point", "coordinates": [80.1460867448102, 13.036199518660647]}}, {"type": "Feature", "properties": {"route_name": "S24", "stop_id": "mSXRukCc", "name": "Ramachandra Hospital", "city": "CHENNAI"}, "geometry": {"type": "Point", "coordinates": [80.14304171408253, 13.036524191504682]}}, {"type": "Feature", "properties": {"route_name": "S24", "stop_id": "kjxfKqbD", "name": "Iyappanthangal", "city": "CHENNAI"}, "geometry": {"type": "Point", "coordinates": [80.13864712545444, 13.037258245977446]}}, {"type": "Feature", "properties": {"route_name": "S24", "stop_id": "hSRFRBsa", "name": "Iyyappanthangal Bus Depot", "city": "CHENNAI"}, "geometry": {"type": "Point", "coordinates": [80.13505742601455, 13.037919834559425]}}, {"type": "Feature", "properties": {"name": "S24"}, "geometry": {"type": "LineString", "coordinates": [[80.12389, 13.06919], [80.12412, 13.06905], [80.12414, 13.06888], [80.12426, 13.06881], [80.12459, 13.0687], [80.12513, 13.06856], [80.12569, 13.06842], [80.12654, 13.06826], [80.12743, 13.06808], [80.12753, 13.06806], [80.12837, 13.06791], [80.12949, 13.06766], [80.1295, 13.06765], [80.12979, 13.06765], [80.13016, 13.06766], [80.1305, 13.06767], [80.13073, 13.06765], [80.13123, 13.06756], [80.13162, 13.06747], [80.13191, 13.06738], [80.13269, 13.06711], [80.13342, 13.06698], [80.13417, 13.06686], [80.13463, 13.06679], [80.13555, 13.06675], [80.13578, 13.06672], [80.13638, 13.0666], [80.13646, 13.06657], [80.1365, 13.06653], [80.13651, 13.06644], [80.13647, 13.06614], [80.13645, 13.06597], [80.13647, 13.06592], [80.13651, 13.0659], [80.13662, 13.06588], [80.13726, 13.0659], [80.13746, 13.06591], [80.13759, 13.06588], [80.13765, 13.06586], [80.13767, 13.06573], [80.13768, 13.06565], [80.13753, 13.06463], [80.13753, 13.06439], [80.13754, 13.06436], [80.1376, 13.06431], [80.13771, 13.06426], [80.13789, 13.06424], [80.13815, 13.06424], [80.13824, 13.06422], [80.13828, 13.06421], [80.13829, 13.06416], [80.13828, 13.06407], [80.13818, 13.06355], [80.13818, 13.06336], [80.13821, 13.06325], [80.13845, 13.06294], [80.13851, 13.06279], [80.1385, 13.06265], [80.1384, 13.0619], [80.13837, 13.06156], [80.13838, 13.06136], [80.1384, 13.06128], [80.13888, 13.0613], [80.13889, 13.06131], [80.14054, 13.06142], [80.14391, 13.06168], [80.14426, 13.06172], [80.14499, 13.06181], [80.145, 13.06172], [80.14501, 13.06146], [80.14491, 13.06102], [80.14475, 13.06012], [80.14472, 13.05999], [80.14464, 13.05976], [80.14452, 13.05951], [80.14447, 13.05926], [80.14444, 13.05905], [80.14437, 13.0589], [80.1439, 13.05818], [80.14389, 13.05816], [80.14376, 13.0579], [80.14374, 13.05776], [80.14369, 13.05708], [80.14367, 13.05673], [80.14407, 13.05669], [80.14557, 13.05656], [80.14653, 13.05647], [80.14648, 13.05607], [80.14686, 13.05604], [80.14799, 13.05596], [80.14911, 13.05588], [80.14911, 13.05583], [80.14902, 13.05516], [80.14894, 13.0547], [80.14895, 13.05458], [80.14893, 13.05427], [80.14901, 13.05394], [80.14914, 13.0535], [80.1492, 13.05325], [80.14921, 13.05307], [80.14919, 13.05254], [80.14916, 13.05164], [80.14916, 13.05108], [80.14917, 13.05089], [80.14918, 13.05014], [80.14918, 13.05009], [80.14914, 13.0493], [80.14913, 13.04867], [80.14911, 13.04851], [80.14907, 13.04846], [80.149, 13.04842], [80.14891, 13.0484], [80.14791, 13.04835], [80.14743, 13.04832], [80.14734, 13.04832], [80.14715, 13.0484], [80.14687, 13.04849], [80.14682, 13.04851], [80.14631, 13.04849], [80.14575, 13.0485], [80.14565, 13.04846], [80.1456, 13.04841], [80.14557, 13.04833], [80.1455, 13.04808], [80.14546, 13.04755], [80.14547, 13.0467], [80.14551, 13.04619], [80.14553, 13.04609], [80.14562, 13.04596], [80.14568, 13.04589], [80.14572, 13.04575], [80.14582, 13.04542], [80.14591, 13.0451], [80.14595, 13.0444], [80.14599, 13.04375], [80.14609, 13.04331], [80.14642, 13.04196], [80.14648, 13.0417], [80.14649, 13.04152], [80.14649, 13.03968], [80.1465, 13.03827], [80.14644, 13.03793], [80.14642, 13.03771], [80.14642, 13.0374], [80.14649, 13.03669], [80.14647, 13.03619], [80.14626, 13.0362], [80.14609, 13.03622], [80.1449, 13.0364], [80.14361, 13.03658], [80.14351, 13.03656], [80.14328, 13.03655], [80.14305, 13.03657], [80.14278, 13.03663], [80.14271, 13.03671], [80.14241, 13.03673], [80.14104, 13.03692], [80.13958, 13.03717], [80.13865, 13.0373], [80.13677, 13.03756], [80.13626, 13.03769], [80.13574, 13.03786], [80.1349, 13.03819], [80.13449, 13.03835], [80.13446, 13.0383], [80.13442, 13.03819], [80.13441, 13.03806], [80.13445, 13.03791], [80.13453, 13.03783], [80.1346, 13.03782], [80.13468, 13.03785], [80.13479, 13.03795], [80.13489, 13.03795], [80.13506, 13.03791]]}}]}