{"type": "FeatureCollection", "features": [{"type": "Feature", "properties": {"route_name": "19", "stop_id": "eTJQHplR", "name": "Thiyagaraya Nagar Bus Depot", "city": "CHENNAI"}, "geometry": {"type": "Point", "coordinates": [80.23005108, 13.03449501]}}, {"type": "Feature", "properties": {"route_name": "19", "stop_id": "nEXpIbiD", "name": "CIT Nagar", "city": "CHENNAI"}, "geometry": {"type": "Point", "coordinates": [80.23084860962217, 13.029891933620636]}}, {"type": "Feature", "properties": {"route_name": "19", "stop_id": "fubLBmAl", "name": "Saidapet Veterinary Hospital Or Raja Hostel", "city": "CHENNAI"}, "geometry": {"type": "Point", "coordinates": [80.22976399085928, 13.025144344408464]}}, {"type": "Feature", "properties": {"route_name": "19", "stop_id": "DOGyniWl", "name": "Saidapet Metro", "city": "CHENNAI"}, "geometry": {"type": "Point", "coordinates": [80.2281859358351, 13.023758074666299]}}, {"type": "Feature", "properties": {"route_name": "19", "stop_id": "GbYxEXTt", "name": "Tamil Nadu Open University Or Panagal Maligai", "city": "CHENNAI"}, "geometry": {"type": "Point", "coordinates": [80.22567676852101, 13.021143761114198]}}, {"type": "Feature", "properties": {"route_name": "19", "stop_id": "YmkUpvHU", "name": "Chinnamalai B S or Saidapet Court", "city": "CHENNAI"}, "geometry": {"type": "Point", "coordinates": [80.22645940770053, 13.0139397637957]}}, {"type": "Feature", "properties": {"route_name": "19", "stop_id": "qKeCDDXI", "name": "Anna University Or Engineer College", "city": "CHENNAI"}, "geometry": {"type": "Point", "coordinates": [80.233474145983, 13.008316004554988]}}, {"type": "Feature", "properties": {"route_name": "19", "stop_id": "TcsyXYNn", "name": "IIT Madras Or Guindy National Park", "city": "CHENNAI"}, "geometry": {"type": "Point", "coordinates": [80.24098102151038, 13.006834895702841]}}, {"type": "Feature", "properties": {"route_name": "19", "stop_id": "ytUqATXS", "name": "Madhya Kailash", "city": "CHENNAI"}, "geometry": {"type": "Point", "coordinates": [80.24740191166723, 13.006242207513933]}}, {"type": "Feature", "properties": {"route_name": "19", "stop_id": "qGIkRenz", "name": "VHS Hospital", "city": "CHENNAI"}, "geometry": {"type": "Point", "coordinates": [80.24775705303296, 13.003291216433862]}}, {"type": "Feature", "properties": {"route_name": "19", "stop_id": "yrWAEsGy", "name": "Womens Polytechnic College", "city": "CHENNAI"}, "geometry": {"type": "Point", "coordinates": [80.24893965491333, 12.998252352879108]}}, {"type": "Feature", "properties": {"route_name": "19", "stop_id": "oFLgHrco", "name": "Tidel Park", "city": "CHENNAI"}, "geometry": {"type": "Point", "coordinates": [80.25070814654532, 12.991281173349462]}}, {"type": "Feature", "properties": {"route_name": "19", "stop_id": "qjwSVoCq", "name": "Tidel Park", "city": "CHENNAI"}, "geometry": {"type": "Point", "coordinates": [80.25166113484738, 12.987417059703843]}}, {"type": "Feature", "properties": {"route_name": "19", "stop_id": "WynPMslR", "name": "SRP Tools", "city": "CHENNAI"}, "geometry": {"type": "Point", "coordinates": [80.25253830988527, 12.978613932506057]}}, {"type": "Feature", "properties": {"route_name": "19", "stop_id": "vHkAlmCm", "name": "I G P", "city": "CHENNAI"}, "geometry": {"type": "Point", "coordinates": [80.25031108025769, 12.972735115385722]}}, {"type": "Feature", "properties": {"route_name": "19", "stop_id": "GnOurcjN", "name": "Kandanchavadi", "city": "CHENNAI"}, "geometry": {"type": "Point", "coordinates": [80.24755243721381, 12.965315280574965]}}, {"type": "Feature", "properties": {"route_name": "19", "stop_id": "yfIoPTHo", "name": "Perungudi", "city": "CHENNAI"}, "geometry": {"type": "Point", "coordinates": [80.24487159, 12.95946873]}}, {"type": "Feature", "properties": {"route_name": "19", "stop_id": "zjGRmLyo", "name": "D B Jain College", "city": "CHENNAI"}, "geometry": {"type": "Point", "coordinates": [80.24000047, 12.94693162]}}, {"type": "Feature", "properties": {"route_name": "19", "stop_id": "JGydtICe", "name": "Mettukuppam", "city": "CHENNAI"}, "geometry": {"type": "Point", "coordinates": [80.23561417, 12.939223]}}, {"type": "Feature", "properties": {"route_name": "19", "stop_id": "RtTLxXUv", "name": "PTC Quarters Or Mootakaran Chavadi", "city": "CHENNAI"}, "geometry": {"type": "Point", "coordinates": [80.23319617, 12.93422046]}}, {"type": "Feature", "properties": {"route_name": "19", "stop_id": "FtWuEuzF", "name": "Okkiyampet", "city": "CHENNAI"}, "geometry": {"type": "Point", "coordinates": [80.23107766, 12.92583502]}}, {"type": "Feature", "properties": {"route_name": "19", "stop_id": "ACkvbmee", "name": "KCG College", "city": "CHENNAI"}, "geometry": {"type": "Point", "coordinates": [80.23024746617386, 12.919637424938962]}}, {"type": "Feature", "properties": {"route_name": "19", "stop_id": "wqGWmwVd", "name": "Karapakkam", "city": "CHENNAI"}, "geometry": {"type": "Point", "coordinates": [80.22938008346091, 12.913269786666612]}}, {"type": "Feature", "properties": {"route_name": "19", "stop_id": "HxnLIWQq", "name": "Dollar Or Accenture", "city": "CHENNAI"}, "geometry": {"type": "Point", "coordinates": [80.22838879, 12.90631206]}}, {"type": "Feature", "properties": {"route_name": "19", "stop_id": "tcbhlVZo", "name": "Sholinganallur", "city": "CHENNAI"}, "geometry": {"type": "Point", "coordinates": [80.22795722, 12.89886946]}}, {"type": "Feature", "properties": {"route_name": "19", "stop_id": "elxmPCDf", "name": "Government School Sholinganallur", "city": "CHENNAI"}, "geometry": {"type": "Point", "coordinates": [80.22765472, 12.89353373]}}, {"type": "Feature", "properties": {"route_name": "19", "stop_id": "tTjpyeuP", "name": "Ponniamman Kovil", "city": "CHENNAI"}, "geometry": {"type": "Point", "coordinates": [80.22701226, 12.8857514]}}, {"type": "Feature", "properties": {"route_name": "19", "stop_id": "GMrJWgHs", "name": "Kumaran Nagar", "city": "CHENNAI"}, "geometry": {"type": "Point", "coordinates": [80.22698026, 12.87792635]}}, {"type": "Feature", "properties": {"route_name": "19", "stop_id": "KnIeolpt", "name": "Satyabhama University", "city": "CHENNAI"}, "geometry": {"type": "Point", "coordinates": [80.22682621, 12.87194605]}}, {"type": "Feature", "properties": {"route_name": "19", "stop_id": "RyhuDLev", "name": "Semmancheri", "city": "CHENNAI"}, "geometry": {"type": "Point", "coordinates": [80.22664377933688, 12.860518973722925]}}, {"type": "Feature", "properties": {"route_name": "19", "stop_id": "fzmnvqlX", "name": "AGS Complex Navalur", "city": "CHENNAI"}, "geometry": {"type": "Point", "coordinates": [80.22669163072237, 12.850224191423946]}}, {"type": "Feature", "properties": {"route_name": "19", "stop_id": "SEcoeimf", "name": "Navallur", "city": "CHENNAI"}, "geometry": {"type": "Point", "coordinates": [80.22677190971399, 12.844704723232628]}}, {"type": "Feature", "properties": {"route_name": "19", "stop_id": "zzxlwhdI", "name": "Egattur", "city": "CHENNAI"}, "geometry": {"type": "Point", "coordinates": [80.22850377262876, 12.836728211035785]}}, {"type": "Feature", "properties": {"route_name": "19", "stop_id": "wssOAckJ", "name": "IT Park Siruseri Or Muttukadu", "city": "CHENNAI"}, "geometry": {"type": "Point", "coordinates": [80.22916363, 12.83264936]}}, {"type": "Feature", "properties": {"route_name": "19", "stop_id": "obGcbWvT", "name": "Vaniyanchavadi Padma Adarsh School", "city": "CHENNAI"}, "geometry": {"type": "Point", "coordinates": [80.2314093463841, 12.826212168683032]}}, {"type": "Feature", "properties": {"route_name": "19", "stop_id": "SfBAqteg", "name": "Kazhipattur", "city": "CHENNAI"}, "geometry": {"type": "Point", "coordinates": [80.23052348583872, 12.81898695059196]}}, {"type": "Feature", "properties": {"route_name": "19", "stop_id": "selTNsQi", "name": "Akshaya Padur", "city": "CHENNAI"}, "geometry": {"type": "Point", "coordinates": [80.22807871585688, 12.810939790314205]}}, {"type": "Feature", "properties": {"route_name": "19", "stop_id": "QyfZGsFT", "name": "Padur", "city": "CHENNAI"}, "geometry": {"type": "Point", "coordinates": [80.22410834793345, 12.80532731881903]}}, {"type": "Feature", "properties": {"route_name": "19", "stop_id": "JgVaSAtG", "name": "Hindustan College", "city": "CHENNAI"}, "geometry": {"type": "Point", "coordinates": [80.22359673016649, 12.801139943966676]}}, {"type": "Feature", "properties": {"route_name": "19", "stop_id": "hMBIVszx", "name": "Chettinad Hospital", "city": "CHENNAI"}, "geometry": {"type": "Point", "coordinates": [80.22295650091752, 12.796083839151873]}}, {"type": "Feature", "properties": {"route_name": "19", "stop_id": "BWKNZpmt", "name": "Kelambakkam V A O Office", "city": "CHENNAI"}, "geometry": {"type": "Point", "coordinates": [80.22260208053004, 12.79383270191971]}}, {"type": "Feature", "properties": {"route_name": "19", "stop_id": "MpBHVRZl", "name": "Kelambakkmm General Hospital", "city": "CHENNAI"}, "geometry": {"type": "Point", "coordinates": [80.22055903204091, 12.786677483168097]}}, {"type": "Feature", "properties": {"route_name": "19", "stop_id": "BCwVkMhO", "name": "Kelambakkmm Police Station", "city": "CHENNAI"}, "geometry": {"type": "Point", "coordinates": [80.2199838, 12.78532768]}}, {"type": "Feature", "properties": {"route_name": "19", "stop_id": "CgMBzfIg", "name": "Elavanthangal", "city": "CHENNAI"}, "geometry": {"type": "Point", "coordinates": [80.21737911024465, 12.78064052260931]}}, {"type": "Feature", "properties": {"route_name": "19", "stop_id": "OXvlrfnG", "name": "Chenganmal Road Junction", "city": "CHENNAI"}, "geometry": {"type": "Point", "coordinates": [80.21320592444795, 12.77080354267838]}}, {"type": "Feature", "properties": {"route_name": "19", "stop_id": "iZfXNAue", "name": "Vijaya Shanthi Lotus Pond", "city": "CHENNAI"}, "geometry": {"type": "Point", "coordinates": [80.20885193, 12.75975965]}}, {"type": "Feature", "properties": {"route_name": "19", "stop_id": "CqPWXNIf", "name": "Koman Nagar Road Junction", "city": "CHENNAI"}, "geometry": {"type": "Point", "coordinates": [80.20718058784996, 12.756686401487213]}}, {"type": "Feature", "properties": {"route_name": "19", "stop_id": "YVGWiGkc", "name": "SSN College", "city": "CHENNAI"}, "geometry": {"type": "Point", "coordinates": [80.20423125781258, 12.751194964536586]}}, {"type": "Feature", "properties": {"route_name": "19", "stop_id": "FDrhtNjK", "name": "Kalavakkam School", "city": "CHENNAI"}, "geometry": {"type": "Point", "coordinates": [80.20035822, 12.74426545]}}, {"type": "Feature", "properties": {"route_name": "19", "stop_id": "ucVTqZIB", "name": "Kalavakkam", "city": "CHENNAI"}, "geometry": {"type": "Point", "coordinates": [80.19744426, 12.74178678]}}, {"type": "Feature", "properties": {"route_name": "19", "stop_id": "ZLCIvgrp", "name": "Thiruporur Or Kannagapattu", "city": "CHENNAI"}, "geometry": {"type": "Point", "coordinates": [80.19056921969991, 12.736200372957958]}}, {"type": "Feature", "properties": {"route_name": "19", "stop_id": "Uacajbua", "name": "Thiruporur Kovil", "city": "CHENNAI"}, "geometry": {"type": "Point", "coordinates": [80.18900751120839, 12.729829417410928]}}, {"type": "Feature", "properties": {"route_name": "19", "stop_id": "wcUGKfLa", "name": "Thiruporur Bus Stand", "city": "CHENNAI"}, "geometry": {"type": "Point", "coordinates": [80.18732844490751, 12.722195066711881]}}, {"type": "Feature", "properties": {"name": "19"}, "geometry": {"type": "LineString", "coordinates": [[80.23002, 13.0345], [80.23002, 13.03423], [80.23038, 13.0342], [80.23046, 13.0342], [80.23046, 13.03403], [80.23055, 13.0331], [80.23062, 13.03229], [80.23079, 13.03022], [80.23081, 13.02989], [80.23097, 13.0283], [80.23104, 13.02766], [80.23105, 13.02764], [80.23113, 13.02762], [80.23174, 13.02771], [80.23281, 13.02796], [80.23295, 13.02704], [80.23306, 13.02657], [80.2326, 13.02635], [80.23215, 13.02622], [80.2314, 13.02603], [80.23108, 13.02592], [80.23089, 13.02586], [80.23051, 13.02571], [80.23024, 13.02557], [80.22973, 13.02518], [80.22835, 13.02408], [80.22809, 13.02386], [80.22772, 13.02352], [80.22757, 13.02338], [80.22631, 13.02197], [80.22569, 13.02114], [80.22513, 13.02039], [80.22497, 13.02023], [80.22468, 13.01979], [80.22459, 13.01965], [80.22452, 13.01949], [80.22446, 13.01919], [80.22447, 13.01893], [80.22514, 13.01725], [80.22537, 13.01666], [80.22545, 13.01641], [80.22569, 13.01577], [80.22622, 13.01442], [80.22641, 13.01392], [80.22672, 13.01307], [80.22699, 13.01237], [80.22751, 13.01108], [80.22792, 13.01013], [80.22827, 13.00934], [80.22847, 13.00926], [80.22872, 13.00918], [80.23094, 13.00871], [80.2331, 13.00831], [80.23326, 13.00833], [80.23342, 13.00831], [80.23347, 13.0083], [80.23373, 13.00821], [80.23378, 13.00817], [80.23459, 13.00801], [80.23506, 13.00792], [80.23726, 13.00747], [80.23792, 13.00732], [80.23798, 13.00733], [80.23806, 13.00733], [80.24021, 13.00692], [80.24098, 13.0068], [80.24152, 13.00676], [80.24275, 13.00673], [80.24294, 13.00669], [80.24535, 13.00674], [80.24642, 13.00676], [80.24734, 13.00678], [80.24735, 13.00669], [80.24737, 13.00624], [80.24739, 13.00587], [80.24745, 13.00573], [80.24747, 13.00516], [80.24751, 13.00467], [80.24757, 13.00432], [80.24769, 13.00358], [80.24774, 13.00329], [80.24787, 13.00247], [80.2483, 13.00067], [80.24854, 12.99984], [80.24876, 12.99884], [80.24889, 12.9984], [80.24893, 12.99825], [80.24907, 12.99756], [80.24949, 12.99585], [80.24965, 12.99515], [80.25005, 12.99361], [80.25033, 12.99253], [80.25067, 12.99138], [80.25069, 12.99128], [80.25064, 12.99122], [80.25063, 12.99109], [80.25065, 12.99095], [80.25066, 12.99085], [80.25068, 12.99076], [80.25075, 12.99066], [80.25091, 12.98988], [80.25107, 12.98927], [80.25143, 12.98777], [80.2516, 12.98753], [80.2516, 12.98742], [80.25163, 12.98741], [80.25164, 12.98731], [80.25161, 12.98718], [80.25181, 12.98641], [80.25209, 12.98531], [80.25258, 12.98347], [80.25266, 12.98273], [80.25271, 12.98055], [80.25271, 12.97973], [80.25265, 12.97909], [80.25255, 12.97875], [80.25249, 12.97863], [80.25235, 12.97839], [80.25192, 12.97787], [80.25163, 12.9775], [80.25148, 12.97725], [80.25136, 12.977], [80.25129, 12.97676], [80.25099, 12.97557], [80.25092, 12.97537], [80.25081, 12.97501], [80.2509, 12.975], [80.25084, 12.9748], [80.2506, 12.9739], [80.25052, 12.97362], [80.2503, 12.97274], [80.24993, 12.97138], [80.24963, 12.97039], [80.24899, 12.96883], [80.24853, 12.96765], [80.24841, 12.96738], [80.24809, 12.96677], [80.24796, 12.96646], [80.24769, 12.96582], [80.24755, 12.96547], [80.24751, 12.96532], [80.24749, 12.96533], [80.24748, 12.96525], [80.24742, 12.96506], [80.24723, 12.9646], [80.24695, 12.96388], [80.24666, 12.96326], [80.2457, 12.96131], [80.24529, 12.96037], [80.24504, 12.95978], [80.24498, 12.95961], [80.24491, 12.95945], [80.24435, 12.95829], [80.24424, 12.958], [80.24417, 12.95794], [80.24408, 12.95771], [80.24396, 12.95744], [80.2438, 12.95696], [80.24358, 12.95642], [80.24333, 12.9558], [80.24306, 12.95526], [80.24293, 12.95499], [80.24295, 12.95493], [80.24297, 12.95485], [80.24295, 12.95477], [80.24247, 12.95364], [80.24223, 12.953], [80.24208, 12.95257], [80.24183, 12.95199], [80.24143, 12.9508], [80.24107, 12.94962], [80.24057, 12.94824], [80.24039, 12.9478], [80.24016, 12.94738], [80.23999, 12.94694], [80.24016, 12.94738], [80.24007, 12.94739], [80.23987, 12.94692], [80.23946, 12.94589], [80.23937, 12.94569], [80.23924, 12.94544], [80.23904, 12.94518], [80.23877, 12.9449], [80.23796, 12.94415], [80.23754, 12.94379], [80.23722, 12.94351], [80.2373, 12.94342], [80.23702, 12.94315], [80.23686, 12.9429], [80.23674, 12.9427], [80.23654, 12.94219], [80.23644, 12.94186], [80.23632, 12.94154], [80.23625, 12.94124], [80.23619, 12.9409], [80.23607, 12.94045], [80.23591, 12.93999], [80.23582, 12.93973], [80.23559, 12.93924], [80.23511, 12.93829], [80.23452, 12.93707], [80.23388, 12.93577], [80.23327, 12.93445], [80.23317, 12.93423], [80.23297, 12.93379], [80.23292, 12.93368], [80.23253, 12.93275], [80.2319, 12.9309], [80.23169, 12.93013], [80.2316, 12.92978], [80.23154, 12.92953], [80.23143, 12.92895], [80.23137, 12.9285], [80.23129, 12.92764], [80.23111, 12.92657], [80.23109, 12.92633], [80.23105, 12.92584], [80.23097, 12.92519], [80.23089, 12.92512], [80.23082, 12.9246], [80.23078, 12.92424], [80.23065, 12.9234], [80.23062, 12.92301], [80.23066, 12.9229], [80.23063, 12.92254], [80.2306, 12.92231], [80.2304, 12.9208], [80.23023, 12.91966], [80.23023, 12.91964], [80.22998, 12.91784], [80.22986, 12.91697], [80.22975, 12.91609], [80.22965, 12.91609], [80.22957, 12.91551], [80.22949, 12.91508], [80.22936, 12.9141], [80.22934, 12.91399], [80.22937, 12.91398], [80.2294, 12.91397], [80.2294, 12.91396], [80.22943, 12.91382], [80.22942, 12.91352], [80.22942, 12.91338], [80.22937, 12.91328], [80.2293, 12.91313], [80.22927, 12.91287], [80.2292, 12.91232], [80.22901, 12.91109], [80.22893, 12.9104], [80.22879, 12.90956], [80.22859, 12.90823], [80.22842, 12.90724], [80.22837, 12.90673], [80.22836, 12.90631], [80.22836, 12.90609], [80.22833, 12.90562], [80.22831, 12.90549], [80.22821, 12.90548], [80.22817, 12.90479], [80.22799, 12.90143], [80.22795, 12.901], [80.22792, 12.9004], [80.22798, 12.90036], [80.22801, 12.90028], [80.22801, 12.89992], [80.22799, 12.89959], [80.22798, 12.89937], [80.22794, 12.89887], [80.22786, 12.89777], [80.22782, 12.89696], [80.22777, 12.89545], [80.22767, 12.89412], [80.22767, 12.89388], [80.22764, 12.89354], [80.22758, 12.89319], [80.22753, 12.89281], [80.22747, 12.8919], [80.22747, 12.89071], [80.22744, 12.88892], [80.22741, 12.88817], [80.22729, 12.88728], [80.22699, 12.88576], [80.22683, 12.88523], [80.22679, 12.88505], [80.22681, 12.88365], [80.22686, 12.88113], [80.22686, 12.88073], [80.22685, 12.87986], [80.22687, 12.87883], [80.22697, 12.87793], [80.22704, 12.87676], [80.22705, 12.87613], [80.22703, 12.87567], [80.22697, 12.87495], [80.22692, 12.87449], [80.22683, 12.87377], [80.22681, 12.87342], [80.22678, 12.87278], [80.2268, 12.87195], [80.2268, 12.87138], [80.22663, 12.86964], [80.22658, 12.86927], [80.22651, 12.86872], [80.2265, 12.86834], [80.22652, 12.86797], [80.22661, 12.86711], [80.22664, 12.86675], [80.22668, 12.866], [80.22669, 12.86534], [80.22667, 12.86472], [80.22662, 12.86388], [80.2266, 12.86326], [80.22661, 12.8629], [80.22666, 12.86193], [80.22666, 12.86107], [80.22665, 12.86086], [80.22663, 12.86052], [80.22658, 12.8601], [80.22644, 12.85914], [80.22639, 12.85868], [80.22636, 12.85815], [80.22641, 12.85718], [80.22654, 12.85585], [80.22672, 12.85421], [80.22679, 12.85316], [80.22679, 12.85277], [80.22675, 12.85184], [80.22672, 12.85107], [80.22668, 12.85057], [80.22667, 12.85025], [80.22667, 12.85021], [80.22667, 12.8493], [80.22667, 12.84857], [80.22672, 12.84834], [80.22672, 12.84787], [80.2267, 12.84777], [80.22666, 12.84759], [80.22667, 12.84744], [80.22667, 12.84708], [80.22669, 12.84654], [80.2267, 12.8459], [80.22672, 12.84514], [80.22676, 12.8447], [80.22695, 12.84314], [80.22703, 12.84268], [80.22694, 12.84266], [80.22714, 12.84186], [80.22755, 12.84037], [80.22783, 12.8393], [80.22792, 12.83893], [80.22798, 12.83886], [80.22803, 12.83878], [80.22828, 12.8378], [80.22833, 12.83755], [80.22848, 12.83673], [80.22876, 12.83485], [80.22895, 12.83373], [80.22915, 12.83265], [80.22907, 12.83306], [80.22899, 12.83304], [80.22903, 12.83284], [80.22911, 12.83243], [80.22924, 12.83179], [80.2293, 12.8315], [80.22939, 12.83122], [80.2296, 12.83064], [80.2302, 12.82913], [80.2304, 12.82874], [80.23077, 12.82806], [80.23111, 12.82746], [80.23122, 12.82721], [80.2313, 12.8269], [80.23139, 12.82621], [80.23141, 12.8259], [80.23142, 12.82548], [80.23142, 12.82492], [80.23137, 12.82458], [80.23108, 12.82356], [80.23078, 12.82271], [80.23061, 12.8221], [80.23052, 12.82152], [80.23049, 12.82064], [80.23053, 12.81919], [80.23051, 12.81899], [80.2305, 12.81894], [80.23021, 12.81828], [80.22985, 12.81748], [80.22966, 12.81699], [80.22962, 12.81681], [80.22939, 12.81538], [80.22925, 12.81447], [80.22918, 12.81418], [80.2282, 12.81131], [80.22807, 12.81096], [80.2276, 12.80982], [80.22743, 12.80947], [80.22732, 12.80927], [80.22694, 12.80877], [80.22588, 12.80759], [80.22509, 12.8067], [80.22467, 12.80622], [80.22429, 12.80575], [80.22418, 12.80558], [80.2241, 12.80533], [80.22402, 12.80502], [80.22395, 12.80447], [80.22393, 12.80411], [80.22374, 12.8028], [80.22361, 12.80145], [80.22357, 12.80114], [80.22358, 12.80114], [80.22347, 12.79993], [80.22343, 12.79931], [80.22326, 12.79786], [80.2232, 12.79744], [80.22297, 12.79625], [80.22294, 12.79609], [80.22268, 12.79451], [80.22259, 12.79383], [80.2225, 12.79314], [80.22238, 12.79246], [80.22219, 12.79167], [80.22216, 12.79142], [80.22201, 12.7909], [80.22177, 12.79006], [80.22165, 12.78967], [80.2209, 12.78762], [80.22075, 12.78718], [80.22054, 12.78669], [80.22026, 12.78605], [80.22017, 12.78575], [80.21996, 12.78535], [80.21955, 12.78462], [80.2189, 12.7834], [80.21867, 12.78306], [80.21844, 12.78264], [80.21736, 12.78065], [80.21718, 12.78029], [80.21684, 12.77969], [80.2161, 12.77821], [80.2159, 12.77774], [80.21563, 12.77705], [80.21519, 12.77607], [80.21475, 12.77498], [80.21413, 12.77345], [80.21373, 12.77239], [80.2132, 12.77081], [80.21317, 12.77081], [80.21183, 12.76716], [80.21123, 12.76548], [80.21059, 12.76376], [80.21045, 12.76324], [80.21034, 12.76293], [80.20971, 12.76148], [80.20947, 12.76099], [80.2088, 12.75979], [80.20716, 12.7567], [80.20569, 12.75403], [80.20439, 12.75154], [80.20421, 12.75121], [80.20414, 12.75124], [80.20278, 12.74849], [80.20198, 12.74686], [80.20127, 12.74551], [80.201, 12.74503], [80.2009, 12.74487], [80.20066, 12.7446], [80.20034, 12.74428], [80.19832, 12.74252], [80.19751, 12.74188], [80.19742, 12.74181], [80.19602, 12.74082], [80.19514, 12.74019], [80.19427, 12.73955], [80.19339, 12.73894], [80.19257, 12.73828], [80.19228, 12.73797], [80.19051, 12.73626], [80.19055, 12.73622], [80.19015, 12.73582], [80.18987, 12.73543], [80.18973, 12.7351], [80.18962, 12.73472], [80.18952, 12.73342], [80.18947, 12.73307], [80.18919, 12.73174], [80.18899, 12.72986], [80.18899, 12.72983], [80.18893, 12.72902], [80.18889, 12.72882], [80.18876, 12.72841], [80.18869, 12.72815], [80.18854, 12.72782], [80.18833, 12.72698], [80.18818, 12.72626], [80.18813, 12.72595], [80.18802, 12.72508], [80.18795, 12.72473], [80.18778, 12.724], [80.18745, 12.72277], [80.1873, 12.7222]]}}]}