{"type": "FeatureCollection", "features": [{"type": "Feature", "properties": {"route_name": "62CT", "stop_id": "NjRgIRup", "name": "Redhills Bus Terminus", "city": "CHENNAI"}, "geometry": {"type": "Point", "coordinates": [80.18436916240239, 13.193055667425153]}}, {"type": "Feature", "properties": {"route_name": "62CT", "stop_id": "twlwLPZj", "name": "Redhills Market", "city": "CHENNAI"}, "geometry": {"type": "Point", "coordinates": [80.18746140869393, 13.189656443166843]}}, {"type": "Feature", "properties": {"route_name": "62CT", "stop_id": "oXDhDxhT", "name": "Ayurveda Ashramam", "city": "CHENNAI"}, "geometry": {"type": "Point", "coordinates": [80.19163019178984, 13.184532073335602]}}, {"type": "Feature", "properties": {"route_name": "62CT", "stop_id": "AKEMZMhk", "name": "Sri Nallaghu Polytechnic College", "city": "CHENNAI"}, "geometry": {"type": "Point", "coordinates": [80.19489143132, 13.178770017600861]}}, {"type": "Feature", "properties": {"route_name": "62CT", "stop_id": "IWuAfYeM", "name": "Thandal Kazhani", "city": "CHENNAI"}, "geometry": {"type": "Point", "coordinates": [80.1963990238952, 13.176024187726195]}}, {"type": "Feature", "properties": {"route_name": "62CT", "stop_id": "aCcokpIU", "name": "Kavangarai", "city": "CHENNAI"}, "geometry": {"type": "Point", "coordinates": [80.19951553290468, 13.170491280980686]}}, {"type": "Feature", "properties": {"route_name": "62CT", "stop_id": "hTBkjNzq", "name": "Puzhal Jail", "city": "CHENNAI"}, "geometry": {"type": "Point", "coordinates": [80.2026735613066, 13.163860200988898]}}, {"type": "Feature", "properties": {"route_name": "62CT", "stop_id": "hSdNxZqe", "name": "Puzhal Camp", "city": "CHENNAI"}, "geometry": {"type": "Point", "coordinates": [80.20311292900305, 13.158203557966363]}}, {"type": "Feature", "properties": {"route_name": "62CT", "stop_id": "MjMDaXaP", "name": "Chocolate Company", "city": "CHENNAI"}, "geometry": {"type": "Point", "coordinates": [80.19472969955496, 13.15375873255666]}}, {"type": "Feature", "properties": {"route_name": "62CT", "stop_id": "wPeqfEci", "name": "Velammal College", "city": "CHENNAI"}, "geometry": {"type": "Point", "coordinates": [80.19151428849432, 13.150784906077709]}}, {"type": "Feature", "properties": {"route_name": "62CT", "stop_id": "ZNjvBYak", "name": "Surapet", "city": "CHENNAI"}, "geometry": {"type": "Point", "coordinates": [80.18823112372934, 13.144222246275296]}}, {"type": "Feature", "properties": {"route_name": "62CT", "stop_id": "ULMVzkWs", "name": "Sivaprakasam Nagar", "city": "CHENNAI"}, "geometry": {"type": "Point", "coordinates": [80.18552071252373, 13.142481954997585]}}, {"type": "Feature", "properties": {"route_name": "62CT", "stop_id": "kFSxtGUW", "name": "Shanmugapuram", "city": "CHENNAI"}, "geometry": {"type": "Point", "coordinates": [80.18080595836261, 13.140628262131404]}}, {"type": "Feature", "properties": {"route_name": "62CT", "stop_id": "fytASSfG", "name": "Kallikuppam Tea Kadai Bus Stop", "city": "CHENNAI"}, "geometry": {"type": "Point", "coordinates": [80.17376751539803, 13.133111558950002]}}, {"type": "Feature", "properties": {"route_name": "62CT", "stop_id": "QewuHWYk", "name": "Kallikuppam", "city": "CHENNAI"}, "geometry": {"type": "Point", "coordinates": [80.17183159839908, 13.132059569884227]}}, {"type": "Feature", "properties": {"route_name": "62CT", "stop_id": "vizUtPmY", "name": "Kallikuppam Koil", "city": "CHENNAI"}, "geometry": {"type": "Point", "coordinates": [80.1695383796814, 13.13200097165418]}}, {"type": "Feature", "properties": {"route_name": "62CT", "stop_id": "dAjqsFfg", "name": "Wireless Company", "city": "CHENNAI"}, "geometry": {"type": "Point", "coordinates": [80.16531572264012, 13.131879192276259]}}, {"type": "Feature", "properties": {"route_name": "62CT", "stop_id": "tJbXQuOE", "name": "Pudur", "city": "CHENNAI"}, "geometry": {"type": "Point", "coordinates": [80.15855955729944, 13.130294007943425]}}, {"type": "Feature", "properties": {"route_name": "62CT", "stop_id": "CpULuhdq", "name": "Oragadam", "city": "CHENNAI"}, "geometry": {"type": "Point", "coordinates": [80.15391915598434, 13.127228993377432]}}, {"type": "Feature", "properties": {"route_name": "62CT", "stop_id": "iMjvswBX", "name": "Oragadam OT", "city": "CHENNAI"}, "geometry": {"type": "Point", "coordinates": [80.15095091215971, 13.124046860850612]}}, {"type": "Feature", "properties": {"route_name": "62CT", "stop_id": "wFSILCzc", "name": "Raaki Theatre", "city": "CHENNAI"}, "geometry": {"type": "Point", "coordinates": [80.1479253780052, 13.121795406853309]}}, {"type": "Feature", "properties": {"route_name": "62CT", "stop_id": "FlYjxOxQ", "name": "Stedford Hospital", "city": "CHENNAI"}, "geometry": {"type": "Point", "coordinates": [80.14358188300969, 13.124411446947889]}}, {"type": "Feature", "properties": {"route_name": "62CT", "stop_id": "GkYZbgqg", "name": "Saraswathi Nagar CTH Salai", "city": "CHENNAI"}, "geometry": {"type": "Point", "coordinates": [80.13964594131141, 13.128044553010751]}}, {"type": "Feature", "properties": {"route_name": "62CT", "stop_id": "FStgRiBS", "name": "Manikandapuram", "city": "CHENNAI"}, "geometry": {"type": "Point", "coordinates": [80.13632670464676, 13.13041694949477]}}, {"type": "Feature", "properties": {"route_name": "62CT", "stop_id": "XiLvnZTk", "name": "Thirumullaivoyal", "city": "CHENNAI"}, "geometry": {"type": "Point", "coordinates": [80.13103425086297, 13.130727007064682]}}, {"type": "Feature", "properties": {"route_name": "62CT", "stop_id": "Vlipnutt", "name": "Vaishnavi Nagar", "city": "CHENNAI"}, "geometry": {"type": "Point", "coordinates": [80.12504772543741, 13.129621709283668]}}, {"type": "Feature", "properties": {"route_name": "62CT", "stop_id": "bHagonKv", "name": "Murugappa Polytechnic", "city": "CHENNAI"}, "geometry": {"type": "Point", "coordinates": [80.1191290174753, 13.125786743953624]}}, {"type": "Feature", "properties": {"route_name": "62CT", "stop_id": "PhjcDdmq", "name": "Tube Products of India", "city": "CHENNAI"}, "geometry": {"type": "Point", "coordinates": [80.112518168713, 13.12331203321694]}}, {"type": "Feature", "properties": {"route_name": "62CT", "stop_id": "ogOCBKAf", "name": "Avadi Terminal", "city": "CHENNAI"}, "geometry": {"type": "Point", "coordinates": [80.10204658205703, 13.120113061821396]}}, {"type": "Feature", "properties": {"name": "62CT"}, "geometry": {"type": "LineString", "coordinates": [[80.18436, 13.19301], [80.18546, 13.19185], [80.18631, 13.19087], [80.18743, 13.18963], [80.18794, 13.18905], [80.18796, 13.18899], [80.18818, 13.18874], [80.18847, 13.18844], [80.18887, 13.18809], [80.1891, 13.1879], [80.18922, 13.18786], [80.18926, 13.18783], [80.18938, 13.18773], [80.18954, 13.18755], [80.18963, 13.18741], [80.18993, 13.18667], [80.19008, 13.18634], [80.19018, 13.18621], [80.19057, 13.18585], [80.19074, 13.1857], [80.19091, 13.18551], [80.19115, 13.18518], [80.19135, 13.1849], [80.1915, 13.18466], [80.19159, 13.18451], [80.1917, 13.18431], [80.19177, 13.18425], [80.19181, 13.18423], [80.19203, 13.18421], [80.19218, 13.18423], [80.19219, 13.18414], [80.1922, 13.1841], [80.19225, 13.18408], [80.19228, 13.18403], [80.19239, 13.18354], [80.19262, 13.18288], [80.19285, 13.18239], [80.1931, 13.18192], [80.19441, 13.17959], [80.19487, 13.17876], [80.19639, 13.17602], [80.19787, 13.17338], [80.19949, 13.17048], [80.20021, 13.16918], [80.2012, 13.16745], [80.20175, 13.16647], [80.20205, 13.16583], [80.20225, 13.16531], [80.20258, 13.16412], [80.20264, 13.16385], [80.20275, 13.16343], [80.20295, 13.16259], [80.20304, 13.16211], [80.20312, 13.1616], [80.20334, 13.16044], [80.20341, 13.15996], [80.2035, 13.15957], [80.20376, 13.15871], [80.20375, 13.15866], [80.20371, 13.1586], [80.20373, 13.15856], [80.20376, 13.15848], [80.20364, 13.15844], [80.20326, 13.15826], [80.20311, 13.15824], [80.20286, 13.15823], [80.20262, 13.15825], [80.20211, 13.15833], [80.20085, 13.15855], [80.19989, 13.15868], [80.1984, 13.1589], [80.19803, 13.15897], [80.19794, 13.15898], [80.19781, 13.15896], [80.19748, 13.15883], [80.19726, 13.15872], [80.19696, 13.1585], [80.19685, 13.15835], [80.19679, 13.15823], [80.19669, 13.15788], [80.1965, 13.1572], [80.19645, 13.15701], [80.1964, 13.15672], [80.19641, 13.1565], [80.19646, 13.15621], [80.19655, 13.15592], [80.19659, 13.15576], [80.19659, 13.15558], [80.19656, 13.15544], [80.1965, 13.15525], [80.19639, 13.15504], [80.19626, 13.15493], [80.19612, 13.15486], [80.19591, 13.1548], [80.19519, 13.15465], [80.19506, 13.15459], [80.19495, 13.15446], [80.19489, 13.15435], [80.19469, 13.15377], [80.19454, 13.15331], [80.19441, 13.15308], [80.19406, 13.15264], [80.19373, 13.15231], [80.19353, 13.15215], [80.19198, 13.15112], [80.19155, 13.15082], [80.19151, 13.15079], [80.19106, 13.15046], [80.19017, 13.14981], [80.18967, 13.14939], [80.18947, 13.14924], [80.1894, 13.14917], [80.18931, 13.14902], [80.18925, 13.14885], [80.18918, 13.14855], [80.18904, 13.14791], [80.18875, 13.14641], [80.1887, 13.14614], [80.18859, 13.14564], [80.18846, 13.14498], [80.18838, 13.14468], [80.18832, 13.14441], [80.18824, 13.14424], [80.18823, 13.14422], [80.18795, 13.14374], [80.18779, 13.14358], [80.18766, 13.14351], [80.18693, 13.14317], [80.1855, 13.14253], [80.18333, 13.14151], [80.18299, 13.14136], [80.18264, 13.14124], [80.18115, 13.1408], [80.18079, 13.14068], [80.18046, 13.14054], [80.18021, 13.14039], [80.17983, 13.14004], [80.17961, 13.13977], [80.17802, 13.13802], [80.17732, 13.13721], [80.17694, 13.13679], [80.17621, 13.13598], [80.17484, 13.13449], [80.17444, 13.13398], [80.17424, 13.1337], [80.17399, 13.13342], [80.17377, 13.13316], [80.17374, 13.13314], [80.17331, 13.13262], [80.17306, 13.13235], [80.17293, 13.13227], [80.17273, 13.1322], [80.17255, 13.13217], [80.17183, 13.13213], [80.16954, 13.13206], [80.16531, 13.13198], [80.16474, 13.13194], [80.16391, 13.13181], [80.16263, 13.13155], [80.16125, 13.13131], [80.16055, 13.1312], [80.16024, 13.13112], [80.15997, 13.13103], [80.15876, 13.13052], [80.15851, 13.13041], [80.15791, 13.13015], [80.15703, 13.12955], [80.15523, 13.12829], [80.1542, 13.12759], [80.15392, 13.12739], [80.15395, 13.12723], [80.15394, 13.12731], [80.15392, 13.12739], [80.1539, 13.12737], [80.15387, 13.12731], [80.15383, 13.12724], [80.15323, 13.12614], [80.1527, 13.12522], [80.15259, 13.12505], [80.15251, 13.12497], [80.15213, 13.12477], [80.15092, 13.1241], [80.14986, 13.12351], [80.14957, 13.12336], [80.14914, 13.1231], [80.14894, 13.12296], [80.14878, 13.12279], [80.14872, 13.12271], [80.14867, 13.12255], [80.14861, 13.12236], [80.14855, 13.12193], [80.14855, 13.12162], [80.14849, 13.12156], [80.14843, 13.12152], [80.14815, 13.12171], [80.148, 13.12181], [80.14795, 13.12184], [80.14716, 13.12227], [80.14613, 13.12287], [80.14515, 13.12346], [80.14369, 13.12438], [80.1436, 13.12444], [80.14165, 13.12567], [80.14138, 13.12587], [80.14115, 13.12613], [80.14063, 13.1268], [80.13969, 13.12807], [80.13898, 13.12902], [80.13838, 13.12973], [80.13806, 13.13003], [80.13789, 13.13016], [80.13778, 13.13021], [80.13743, 13.13031], [80.13696, 13.1304], [80.13634, 13.13049], [80.13481, 13.13071], [80.134, 13.13072], [80.13302, 13.13075], [80.13208, 13.13075], [80.13144, 13.13073], [80.13103, 13.13074], [80.13075, 13.13074], [80.13059, 13.13077], [80.12931, 13.13106], [80.12822, 13.13133], [80.12784, 13.13137], [80.12745, 13.13134], [80.12728, 13.13131], [80.12713, 13.13127], [80.12698, 13.1312], [80.12671, 13.13102], [80.12635, 13.13078], [80.12583, 13.13039], [80.12528, 13.12991], [80.125, 13.12967], [80.12191, 13.12702], [80.12123, 13.12647], [80.12094, 13.12635], [80.12035, 13.12617], [80.11982, 13.12603], [80.11912, 13.12583], [80.11873, 13.12572], [80.11769, 13.12533], [80.11668, 13.12492], [80.11598, 13.12466], [80.1134, 13.12367], [80.11283, 13.12346], [80.1125, 13.12339], [80.11195, 13.1233], [80.11164, 13.12327], [80.11105, 13.12325], [80.11068, 13.12321], [80.11052, 13.12316], [80.11037, 13.12307], [80.10939, 13.12238], [80.10888, 13.12202], [80.10834, 13.12152], [80.10795, 13.121], [80.1077, 13.12073], [80.10752, 13.12057], [80.10735, 13.12046], [80.10704, 13.12035], [80.1061, 13.12007], [80.10527, 13.11983], [80.10502, 13.11979], [80.10371, 13.11965], [80.10289, 13.11964], [80.10229, 13.11967], [80.10178, 13.1197], [80.10176, 13.1197], [80.10175, 13.11979], [80.10202, 13.11977]]}}]}