{"type": "FeatureCollection", "features": [{"type": "Feature", "properties": {"route_name": "89T", "stop_id": "WjGJosho", "name": "Tambaram West Bus Stand", "city": "CHENNAI"}, "geometry": {"type": "Point", "coordinates": [80.11862628, 12.92765218]}}, {"type": "Feature", "properties": {"route_name": "89T", "stop_id": "sjfoFmFj", "name": "Seva Sadan Higher Secondary School", "city": "CHENNAI"}, "geometry": {"type": "Point", "coordinates": [80.11164327266283, 12.9306493672776]}}, {"type": "Feature", "properties": {"route_name": "89T", "stop_id": "cOTHHVzh", "name": "RTO Office Tambaram", "city": "CHENNAI"}, "geometry": {"type": "Point", "coordinates": [80.10827851818567, 12.931461398877941]}}, {"type": "Feature", "properties": {"route_name": "89T", "stop_id": "UFFAxqtN", "name": "MGR Silai", "city": "CHENNAI"}, "geometry": {"type": "Point", "coordinates": [80.10435461238501, 12.933050258480316]}}, {"type": "Feature", "properties": {"route_name": "89T", "stop_id": "YxAufxIm", "name": "Kannadapalayam", "city": "CHENNAI"}, "geometry": {"type": "Point", "coordinates": [80.1006110776832, 12.935992734692826]}}, {"type": "Feature", "properties": {"route_name": "89T", "stop_id": "saptMzFY", "name": "Samathuva Periyar Nagar", "city": "CHENNAI"}, "geometry": {"type": "Point", "coordinates": [80.08885606770941, 12.93914278031548]}}, {"type": "Feature", "properties": {"route_name": "89T", "stop_id": "WmvRfciC", "name": "Venkateshvara Nagar Darkash Salai", "city": "CHENNAI"}, "geometry": {"type": "Point", "coordinates": [80.08715576067607, 12.93933057552252]}}, {"type": "Feature", "properties": {"route_name": "89T", "stop_id": "nUxocPjZ", "name": "Anjugam Nagar", "city": "CHENNAI"}, "geometry": {"type": "Point", "coordinates": [80.08514645583705, 12.940193728978473]}}, {"type": "Feature", "properties": {"route_name": "89T", "stop_id": "kYxNkIzH", "name": "Kishkintha", "city": "CHENNAI"}, "geometry": {"type": "Point", "coordinates": [80.08115862286354, 12.940779317545177]}}, {"type": "Feature", "properties": {"route_name": "89T", "stop_id": "lWiTdhQk", "name": "Dharkast", "city": "CHENNAI"}, "geometry": {"type": "Point", "coordinates": [80.07154683195097, 12.942632367013502]}}, {"type": "Feature", "properties": {"route_name": "89T", "stop_id": "vhHLNRbD", "name": "Ettiamman Kovil", "city": "CHENNAI"}, "geometry": {"type": "Point", "coordinates": [80.06471693434321, 12.948664486969479]}}, {"type": "Feature", "properties": {"route_name": "89T", "stop_id": "gdHaMUeX", "name": "Sri Sairam Siddha Medical College", "city": "CHENNAI"}, "geometry": {"type": "Point", "coordinates": [80.05957610731275, 12.952599288150754]}}, {"type": "Feature", "properties": {"route_name": "89T", "stop_id": "rXoVyCYO", "name": "Taar Plant", "city": "CHENNAI"}, "geometry": {"type": "Point", "coordinates": [80.05089501770965, 12.952561964819681]}}, {"type": "Feature", "properties": {"route_name": "89T", "stop_id": "KuTZBRNJ", "name": "Somangalam Road Or NV Road Junction", "city": "CHENNAI"}, "geometry": {"type": "Point", "coordinates": [80.04563237569357, 12.951804623230434]}}, {"type": "Feature", "properties": {"route_name": "89T", "stop_id": "wXyAETzh", "name": "Somangalam EB", "city": "CHENNAI"}, "geometry": {"type": "Point", "coordinates": [80.0357666044651, 12.947852669807043]}}, {"type": "Feature", "properties": {"route_name": "89T", "stop_id": "NMFCXTQH", "name": "Somangalam Bus Stand", "city": "CHENNAI"}, "geometry": {"type": "Point", "coordinates": [80.0356662028356, 12.946221885115241]}}, {"type": "Feature", "properties": {"route_name": "89T", "stop_id": "bbltEnah", "name": "Nallur", "city": "CHENNAI"}, "geometry": {"type": "Point", "coordinates": [80.02987171562079, 12.960513020884948]}}, {"type": "Feature", "properties": {"route_name": "89T", "stop_id": "vXHOZRfg", "name": "Nallur Check Post", "city": "CHENNAI"}, "geometry": {"type": "Point", "coordinates": [80.03244166132527, 12.969323500700083]}}, {"type": "Feature", "properties": {"route_name": "89T", "stop_id": "vztyQdds", "name": "Puthuper", "city": "CHENNAI"}, "geometry": {"type": "Point", "coordinates": [80.04538870943247, 12.974200105647327]}}, {"type": "Feature", "properties": {"route_name": "89T", "stop_id": "fDeHEcoN", "name": "Annai Anjugam Nagar", "city": "CHENNAI"}, "geometry": {"type": "Point", "coordinates": [80.05285815179013, 12.978173551645042]}}, {"type": "Feature", "properties": {"route_name": "89T", "stop_id": "zttQgzJF", "name": "Nandambakkam.Kalaignar Nagar", "city": "CHENNAI"}, "geometry": {"type": "Point", "coordinates": [80.05696000569574, 12.981007738169957]}}, {"type": "Feature", "properties": {"route_name": "89T", "stop_id": "hasgHIpb", "name": "Azhagesa Nagar", "city": "CHENNAI"}, "geometry": {"type": "Point", "coordinates": [80.06006165921099, 12.98261562408067]}}, {"type": "Feature", "properties": {"route_name": "89T", "stop_id": "mZFKHZkN", "name": "Nandambakkam", "city": "CHENNAI"}, "geometry": {"type": "Point", "coordinates": [80.06256213433585, 12.983820078586923]}}, {"type": "Feature", "properties": {"route_name": "89T", "stop_id": "WcOcULlY", "name": "Kaladipet", "city": "CHENNAI"}, "geometry": {"type": "Point", "coordinates": [80.06414732910378, 12.987171622501549]}}, {"type": "Feature", "properties": {"route_name": "89T", "stop_id": "JALpXpKc", "name": "Saraswathinagar", "city": "CHENNAI"}, "geometry": {"type": "Point", "coordinates": [80.06806849106272, 12.993138462037331]}}, {"type": "Feature", "properties": {"route_name": "89T", "stop_id": "aIrbaHhk", "name": "Sirukalathur Kozhi Pannai", "city": "CHENNAI"}, "geometry": {"type": "Point", "coordinates": [80.0749863960724, 12.994448556123151]}}, {"type": "Feature", "properties": {"route_name": "89T", "stop_id": "dYlTtQAF", "name": "Sirukalathur", "city": "CHENNAI"}, "geometry": {"type": "Point", "coordinates": [80.07833534168708, 12.995010710250932]}}, {"type": "Feature", "properties": {"route_name": "89T", "stop_id": "rJvLUxkA", "name": "Madha Engineering College", "city": "CHENNAI"}, "geometry": {"type": "Point", "coordinates": [80.08552390819591, 12.994581481416025]}}, {"type": "Feature", "properties": {"route_name": "89T", "stop_id": "UgzfanVk", "name": "Kundrathur Bus Depot", "city": "CHENNAI"}, "geometry": {"type": "Point", "coordinates": [80.09613879486278, 12.997118033846938]}}, {"type": "Feature", "properties": {"name": "89T"}, "geometry": {"type": "LineString", "coordinates": [[80.11867, 12.92761], [80.11904, 12.92801], [80.11957, 12.92853], [80.12033, 12.92931], [80.12111, 12.93006], [80.12083, 12.93004], [80.12047, 12.9301], [80.11818, 12.93041], [80.11721, 12.93064], [80.11694, 12.93067], [80.11675, 12.93065], [80.11656, 12.93061], [80.11585, 12.93051], [80.11531, 12.93041], [80.11511, 12.93036], [80.11504, 12.93036], [80.11485, 12.93029], [80.11459, 12.93019], [80.11424, 12.93006], [80.11396, 12.92993], [80.11336, 12.92958], [80.11235, 12.92895], [80.11226, 12.92917], [80.11216, 12.92952], [80.11201, 12.93006], [80.11184, 12.93068], [80.11165, 12.9307], [80.11089, 12.93077], [80.11034, 12.93086], [80.10932, 12.93116], [80.10829, 12.9315], [80.10771, 12.93168], [80.10631, 12.93215], [80.1055, 12.93244], [80.10498, 12.93262], [80.10483, 12.93269], [80.10438, 12.93307], [80.10436, 12.93309], [80.10407, 12.93346], [80.10378, 12.93401], [80.10357, 12.93446], [80.10323, 12.93521], [80.10319, 12.93532], [80.10312, 12.93543], [80.10308, 12.93546], [80.10243, 12.93561], [80.10177, 12.93578], [80.10079, 12.93597], [80.10062, 12.93602], [80.10062, 12.93601], [80.09954, 12.93624], [80.099, 12.93637], [80.09866, 12.93645], [80.09855, 12.93649], [80.09843, 12.93656], [80.09806, 12.93679], [80.09797, 12.93683], [80.09732, 12.93698], [80.09557, 12.93743], [80.09516, 12.93756], [80.09424, 12.93787], [80.09325, 12.93817], [80.09134, 12.93871], [80.0903, 12.93892], [80.08941, 12.93908], [80.08886, 12.93917], [80.08827, 12.93919], [80.08765, 12.93926], [80.08737, 12.93931], [80.08718, 12.93939], [80.08516, 12.94022], [80.08472, 12.94041], [80.08448, 12.94047], [80.08355, 12.94054], [80.08319, 12.94055], [80.0829, 12.94053], [80.08253, 12.94047], [80.08219, 12.94044], [80.0821, 12.94045], [80.08117, 12.9408], [80.08001, 12.94134], [80.07933, 12.94165], [80.07818, 12.94225], [80.07782, 12.94245], [80.07737, 12.9427], [80.07685, 12.94294], [80.0764, 12.9431], [80.07625, 12.94286], [80.07605, 12.9425], [80.07589, 12.94233], [80.07578, 12.94231], [80.07529, 12.94242], [80.07435, 12.94267], [80.07412, 12.94268], [80.07252, 12.94238], [80.07225, 12.94237], [80.07206, 12.94242], [80.07158, 12.94265], [80.07157, 12.94266], [80.07105, 12.94298], [80.07058, 12.94321], [80.07012, 12.94337], [80.06892, 12.94381], [80.06881, 12.9439], [80.06875, 12.94406], [80.06871, 12.94441], [80.06867, 12.94449], [80.06862, 12.94454], [80.06821, 12.94468], [80.06767, 12.94489], [80.06613, 12.94576], [80.06544, 12.94613], [80.06533, 12.94621], [80.06526, 12.94631], [80.06497, 12.94719], [80.06481, 12.948], [80.06476, 12.94827], [80.06475, 12.9486], [80.06475, 12.94867], [80.06471, 12.94879], [80.06431, 12.94927], [80.0637, 12.94987], [80.06222, 12.95117], [80.06154, 12.95179], [80.06118, 12.952], [80.06031, 12.95239], [80.05997, 12.95257], [80.05958, 12.95262], [80.05804, 12.9526], [80.05766, 12.95267], [80.05726, 12.95278], [80.05679, 12.95292], [80.05615, 12.95312], [80.05559, 12.95327], [80.05544, 12.9533], [80.05533, 12.95329], [80.05405, 12.95301], [80.05373, 12.95294], [80.05274, 12.95281], [80.05089, 12.95259], [80.04749, 12.95212], [80.04563, 12.95185], [80.04513, 12.95174], [80.04504, 12.95175], [80.04498, 12.95179], [80.04438, 12.95252], [80.04284, 12.95433], [80.04251, 12.95404], [80.0424, 12.95387], [80.0421, 12.9532], [80.04188, 12.95277], [80.04174, 12.95244], [80.04154, 12.9518], [80.04147, 12.9515], [80.04147, 12.95128], [80.04156, 12.95081], [80.04155, 12.95057], [80.04153, 12.95047], [80.04124, 12.94963], [80.04118, 12.94952], [80.04112, 12.94947], [80.04107, 12.94945], [80.04101, 12.94945], [80.04023, 12.94973], [80.03976, 12.94991], [80.03945, 12.94997], [80.03841, 12.94973], [80.03804, 12.94969], [80.03782, 12.94971], [80.03708, 12.9499], [80.03701, 12.94991], [80.03692, 12.9499], [80.03684, 12.94985], [80.03678, 12.94965], [80.03671, 12.94935], [80.03662, 12.9492], [80.0362, 12.9486], [80.03574, 12.94793], [80.03572, 12.94786], [80.03568, 12.94753], [80.03573, 12.94712], [80.03581, 12.94675], [80.03582, 12.94645], [80.03581, 12.94635], [80.03576, 12.94622], [80.03575, 12.94621], [80.03581, 12.94635], [80.03582, 12.9466], [80.03578, 12.94688], [80.03571, 12.94722], [80.03568, 12.94743], [80.03568, 12.94761], [80.0357, 12.94777], [80.03574, 12.94793], [80.03533, 12.948], [80.03515, 12.94804], [80.03499, 12.94813], [80.03438, 12.94853], [80.03357, 12.94893], [80.03344, 12.94897], [80.03289, 12.94901], [80.0325, 12.949], [80.03243, 12.94902], [80.03233, 12.94908], [80.03226, 12.94928], [80.03223, 12.94944], [80.03216, 12.94961], [80.03206, 12.94972], [80.032, 12.94981], [80.03196, 12.94989], [80.03195, 12.95002], [80.03213, 12.95214], [80.03211, 12.95223], [80.03205, 12.95231], [80.03083, 12.95322], [80.03065, 12.95331], [80.0305, 12.95335], [80.02953, 12.95347], [80.02942, 12.95356], [80.02938, 12.95362], [80.02936, 12.95368], [80.02938, 12.95383], [80.02956, 12.95463], [80.02958, 12.95482], [80.02958, 12.95512], [80.0295, 12.95616], [80.0295, 12.95696], [80.0296, 12.95736], [80.02964, 12.95758], [80.02963, 12.95775], [80.02964, 12.95815], [80.02985, 12.95917], [80.03002, 12.95964], [80.03003, 12.95999], [80.02998, 12.96033], [80.02996, 12.96051], [80.03001, 12.9613], [80.03008, 12.96171], [80.03018, 12.96206], [80.03058, 12.96347], [80.03096, 12.96473], [80.03138, 12.9662], [80.03173, 12.96727], [80.03191, 12.96795], [80.03213, 12.96858], [80.03228, 12.96905], [80.0323, 12.96917], [80.0323, 12.96927], [80.03245, 12.9693], [80.0348, 12.96992], [80.03585, 12.9702], [80.03657, 12.97035], [80.03788, 12.97058], [80.0392, 12.97078], [80.0395, 12.97084], [80.03976, 12.97092], [80.04023, 12.97111], [80.04072, 12.97134], [80.04124, 12.97163], [80.04167, 12.9719], [80.04265, 12.97256], [80.04366, 12.97321], [80.04413, 12.97351], [80.04455, 12.97374], [80.04528, 12.97412], [80.0454, 12.97417], [80.04569, 12.97427], [80.04638, 12.97443], [80.04716, 12.97464], [80.0476, 12.9748], [80.04805, 12.97502], [80.04851, 12.97529], [80.04971, 12.97602], [80.05129, 12.97704], [80.05196, 12.9775], [80.05287, 12.97815], [80.05427, 12.97919], [80.05528, 12.97992], [80.05635, 12.98063], [80.05698, 12.98095], [80.05744, 12.98112], [80.05821, 12.98146], [80.05858, 12.98168], [80.05909, 12.98203], [80.05958, 12.98233], [80.06007, 12.98259], [80.06081, 12.98297], [80.06221, 12.98363], [80.06257, 12.9838], [80.06291, 12.98401], [80.06305, 12.98416], [80.06319, 12.98438], [80.06362, 12.98541], [80.06387, 12.98616], [80.06417, 12.98716], [80.06431, 12.98766], [80.06435, 12.98805], [80.06438, 12.9883], [80.06443, 12.98848], [80.06454, 12.98874], [80.06616, 12.9907], [80.06655, 12.99124], [80.06718, 12.99197], [80.06811, 12.9931], [80.0684, 12.99341], [80.06867, 12.99366], [80.06923, 12.9942], [80.06947, 12.99439], [80.07007, 12.99481], [80.07022, 12.9949], [80.0703, 12.99492], [80.07053, 12.99493], [80.07101, 12.9949], [80.07174, 12.99481], [80.07437, 12.99449], [80.07498, 12.99441], [80.07652, 12.99427], [80.07681, 12.99426], [80.07704, 12.99428], [80.07741, 12.99441], [80.07768, 12.99455], [80.078, 12.99477], [80.07835, 12.995], [80.07945, 12.99556], [80.0796, 12.99561], [80.07971, 12.99562], [80.08005, 12.99556], [80.08177, 12.99516], [80.08266, 12.99497], [80.08271, 12.99486], [80.08282, 12.99473], [80.08301, 12.99464], [80.08334, 12.99457], [80.08394, 12.99446], [80.08409, 12.99449], [80.08421, 12.99456], [80.08425, 12.9946], [80.08437, 12.99457], [80.08473, 12.99448], [80.08485, 12.99446], [80.08497, 12.99447], [80.08535, 12.99454], [80.08553, 12.99457], [80.087, 12.99487], [80.0877, 12.995], [80.08866, 12.99515], [80.08958, 12.9953], [80.08984, 12.99533], [80.09055, 12.99544], [80.09074, 12.99551], [80.09086, 12.9956], [80.09104, 12.99583], [80.09142, 12.99651], [80.09162, 12.99687], [80.09173, 12.99703], [80.09182, 12.99712], [80.09199, 12.9972], [80.09221, 12.99725], [80.09279, 12.99728], [80.09325, 12.99732], [80.0941, 12.99744], [80.09459, 12.99749], [80.09508, 12.9975], [80.09639, 12.99743], [80.09635, 12.9971]]}}]}