{"type": "FeatureCollection", "features": [{"type": "Feature", "properties": {"route_name": "51M", "stop_id": "wSRHKxQJ", "name": "Thiyagaraya Nagar Bus Depot", "city": "CHENNAI"}, "geometry": {"type": "Point", "coordinates": [80.23051745304758, 13.033656858874513]}}, {"type": "Feature", "properties": {"route_name": "51M", "stop_id": "nEXpIbiD", "name": "CIT Nagar", "city": "CHENNAI"}, "geometry": {"type": "Point", "coordinates": [80.23084860962217, 13.029891933620636]}}, {"type": "Feature", "properties": {"route_name": "51M", "stop_id": "JERGrgVI", "name": "Munipillai Chathiram", "city": "CHENNAI"}, "geometry": {"type": "Point", "coordinates": [80.2314275604673, 13.026012966072276]}}, {"type": "Feature", "properties": {"route_name": "51M", "stop_id": "DOGyniWl", "name": "Saidapet Metro", "city": "CHENNAI"}, "geometry": {"type": "Point", "coordinates": [80.2281859358351, 13.023758074666299]}}, {"type": "Feature", "properties": {"route_name": "51M", "stop_id": "ItndWSiW", "name": "Saidapet", "city": "CHENNAI"}, "geometry": {"type": "Point", "coordinates": [80.2272533, 13.02297368]}}, {"type": "Feature", "properties": {"route_name": "51M", "stop_id": "YmkUpvHU", "name": "Chinnamalai B S or Saidapet Court", "city": "CHENNAI"}, "geometry": {"type": "Point", "coordinates": [80.22645940770053, 13.0139397637957]}}, {"type": "Feature", "properties": {"route_name": "51M", "stop_id": "rRGVruPM", "name": "Raj Bhavan Quarters", "city": "CHENNAI"}, "geometry": {"type": "Point", "coordinates": [80.22517469844684, 13.010580746325664]}}, {"type": "Feature", "properties": {"route_name": "51M", "stop_id": "GpnhEWuy", "name": "Concorde or Chellammal College", "city": "CHENNAI"}, "geometry": {"type": "Point", "coordinates": [80.22194994, 13.01186343]}}, {"type": "Feature", "properties": {"route_name": "51M", "stop_id": "IESGsZGI", "name": "Chellammal College", "city": "CHENNAI"}, "geometry": {"type": "Point", "coordinates": [80.2196434894447, 13.011683086724165]}}, {"type": "Feature", "properties": {"route_name": "51M", "stop_id": "QDIpIlEK", "name": "Guindy Railway Station", "city": "CHENNAI"}, "geometry": {"type": "Point", "coordinates": [80.21333453957197, 13.008223468910234]}}, {"type": "Feature", "properties": {"route_name": "51M", "stop_id": "GiONHkbf", "name": "Maduvankarai", "city": "CHENNAI"}, "geometry": {"type": "Point", "coordinates": [80.21229393909084, 13.00458785205742]}}, {"type": "Feature", "properties": {"route_name": "51M", "stop_id": "aFxztqGh", "name": "NGO Colony", "city": "CHENNAI"}, "geometry": {"type": "Point", "coordinates": [80.20737574404961, 12.99833538927343]}}, {"type": "Feature", "properties": {"route_name": "51M", "stop_id": "EmOAXDjE", "name": "St Mount Ambedkar Satute", "city": "CHENNAI"}, "geometry": {"type": "Point", "coordinates": [80.20281737301639, 12.995017805978048]}}, {"type": "Feature", "properties": {"route_name": "51M", "stop_id": "ckoHNDVp", "name": "St Thomas Mount Railway Station", "city": "CHENNAI"}, "geometry": {"type": "Point", "coordinates": [80.20026958358562, 12.994378788270456]}}, {"type": "Feature", "properties": {"route_name": "51M", "stop_id": "TdXLhpcB", "name": "Adambakkam", "city": "CHENNAI"}, "geometry": {"type": "Point", "coordinates": [80.19846599111315, 12.990819105274795]}}, {"type": "Feature", "properties": {"route_name": "51M", "stop_id": "miDIXkTS", "name": "Surendhar Nagar", "city": "CHENNAI"}, "geometry": {"type": "Point", "coordinates": [80.19741377823311, 12.986653881143416]}}, {"type": "Feature", "properties": {"route_name": "51M", "stop_id": "EFeZyZmg", "name": "Balaji Nagar", "city": "CHENNAI"}, "geometry": {"type": "Point", "coordinates": [80.20396742050886, 12.978378124162576]}}, {"type": "Feature", "properties": {"route_name": "51M", "stop_id": "kXOxEoFm", "name": "Velachery Railway Station", "city": "CHENNAI"}, "geometry": {"type": "Point", "coordinates": [80.21757939902545, 12.967115010659157]}}, {"type": "Feature", "properties": {"route_name": "51M", "stop_id": "lRwVVbKf", "name": "Kaiveli", "city": "CHENNAI"}, "geometry": {"type": "Point", "coordinates": [80.21538161371087, 12.96362273388371]}}, {"type": "Feature", "properties": {"route_name": "51M", "stop_id": "gJicbLzN", "name": "AV Construction Or Srinivasa Nagar", "city": "CHENNAI"}, "geometry": {"type": "Point", "coordinates": [80.21162282178148, 12.964384918211636]}}, {"type": "Feature", "properties": {"route_name": "51M", "stop_id": "kNXaohyL", "name": "Raam Nagar", "city": "CHENNAI"}, "geometry": {"type": "Point", "coordinates": [80.20727791231548, 12.965179938123256]}}, {"type": "Feature", "properties": {"route_name": "51M", "stop_id": "nOepWjtB", "name": "Sadasivam Nagar", "city": "CHENNAI"}, "geometry": {"type": "Point", "coordinates": [80.20451058837773, 12.965583312049231]}}, {"type": "Feature", "properties": {"route_name": "51M", "stop_id": "zVMCvpDh", "name": "Ponniamman Kovil Road Junction", "city": "CHENNAI"}, "geometry": {"type": "Point", "coordinates": [80.19646618781678, 12.964795047043749]}}, {"type": "Feature", "properties": {"route_name": "51M", "stop_id": "sZfdycWC", "name": "Madipakkam Bus Stand", "city": "CHENNAI"}, "geometry": {"type": "Point", "coordinates": [80.19817323904795, 12.9629701469961]}}, {"type": "Feature", "properties": {"name": "51M"}, "geometry": {"type": "LineString", "coordinates": [[80.2305, 13.03363], [80.23081, 13.02989], [80.23097, 13.0283], [80.23104, 13.02766], [80.23105, 13.02764], [80.23113, 13.02762], [80.23174, 13.02771], [80.23281, 13.02796], [80.23295, 13.02704], [80.23306, 13.02657], [80.2326, 13.02635], [80.23215, 13.02622], [80.23142, 13.02604], [80.2314, 13.02603], [80.23072, 13.0258], [80.23035, 13.02564], [80.23017, 13.02553], [80.22903, 13.02461], [80.22835, 13.02408], [80.22809, 13.02386], [80.22772, 13.02352], [80.22722, 13.023], [80.22631, 13.02197], [80.22576, 13.02123], [80.22513, 13.02039], [80.22497, 13.02023], [80.22468, 13.01979], [80.22459, 13.01965], [80.22452, 13.01949], [80.22446, 13.01919], [80.22447, 13.01893], [80.22514, 13.01725], [80.22537, 13.01666], [80.22545, 13.01641], [80.22569, 13.01577], [80.22622, 13.01442], [80.22641, 13.01392], [80.22677, 13.01294], [80.22751, 13.01108], [80.22792, 13.01013], [80.22796, 13.00986], [80.22794, 13.00965], [80.22789, 13.00958], [80.22779, 13.00953], [80.22769, 13.00952], [80.22747, 13.00959], [80.22629, 13.01014], [80.22615, 13.01018], [80.22607, 13.01018], [80.22541, 13.0105], [80.22519, 13.01061], [80.22492, 13.01074], [80.22486, 13.01075], [80.22467, 13.01083], [80.22409, 13.01106], [80.22357, 13.01125], [80.22315, 13.01141], [80.22196, 13.0119], [80.22136, 13.01211], [80.22113, 13.01219], [80.22101, 13.01216], [80.22021, 13.01189], [80.21963, 13.01171], [80.21913, 13.01155], [80.21816, 13.01123], [80.21723, 13.01086], [80.21689, 13.01073], [80.21656, 13.01056], [80.21619, 13.01039], [80.21618, 13.01034], [80.21613, 13.01029], [80.21601, 13.01021], [80.2156, 13.01004], [80.21542, 13.00995], [80.21501, 13.00972], [80.21487, 13.00962], [80.21476, 13.00952], [80.21458, 13.00937], [80.21361, 13.00864], [80.21342, 13.00842], [80.21331, 13.00823], [80.21321, 13.00803], [80.21307, 13.00783], [80.21295, 13.0077], [80.21287, 13.00753], [80.21277, 13.00691], [80.21276, 13.0066], [80.21278, 13.00642], [80.2129, 13.00613], [80.21297, 13.00595], [80.21297, 13.00582], [80.21279, 13.00545], [80.21265, 13.00524], [80.21255, 13.00511], [80.21236, 13.00478], [80.2123, 13.00465], [80.21227, 13.0046], [80.2122, 13.00445], [80.21209, 13.00411], [80.21201, 13.00378], [80.21201, 13.00372], [80.21169, 13.00369], [80.21144, 13.00369], [80.21128, 13.00367], [80.21023, 13.00355], [80.20958, 13.00349], [80.20931, 13.00351], [80.20807, 13.00111], [80.20787, 13.00072], [80.20779, 13.00052], [80.20776, 13.0003], [80.20768, 12.99985], [80.20735, 12.99834], [80.20706, 12.9969], [80.20685, 12.99594], [80.20668, 12.99518], [80.20653, 12.99463], [80.20508, 12.99477], [80.20501, 12.99473], [80.20497, 12.9947], [80.2049, 12.99472], [80.20405, 12.99493], [80.20327, 12.99511], [80.20307, 12.99515], [80.20294, 12.99504], [80.20282, 12.99505], [80.20218, 12.99512], [80.20198, 12.99513], [80.2013, 12.99504], [80.2012, 12.99504], [80.20082, 12.99505], [80.20054, 12.99501], [80.2004, 12.99493], [80.2003, 12.99482], [80.20022, 12.99439], [80.20011, 12.99412], [80.19999, 12.99377], [80.19988, 12.99358], [80.19968, 12.99329], [80.19931, 12.99291], [80.19906, 12.99257], [80.19873, 12.99197], [80.19861, 12.9917], [80.19858, 12.9916], [80.19858, 12.99149], [80.19846, 12.99082], [80.19803, 12.98923], [80.19757, 12.98759], [80.19737, 12.98666], [80.19722, 12.98572], [80.19719, 12.9856], [80.19721, 12.98533], [80.19732, 12.98491], [80.19733, 12.98479], [80.1973, 12.98461], [80.19724, 12.98444], [80.19701, 12.98403], [80.19672, 12.98349], [80.19646, 12.98312], [80.19643, 12.98308], [80.19652, 12.98295], [80.19663, 12.9828], [80.19712, 12.98225], [80.19766, 12.98163], [80.19788, 12.98133], [80.19828, 12.98095], [80.19863, 12.98071], [80.19881, 12.98061], [80.19945, 12.98032], [80.20278, 12.97889], [80.20394, 12.97832], [80.20427, 12.97814], [80.20475, 12.97785], [80.2053, 12.97742], [80.20636, 12.97663], [80.20685, 12.97627], [80.20744, 12.97588], [80.20771, 12.97568], [80.20821, 12.97529], [80.20885, 12.97479], [80.20969, 12.9741], [80.21003, 12.97387], [80.21016, 12.9738], [80.21012, 12.97375], [80.20998, 12.9736], [80.21035, 12.97329], [80.21091, 12.97278], [80.21322, 12.97082], [80.21529, 12.96901], [80.21591, 12.9685], [80.21651, 12.96809], [80.21704, 12.96758], [80.21734, 12.96742], [80.21748, 12.96733], [80.21753, 12.96726], [80.21757, 12.96714], [80.21757, 12.96712], [80.2175, 12.96694], [80.21725, 12.96628], [80.21682, 12.96528], [80.21656, 12.96465], [80.21653, 12.9646], [80.21642, 12.96453], [80.21627, 12.96411], [80.21605, 12.9636], [80.21602, 12.96352], [80.21589, 12.96356], [80.21548, 12.96366], [80.2154, 12.96368], [80.21511, 12.96376], [80.21465, 12.96383], [80.21455, 12.96385], [80.21444, 12.9639], [80.21396, 12.96398], [80.21163, 12.96441], [80.21143, 12.96447], [80.21131, 12.96453], [80.21119, 12.96464], [80.21098, 12.96469], [80.21085, 12.96466], [80.20911, 12.96489], [80.20845, 12.965], [80.20728, 12.96521], [80.20627, 12.96539], [80.20624, 12.96528], [80.20451, 12.96557], [80.20372, 12.96574], [80.20313, 12.96578], [80.20227, 12.9658], [80.20189, 12.9658], [80.20186, 12.96579], [80.20181, 12.96568], [80.20176, 12.96545], [80.20173, 12.96538], [80.20169, 12.96535], [80.20161, 12.96532], [80.20145, 12.96531], [80.20101, 12.96539], [80.20097, 12.96543], [80.2006, 12.96549], [80.20026, 12.96554], [80.20011, 12.96556], [80.20003, 12.96511], [80.20002, 12.96507], [80.19997, 12.96501], [80.19987, 12.96498], [80.19971, 12.96499], [80.19955, 12.96499], [80.19942, 12.96495], [80.19923, 12.96483], [80.1985, 12.96488], [80.19809, 12.9648], [80.19647, 12.96484], [80.19612, 12.96484], [80.19611, 12.96465], [80.19606, 12.96403], [80.19606, 12.96397], [80.19615, 12.9639], [80.19672, 12.96351], [80.19677, 12.96348], [80.19733, 12.96331], [80.19786, 12.96316], [80.1981, 12.96309], [80.19808, 12.96299]]}}]}