{"type": "FeatureCollection", "features": [{"type": "Feature", "properties": {"route_name": "76", "stop_id": "lUWTaWkd", "name": "Medavakkam", "city": "CHENNAI"}, "geometry": {"type": "Point", "coordinates": [80.18190556301818, 12.919856467070181]}}, {"type": "Feature", "properties": {"route_name": "76", "stop_id": "vCxCuCVD", "name": "Vellaikal", "city": "CHENNAI"}, "geometry": {"type": "Point", "coordinates": [80.18150693472114, 12.93160235630512]}}, {"type": "Feature", "properties": {"route_name": "76", "stop_id": "qOusBBOu", "name": "Kovilambakkam", "city": "CHENNAI"}, "geometry": {"type": "Point", "coordinates": [80.18234107997591, 12.939135447577806]}}, {"type": "Feature", "properties": {"route_name": "76", "stop_id": "qXMrbZDt", "name": "Veeramani Nagar", "city": "CHENNAI"}, "geometry": {"type": "Point", "coordinates": [80.18289689402445, 12.944786570502494]}}, {"type": "Feature", "properties": {"route_name": "76", "stop_id": "rxopZurY", "name": "Echankadu", "city": "CHENNAI"}, "geometry": {"type": "Point", "coordinates": [80.18407956114129, 12.947037001156344]}}, {"type": "Feature", "properties": {"route_name": "76", "stop_id": "aQxdJxqw", "name": "Kilkattalai", "city": "CHENNAI"}, "geometry": {"type": "Point", "coordinates": [80.18681145175447, 12.956129051605334]}}, {"type": "Feature", "properties": {"route_name": "76", "stop_id": "NajoDNFv", "name": "Ganesh Nagar", "city": "CHENNAI"}, "geometry": {"type": "Point", "coordinates": [80.1872861843708, 12.961775145018628]}}, {"type": "Feature", "properties": {"route_name": "76", "stop_id": "TxpOiGNK", "name": "UTI Bank Or Madipakkam Road Junction", "city": "CHENNAI"}, "geometry": {"type": "Point", "coordinates": [80.18855291688942, 12.96601369819122]}}, {"type": "Feature", "properties": {"route_name": "76", "stop_id": "YXiYqIfc", "name": "Kumaran Theatre", "city": "CHENNAI"}, "geometry": {"type": "Point", "coordinates": [80.19126869583295, 12.972286696233828]}}, {"type": "Feature", "properties": {"route_name": "76", "stop_id": "qqkwAIGc", "name": "Ullagaram Oil Mill", "city": "CHENNAI"}, "geometry": {"type": "Point", "coordinates": [80.19323614526115, 12.976531214961813]}}, {"type": "Feature", "properties": {"route_name": "76", "stop_id": "HipgKeDY", "name": "Puzhuthivakkam", "city": "CHENNAI"}, "geometry": {"type": "Point", "coordinates": [80.19378705270788, 12.978172920165772]}}, {"type": "Feature", "properties": {"route_name": "76", "stop_id": "StyZBhjt", "name": "Vanuvambedu", "city": "CHENNAI"}, "geometry": {"type": "Point", "coordinates": [80.19530865531272, 12.981070958842583]}}, {"type": "Feature", "properties": {"route_name": "76", "stop_id": "PUsFNDSD", "name": "Thillai Ganga Nagar Main Road", "city": "CHENNAI"}, "geometry": {"type": "Point", "coordinates": [80.19422305769683, 12.991271225219053]}}, {"type": "Feature", "properties": {"route_name": "76", "stop_id": "ntDOQspU", "name": "St Thomas Mount Head Post Office", "city": "CHENNAI"}, "geometry": {"type": "Point", "coordinates": [80.19613333882285, 13.001852214423991]}}, {"type": "Feature", "properties": {"route_name": "76", "stop_id": "OpgRCgWV", "name": "Alandur Metro", "city": "CHENNAI"}, "geometry": {"type": "Point", "coordinates": [80.20073526, 13.0039722]}}, {"type": "Feature", "properties": {"route_name": "76", "stop_id": "GYfZYaJh", "name": "CIPET", "city": "CHENNAI"}, "geometry": {"type": "Point", "coordinates": [80.20444026800283, 13.014706135862825]}}, {"type": "Feature", "properties": {"route_name": "76", "stop_id": "EVAUYvVR", "name": "Ekkattuthangal Or Ambal Nagar", "city": "CHENNAI"}, "geometry": {"type": "Point", "coordinates": [80.20582408216478, 13.018424752637664]}}, {"type": "Feature", "properties": {"route_name": "76", "stop_id": "JKFFGKvY", "name": "Kalaimagal Nagar", "city": "CHENNAI"}, "geometry": {"type": "Point", "coordinates": [80.20665301393319, 13.024289041078701]}}, {"type": "Feature", "properties": {"route_name": "76", "stop_id": "zgCGmKZn", "name": "Kasi Theatre", "city": "CHENNAI"}, "geometry": {"type": "Point", "coordinates": [80.20868105992781, 13.029258560951842]}}, {"type": "Feature", "properties": {"route_name": "76", "stop_id": "aYSqaQmJ", "name": "KK Nagar Telephone Exchange Jaffarkhanpet", "city": "CHENNAI"}, "geometry": {"type": "Point", "coordinates": [80.20930784702523, 13.031641364014488]}}, {"type": "Feature", "properties": {"route_name": "76", "stop_id": "AmahvgQB", "name": "Udhayam Theatre Or Ashok Pillar", "city": "CHENNAI"}, "geometry": {"type": "Point", "coordinates": [80.21088471292683, 13.035133560218684]}}, {"type": "Feature", "properties": {"route_name": "76", "stop_id": "rJRvqICk", "name": "Ashok Nagar Canara Bank", "city": "CHENNAI"}, "geometry": {"type": "Point", "coordinates": [80.21219316985378, 13.039850542278995]}}, {"type": "Feature", "properties": {"route_name": "76", "stop_id": "CsDsDrdU", "name": "Vadapalani", "city": "CHENNAI"}, "geometry": {"type": "Point", "coordinates": [80.21209075756212, 13.047010729182706]}}, {"type": "Feature", "properties": {"route_name": "76", "stop_id": "dbPZeeiE", "name": "Thirunagar", "city": "CHENNAI"}, "geometry": {"type": "Point", "coordinates": [80.21129589617203, 13.057412967254244]}}, {"type": "Feature", "properties": {"route_name": "76", "stop_id": "LKVeVUNI", "name": "MMDA Colony Road Junction", "city": "CHENNAI"}, "geometry": {"type": "Point", "coordinates": [80.21088309688639, 13.065076031462795]}}, {"type": "Feature", "properties": {"route_name": "76", "stop_id": "BpAiVnps", "name": "CMBT Koyembedu Bus Depot", "city": "CHENNAI"}, "geometry": {"type": "Point", "coordinates": [80.20518932458458, 13.068981607807045]}}, {"type": "Feature", "properties": {"name": "76"}, "geometry": {"type": "LineString", "coordinates": [[80.18198, 12.91977], [80.18306, 12.92001], [80.18366, 12.92018], [80.18381, 12.92025], [80.18391, 12.92034], [80.18399, 12.92041], [80.18394, 12.92056], [80.18369, 12.92122], [80.18328, 12.92228], [80.18309, 12.92285], [80.18297, 12.92366], [80.18278, 12.92459], [80.18273, 12.92503], [80.18259, 12.92582], [80.18251, 12.92623], [80.18216, 12.92781], [80.1816, 12.93018], [80.18153, 12.93037], [80.18146, 12.93064], [80.18144, 12.93082], [80.18145, 12.93105], [80.18153, 12.93154], [80.18154, 12.9316], [80.18161, 12.93204], [80.18171, 12.93255], [80.18182, 12.93312], [80.18217, 12.93457], [80.18228, 12.93506], [80.18232, 12.93544], [80.18218, 12.93673], [80.18218, 12.93776], [80.1822, 12.93818], [80.1823, 12.93883], [80.18236, 12.93911], [80.18237, 12.93913], [80.1825, 12.93962], [80.18264, 12.9401], [80.1827, 12.94053], [80.18269, 12.94096], [80.18269, 12.94134], [80.18283, 12.94222], [80.18288, 12.94272], [80.1829, 12.94379], [80.18295, 12.94478], [80.18298, 12.94538], [80.183, 12.9455], [80.18306, 12.94565], [80.18338, 12.94606], [80.18368, 12.94638], [80.18385, 12.94668], [80.18412, 12.94701], [80.18463, 12.94769], [80.18483, 12.94797], [80.1849, 12.94809], [80.18508, 12.94856], [80.18524, 12.94907], [80.18559, 12.95016], [80.1862, 12.95202], [80.18643, 12.9528], [80.18653, 12.95356], [80.18673, 12.9549], [80.18678, 12.95564], [80.18685, 12.95612], [80.18693, 12.95692], [80.18698, 12.95769], [80.187, 12.95813], [80.18699, 12.95851], [80.18698, 12.95896], [80.187, 12.95916], [80.18712, 12.96032], [80.18718, 12.96078], [80.18726, 12.96135], [80.18732, 12.96177], [80.18744, 12.96241], [80.18752, 12.96274], [80.1876, 12.96311], [80.18763, 12.96334], [80.18769, 12.96356], [80.1878, 12.96394], [80.18786, 12.96416], [80.18797, 12.96447], [80.18806, 12.9647], [80.18816, 12.96491], [80.18825, 12.96517], [80.18844, 12.96565], [80.18857, 12.96598], [80.18858, 12.966], [80.18885, 12.96666], [80.18885, 12.96675], [80.1889, 12.96687], [80.18912, 12.9674], [80.18941, 12.96811], [80.18985, 12.96902], [80.19013, 12.96967], [80.19036, 12.97017], [80.19046, 12.97028], [80.19056, 12.97055], [80.19076, 12.97098], [80.19131, 12.97224], [80.19132, 12.97226], [80.19157, 12.97285], [80.1918, 12.97345], [80.19228, 12.97475], [80.19251, 12.97534], [80.19268, 12.97568], [80.19274, 12.97581], [80.1931, 12.97628], [80.19328, 12.9765], [80.19345, 12.97672], [80.19357, 12.97693], [80.19368, 12.97719], [80.19377, 12.97749], [80.1938, 12.97764], [80.19386, 12.97815], [80.19399, 12.97865], [80.19403, 12.97872], [80.19424, 12.97911], [80.1943, 12.97928], [80.1944, 12.97943], [80.19456, 12.97966], [80.19493, 12.98023], [80.19511, 12.98055], [80.19536, 12.98105], [80.19568, 12.98166], [80.1959, 12.98204], [80.19603, 12.98227], [80.19611, 12.98249], [80.19626, 12.98276], [80.1963, 12.98283], [80.19635, 12.98295], [80.1963, 12.98305], [80.1962, 12.98327], [80.19614, 12.98344], [80.19603, 12.98393], [80.19598, 12.98446], [80.19598, 12.98532], [80.19595, 12.98562], [80.19589, 12.98589], [80.19567, 12.98666], [80.19546, 12.98739], [80.19538, 12.98775], [80.19536, 12.98811], [80.19537, 12.98824], [80.19539, 12.9892], [80.1954, 12.98943], [80.19542, 12.99023], [80.19535, 12.99041], [80.19513, 12.9907], [80.19496, 12.99087], [80.1944, 12.99127], [80.19439, 12.99119], [80.19423, 12.99129], [80.19439, 12.99119], [80.1944, 12.99127], [80.19374, 12.99172], [80.1936, 12.99183], [80.19347, 12.99195], [80.19341, 12.99209], [80.19336, 12.9923], [80.1933, 12.99302], [80.1933, 12.99475], [80.19322, 12.99676], [80.19321, 12.99676], [80.19318, 12.99679], [80.19316, 12.99683], [80.19316, 12.99684], [80.1929, 12.99677], [80.1904, 12.99611], [80.18993, 12.99598], [80.18962, 12.99593], [80.1894, 12.99593], [80.18924, 12.99613], [80.18957, 12.99638], [80.19005, 12.99685], [80.19034, 12.99712], [80.19081, 12.99747], [80.19125, 12.99782], [80.19222, 12.99863], [80.19261, 12.99892], [80.19363, 12.99972], [80.19515, 13.0009], [80.19617, 13.00177], [80.19619, 13.00178], [80.19649, 13.00199], [80.19671, 13.00212], [80.19706, 13.00219], [80.19743, 13.00217], [80.19825, 13.00203], [80.19894, 13.00188], [80.19929, 13.00183], [80.19963, 13.00187], [80.19992, 13.00197], [80.20014, 13.0021], [80.20033, 13.00229], [80.20046, 13.00248], [80.20052, 13.00261], [80.20071, 13.00325], [80.20087, 13.00394], [80.20097, 13.00432], [80.20112, 13.00476], [80.20124, 13.00502], [80.20147, 13.00527], [80.20169, 13.00552], [80.20192, 13.0057], [80.20216, 13.00585], [80.20245, 13.00599], [80.20269, 13.00613], [80.2029, 13.00633], [80.20313, 13.0066], [80.20334, 13.00692], [80.20347, 13.00718], [80.20357, 13.00749], [80.20365, 13.00786], [80.20366, 13.00816], [80.20361, 13.00888], [80.20356, 13.00987], [80.20356, 13.01038], [80.20358, 13.01085], [80.20368, 13.01174], [80.20387, 13.01259], [80.20391, 13.01289], [80.20395, 13.01304], [80.2042, 13.01379], [80.2045, 13.01456], [80.20442, 13.01462], [80.20438, 13.01466], [80.20451, 13.01466], [80.20578, 13.01831], [80.2059, 13.0184], [80.20612, 13.01909], [80.20621, 13.01946], [80.20624, 13.01967], [80.20629, 13.02093], [80.2063, 13.02194], [80.20632, 13.0224], [80.20655, 13.02366], [80.20669, 13.02428], [80.2069, 13.02516], [80.20699, 13.02552], [80.20706, 13.02568], [80.2072, 13.02601], [80.20761, 13.02672], [80.20801, 13.02736], [80.20824, 13.02773], [80.20837, 13.02806], [80.20872, 13.02925], [80.20898, 13.03021], [80.20933, 13.03139], [80.2094, 13.03161], [80.20956, 13.03222], [80.20972, 13.03322], [80.20984, 13.03384], [80.20991, 13.03404], [80.20997, 13.03448], [80.21002, 13.03483], [80.21022, 13.03499], [80.21031, 13.03503], [80.21049, 13.03502], [80.21087, 13.03499], [80.21092, 13.03507], [80.21099, 13.03509], [80.2111, 13.03509], [80.2112, 13.03507], [80.21133, 13.03498], [80.21139, 13.03493], [80.21144, 13.03493], [80.2119, 13.03492], [80.21205, 13.03494], [80.21214, 13.03501], [80.21221, 13.03562], [80.21228, 13.03744], [80.21228, 13.038], [80.21224, 13.03985], [80.21222, 13.04203], [80.21221, 13.04477], [80.21214, 13.04701], [80.21215, 13.04701], [80.21208, 13.04787], [80.21205, 13.04818], [80.21207, 13.04835], [80.21204, 13.04895], [80.21202, 13.04925], [80.21201, 13.0497], [80.21203, 13.05015], [80.21209, 13.05096], [80.21211, 13.05159], [80.21209, 13.05188], [80.21204, 13.05212], [80.21196, 13.05246], [80.21193, 13.05251], [80.21186, 13.0526], [80.21179, 13.05289], [80.2115, 13.0539], [80.21139, 13.05451], [80.21137, 13.05477], [80.21139, 13.05591], [80.21141, 13.05657], [80.21139, 13.05722], [80.21139, 13.05741], [80.21141, 13.05802], [80.21142, 13.05879], [80.21151, 13.06072], [80.21154, 13.06162], [80.21155, 13.06199], [80.21154, 13.0625], [80.21151, 13.06302], [80.21142, 13.06408], [80.21126, 13.06458], [80.211, 13.06507], [80.21097, 13.06513], [80.21049, 13.06577], [80.20956, 13.06682], [80.20805, 13.06776], [80.2057, 13.06931], [80.20546, 13.06911], [80.20545, 13.06891], [80.20545, 13.06875], [80.20516, 13.06877]]}}]}