{"type": "FeatureCollection", "features": [{"type": "Feature", "properties": {"route_name": "515", "stop_id": "pjLoLNOl", "name": "Mamallapuram", "city": "CHENNAI"}, "geometry": {"type": "Point", "coordinates": [80.19397784435421, 12.617352144818623]}}, {"type": "Feature", "properties": {"route_name": "515", "stop_id": "JpVXpSar", "name": "Mandapam", "city": "CHENNAI"}, "geometry": {"type": "Point", "coordinates": [80.19322723716346, 12.620142571851193]}}, {"type": "Feature", "properties": {"route_name": "515", "stop_id": "TFYkWDkw", "name": "Poonjeri Government Hospital", "city": "CHENNAI"}, "geometry": {"type": "Point", "coordinates": [80.18018439789324, 12.61898581155963]}}, {"type": "Feature", "properties": {"route_name": "515", "stop_id": "vBjvcVSA", "name": "Poonjeri", "city": "CHENNAI"}, "geometry": {"type": "Point", "coordinates": [80.1753708959285, 12.616837959910297]}}, {"type": "Feature", "properties": {"route_name": "515", "stop_id": "sJpWePxb", "name": "Poonjeri Koot Road", "city": "CHENNAI"}, "geometry": {"type": "Point", "coordinates": [80.17210250792027, 12.614785534388966]}}, {"type": "Feature", "properties": {"route_name": "515", "stop_id": "eeUAfDeR", "name": "Savadi", "city": "CHENNAI"}, "geometry": {"type": "Point", "coordinates": [80.17124881477014, 12.626020941601501]}}, {"type": "Feature", "properties": {"route_name": "515", "stop_id": "aLhLfQkP", "name": "Koothavakkam School", "city": "CHENNAI"}, "geometry": {"type": "Point", "coordinates": [80.17208994257838, 12.631298836005678]}}, {"type": "Feature", "properties": {"route_name": "515", "stop_id": "sXTxOtpY", "name": "Payyanur", "city": "CHENNAI"}, "geometry": {"type": "Point", "coordinates": [80.1729706759121, 12.641424167085056]}}, {"type": "Feature", "properties": {"route_name": "515", "stop_id": "gjjwmxRV", "name": "Payyanur Rice Mill", "city": "CHENNAI"}, "geometry": {"type": "Point", "coordinates": [80.17436758648846, 12.6477222760809]}}, {"type": "Feature", "properties": {"route_name": "515", "stop_id": "VvfGvRfV", "name": "Avit College Payyanur", "city": "CHENNAI"}, "geometry": {"type": "Point", "coordinates": [80.17640920460667, 12.65671298246757]}}, {"type": "Feature", "properties": {"route_name": "515", "stop_id": "ZbBLjsKS", "name": "Pandithamedu Village", "city": "CHENNAI"}, "geometry": {"type": "Point", "coordinates": [80.17751458874966, 12.663841923383787]}}, {"type": "Feature", "properties": {"route_name": "515", "stop_id": "qoKVVYVH", "name": "Alathur Colony", "city": "CHENNAI"}, "geometry": {"type": "Point", "coordinates": [80.18038200875208, 12.691245703945386]}}, {"type": "Feature", "properties": {"route_name": "515", "stop_id": "wJsysHnP", "name": "Sidco Industrial Estate Alathur", "city": "CHENNAI"}, "geometry": {"type": "Point", "coordinates": [80.1811289721428, 12.694473355307704]}}, {"type": "Feature", "properties": {"route_name": "515", "stop_id": "MZocsETE", "name": "Thandalam", "city": "CHENNAI"}, "geometry": {"type": "Point", "coordinates": [80.18776327826424, 12.715503605333232]}}, {"type": "Feature", "properties": {"route_name": "515", "stop_id": "mAREpQlu", "name": "Thiruporur Bus Stand", "city": "CHENNAI"}, "geometry": {"type": "Point", "coordinates": [80.18725535471185, 12.722137179764035]}}, {"type": "Feature", "properties": {"route_name": "515", "stop_id": "pkAaqtnD", "name": "Kandhaswami Temple Tank Thiruporur", "city": "CHENNAI"}, "geometry": {"type": "Point", "coordinates": [80.18789604034373, 12.724598357742186]}}, {"type": "Feature", "properties": {"route_name": "515", "stop_id": "HJijptKA", "name": "Thiruporur Kovil", "city": "CHENNAI"}, "geometry": {"type": "Point", "coordinates": [80.18895353175196, 12.729914446503047]}}, {"type": "Feature", "properties": {"route_name": "515", "stop_id": "lRwzpFEA", "name": "Thiruporur Or Kannagapattu", "city": "CHENNAI"}, "geometry": {"type": "Point", "coordinates": [80.19038615893464, 12.736224572940568]}}, {"type": "Feature", "properties": {"route_name": "515", "stop_id": "EWoqQawU", "name": "Kalavakkam", "city": "CHENNAI"}, "geometry": {"type": "Point", "coordinates": [80.19727762935008, 12.741861009717345]}}, {"type": "Feature", "properties": {"route_name": "515", "stop_id": "tnRCfdJr", "name": "Kalavakkam School", "city": "CHENNAI"}, "geometry": {"type": "Point", "coordinates": [80.20025127119561, 12.744334781934427]}}, {"type": "Feature", "properties": {"route_name": "515", "stop_id": "LlpMjrks", "name": "SSN College", "city": "CHENNAI"}, "geometry": {"type": "Point", "coordinates": [80.20411860503397, 12.751436949935604]}}, {"type": "Feature", "properties": {"route_name": "515", "stop_id": "oeTroIck", "name": "Koman Nagar Road Junction", "city": "CHENNAI"}, "geometry": {"type": "Point", "coordinates": [80.20719366361891, 12.75696238963906]}}, {"type": "Feature", "properties": {"route_name": "515", "stop_id": "BsovYeFI", "name": "Vijaya Shanthi Lotus Pond", "city": "CHENNAI"}, "geometry": {"type": "Point", "coordinates": [80.2088683625085, 12.760142566383951]}}, {"type": "Feature", "properties": {"route_name": "515", "stop_id": "azqUKhQu", "name": "Chenganmal Road Junction", "city": "CHENNAI"}, "geometry": {"type": "Point", "coordinates": [80.2130667848553, 12.770894116705879]}}, {"type": "Feature", "properties": {"route_name": "515", "stop_id": "hvwrhWFk", "name": "Elavanthangal", "city": "CHENNAI"}, "geometry": {"type": "Point", "coordinates": [80.21723455470939, 12.780641000718918]}}, {"type": "Feature", "properties": {"route_name": "515", "stop_id": "uxBjVsKf", "name": "Kelambakkmm Police Station", "city": "CHENNAI"}, "geometry": {"type": "Point", "coordinates": [80.21990367384092, 12.785399610431222]}}, {"type": "Feature", "properties": {"route_name": "515", "stop_id": "ngtiheSM", "name": "Kelambakkmm General Hospital", "city": "CHENNAI"}, "geometry": {"type": "Point", "coordinates": [80.22043933846362, 12.786694812130275]}}, {"type": "Feature", "properties": {"route_name": "515", "stop_id": "rPcYYZtd", "name": "AP Super Market", "city": "CHENNAI"}, "geometry": {"type": "Point", "coordinates": [80.22132770552253, 12.789027384331868]}}, {"type": "Feature", "properties": {"route_name": "515", "stop_id": "zBPHjWVd", "name": "Samiyar Pannai", "city": "CHENNAI"}, "geometry": {"type": "Point", "coordinates": [80.22083885104882, 12.79003563636055]}}, {"type": "Feature", "properties": {"route_name": "515", "stop_id": "aNlaxeLS", "name": "Butterfly Company", "city": "CHENNAI"}, "geometry": {"type": "Point", "coordinates": [80.21738308935414, 12.79205911136289]}}, {"type": "Feature", "properties": {"route_name": "515", "stop_id": "ZecyfkGE", "name": "Pudupakkam", "city": "CHENNAI"}, "geometry": {"type": "Point", "coordinates": [80.1978178323252, 12.799572651487257]}}, {"type": "Feature", "properties": {"route_name": "515", "stop_id": "pFQacbfu", "name": "Anjaneyar Temple Pudupakkam", "city": "CHENNAI"}, "geometry": {"type": "Point", "coordinates": [80.18932639380637, 12.806008513614833]}}, {"type": "Feature", "properties": {"route_name": "515", "stop_id": "AOtPxxNt", "name": "Military Camp Mambakkam", "city": "CHENNAI"}, "geometry": {"type": "Point", "coordinates": [80.18629871103985, 12.80859623287557]}}, {"type": "Feature", "properties": {"route_name": "515", "stop_id": "pzScocJN", "name": "Mambakkam", "city": "CHENNAI"}, "geometry": {"type": "Point", "coordinates": [80.16493040472426, 12.827623874040325]}}, {"type": "Feature", "properties": {"route_name": "515", "stop_id": "khOlLZay", "name": "Samathuvapuram", "city": "CHENNAI"}, "geometry": {"type": "Point", "coordinates": [80.15947302250481, 12.832542096449574]}}, {"type": "Feature", "properties": {"route_name": "515", "stop_id": "CDXhVrrJ", "name": "Keelakottaiyur Or Malrosapuram", "city": "CHENNAI"}, "geometry": {"type": "Point", "coordinates": [80.15519815062589, 12.837350766407658]}}, {"type": "Feature", "properties": {"route_name": "515", "stop_id": "YYKDBDRS", "name": "VIT University", "city": "CHENNAI"}, "geometry": {"type": "Point", "coordinates": [80.15279584850396, 12.840095119529478]}}, {"type": "Feature", "properties": {"route_name": "515", "stop_id": "yHCBRtBd", "name": "Melakottaiyur", "city": "CHENNAI"}, "geometry": {"type": "Point", "coordinates": [80.1488387323277, 12.845664691060307]}}, {"type": "Feature", "properties": {"route_name": "515", "stop_id": "xnXFAboh", "name": "Kandigai", "city": "CHENNAI"}, "geometry": {"type": "Point", "coordinates": [80.14014813888787, 12.851216081007852]}}, {"type": "Feature", "properties": {"route_name": "515", "stop_id": "NTCwKKsF", "name": "Rathinamangalam", "city": "CHENNAI"}, "geometry": {"type": "Point", "coordinates": [80.13365248841797, 12.857924696847444]}}, {"type": "Feature", "properties": {"route_name": "515", "stop_id": "JKUqFAhf", "name": "Tagore Engineering College Rathinamangalam", "city": "CHENNAI"}, "geometry": {"type": "Point", "coordinates": [80.13089720370908, 12.860797972628758]}}, {"type": "Feature", "properties": {"route_name": "515", "stop_id": "tkWZZFES", "name": "Vengambakkam Road Junction", "city": "CHENNAI"}, "geometry": {"type": "Point", "coordinates": [80.12683210566877, 12.862697082803901]}}, {"type": "Feature", "properties": {"route_name": "515", "stop_id": "UTnQirag", "name": "Ramanujar Engg College Or Balaji Plytechnic", "city": "CHENNAI"}, "geometry": {"type": "Point", "coordinates": [80.11550883663176, 12.86712163562261]}}, {"type": "Feature", "properties": {"route_name": "515", "stop_id": "GpOUDfXM", "name": "Kolapakkam Junction", "city": "CHENNAI"}, "geometry": {"type": "Point", "coordinates": [80.10696539721903, 12.870413402356698]}}, {"type": "Feature", "properties": {"route_name": "515", "stop_id": "lOyAoICg", "name": "Anna Nagar Colony", "city": "CHENNAI"}, "geometry": {"type": "Point", "coordinates": [80.10180777627977, 12.871382151064015]}}, {"type": "Feature", "properties": {"route_name": "515", "stop_id": "CbcrfuAf", "name": "Vandalur Zoo", "city": "CHENNAI"}, "geometry": {"type": "Point", "coordinates": [80.08058627698756, 12.88094584155778]}}, {"type": "Feature", "properties": {"route_name": "515", "stop_id": "gGkadTNm", "name": "Vandalur Gate", "city": "CHENNAI"}, "geometry": {"type": "Point", "coordinates": [80.0861980335012, 12.89323631083488]}}, {"type": "Feature", "properties": {"route_name": "515", "stop_id": "RyPegcUV", "name": "Iraniyamman Koil", "city": "CHENNAI"}, "geometry": {"type": "Point", "coordinates": [80.08932019596341, 12.897432906791021]}}, {"type": "Feature", "properties": {"route_name": "515", "stop_id": "qPtpgxic", "name": "Perungalattur", "city": "CHENNAI"}, "geometry": {"type": "Point", "coordinates": [80.09617808374855, 12.906468063975968]}}, {"type": "Feature", "properties": {"route_name": "515", "stop_id": "KzCxlBoL", "name": "Perungalatgur Lake View Stop", "city": "CHENNAI"}, "geometry": {"type": "Point", "coordinates": [80.09829410933969, 12.909055141933235]}}, {"type": "Feature", "properties": {"route_name": "515", "stop_id": "SEVBrkvc", "name": "Irumbuliyur", "city": "CHENNAI"}, "geometry": {"type": "Point", "coordinates": [80.1058340174651, 12.916500866623101]}}, {"type": "Feature", "properties": {"route_name": "515", "stop_id": "ojqTFFWy", "name": "Tambaram West Bus Stand", "city": "CHENNAI"}, "geometry": {"type": "Point", "coordinates": [80.11862628452741, 12.927652178598898]}}, {"type": "Feature", "properties": {"name": "515"}, "geometry": {"type": "LineString", "coordinates": [[80.194, 12.61735], [80.19405, 12.61767], [80.19285, 12.61787], [80.19304, 12.61895], [80.19324, 12.62014], [80.19331, 12.62077], [80.19283, 12.62088], [80.19218, 12.62083], [80.19147, 12.6207], [80.19005, 12.62104], [80.18863, 12.62122], [80.18757, 12.62106], [80.18588, 12.62065], [80.18196, 12.61945], [80.18032, 12.61916], [80.18018, 12.619], [80.17942, 12.61874], [80.17909, 12.61864], [80.17895, 12.61861], [80.17855, 12.61841], [80.17789, 12.61813], [80.17747, 12.618], [80.17727, 12.61798], [80.17709, 12.61792], [80.17686, 12.61785], [80.17625, 12.61747], [80.17532, 12.6169], [80.17535, 12.61687], [80.1743, 12.61616], [80.17309, 12.61531], [80.17258, 12.615], [80.17245, 12.61494], [80.17209, 12.61483], [80.17175, 12.61476], [80.17134, 12.61473], [80.17091, 12.61472], [80.16979, 12.61478], [80.16967, 12.61477], [80.16977, 12.61531], [80.16994, 12.61606], [80.16994, 12.61658], [80.16989, 12.61687], [80.16979, 12.61722], [80.16973, 12.61735], [80.16961, 12.61781], [80.16947, 12.6183], [80.1694, 12.61863], [80.16939, 12.61891], [80.16944, 12.61938], [80.16949, 12.61974], [80.16955, 12.62023], [80.16967, 12.62086], [80.16981, 12.62133], [80.17018, 12.62226], [80.17024, 12.62248], [80.17079, 12.62471], [80.17087, 12.62498], [80.17125, 12.62598], [80.17126, 12.626], [80.17165, 12.62699], [80.17178, 12.62739], [80.17199, 12.62863], [80.17214, 12.62969], [80.17215, 12.62999], [80.17213, 12.63071], [80.17211, 12.6313], [80.17205, 12.63318], [80.17192, 12.63454], [80.17178, 12.63582], [80.17178, 12.63614], [80.17187, 12.63826], [80.17192, 12.6389], [80.17199, 12.63938], [80.17208, 12.63987], [80.17218, 12.64013], [80.1724, 12.64052], [80.1726, 12.64085], [80.173, 12.64137], [80.17302, 12.64139], [80.17318, 12.64162], [80.17343, 12.64202], [80.17373, 12.64256], [80.17403, 12.64317], [80.17417, 12.64357], [80.17433, 12.64462], [80.1744, 12.64521], [80.17442, 12.64592], [80.17435, 12.64664], [80.17433, 12.64684], [80.17434, 12.64721], [80.17438, 12.64741], [80.17438, 12.64762], [80.17439, 12.64772], [80.17443, 12.64807], [80.1745, 12.64851], [80.17458, 12.64876], [80.17481, 12.6492], [80.17486, 12.64936], [80.17541, 12.65031], [80.17554, 12.65065], [80.17567, 12.65118], [80.17605, 12.65374], [80.17638, 12.65612], [80.17646, 12.65671], [80.17755, 12.66384], [80.17814, 12.66769], [80.17842, 12.66957], [80.17857, 12.67093], [80.17873, 12.6729], [80.17882, 12.67419], [80.17915, 12.68145], [80.17921, 12.68305], [80.17933, 12.68408], [80.17955, 12.6855], [80.17982, 12.68741], [80.17996, 12.68985], [80.18006, 12.69033], [80.18026, 12.69088], [80.18036, 12.69111], [80.18042, 12.69123], [80.18056, 12.69154], [80.18065, 12.69189], [80.18073, 12.69254], [80.18082, 12.69329], [80.18092, 12.6938], [80.18097, 12.69399], [80.18103, 12.6941], [80.18113, 12.69434], [80.18117, 12.69446], [80.18126, 12.69477], [80.18141, 12.69516], [80.18252, 12.69811], [80.18285, 12.69899], [80.18295, 12.69937], [80.18326, 12.70155], [80.18345, 12.7025], [80.18348, 12.70288], [80.18349, 12.70355], [80.18355, 12.70437], [80.18371, 12.70491], [80.18393, 12.70553], [80.18416, 12.70604], [80.18437, 12.7064], [80.18532, 12.7079], [80.18577, 12.70868], [80.18585, 12.70891], [80.18591, 12.70921], [80.18606, 12.71053], [80.18616, 12.71136], [80.18621, 12.71165], [80.18632, 12.71195], [80.18637, 12.71206], [80.18643, 12.71213], [80.18644, 12.71213], [80.1866, 12.71241], [80.1868, 12.71267], [80.18694, 12.71299], [80.18722, 12.71388], [80.18757, 12.71487], [80.1878, 12.71549], [80.18783, 12.71558], [80.18784, 12.7157], [80.18793, 12.716], [80.18807, 12.71648], [80.18834, 12.71709], [80.1885, 12.71756], [80.18864, 12.71807], [80.18866, 12.71819], [80.18864, 12.71835], [80.18857, 12.7185], [80.18836, 12.71878], [80.18755, 12.71981], [80.18715, 12.72035], [80.18714, 12.72041], [80.187, 12.72059], [80.18696, 12.7207], [80.18693, 12.72094], [80.18694, 12.72106], [80.18708, 12.72145], [80.18728, 12.72213], [80.18775, 12.72387], [80.18786, 12.72431], [80.18791, 12.7246], [80.18801, 12.72514], [80.18817, 12.72624], [80.18836, 12.7271], [80.18854, 12.72782], [80.18869, 12.72815], [80.18882, 12.7286], [80.18892, 12.72895], [80.18891, 12.72928], [80.18894, 12.72974], [80.18894, 12.7299], [80.18899, 12.72991], [80.18911, 12.73093], [80.18918, 12.7317], [80.18927, 12.73212], [80.1894, 12.73275], [80.1894, 12.73297], [80.18941, 12.73314], [80.18948, 12.73396], [80.18955, 12.73474], [80.18965, 12.73511], [80.18971, 12.73528], [80.18992, 12.73567], [80.1901, 12.73588], [80.19029, 12.73607], [80.19042, 12.7362], [80.19233, 12.73813], [80.19286, 12.73862], [80.19422, 12.73962], [80.19731, 12.74182], [80.19762, 12.74204], [80.19818, 12.74249], [80.19991, 12.744], [80.20026, 12.74432], [80.20042, 12.74447], [80.20076, 12.74484], [80.20099, 12.74518], [80.2012, 12.74555], [80.2019, 12.74689], [80.20322, 12.74945], [80.20418, 12.75131], [80.20422, 12.7514], [80.20571, 12.75422], [80.20719, 12.7569], [80.20721, 12.75695], [80.20891, 12.76012], [80.20945, 12.76112], [80.21025, 12.76296], [80.21056, 12.76376], [80.21126, 12.76567], [80.21219, 12.76825], [80.21309, 12.77088], [80.2131, 12.77088], [80.21383, 12.77292], [80.21503, 12.77598], [80.21556, 12.77719], [80.2159, 12.77804], [80.2166, 12.77943], [80.21724, 12.78061], [80.21725, 12.78063], [80.21858, 12.7831], [80.21881, 12.78344], [80.21898, 12.78371], [80.21944, 12.78459], [80.21953, 12.78473], [80.21991, 12.78538], [80.22011, 12.78576], [80.2202, 12.78607], [80.22028, 12.78623], [80.22046, 12.78669], [80.22065, 12.78717], [80.22094, 12.78794], [80.22135, 12.78902], [80.22155, 12.78961], [80.22139, 12.78972], [80.22086, 12.79006], [80.21878, 12.79131], [80.21739, 12.79208], [80.21741, 12.79211], [80.21711, 12.79224], [80.21672, 12.79238], [80.21567, 12.79262], [80.21536, 12.79267], [80.21529, 12.79269], [80.21415, 12.79296], [80.21234, 12.79337], [80.21113, 12.79364], [80.21043, 12.79382], [80.20966, 12.79413], [80.20638, 12.79555], [80.20567, 12.79586], [80.20468, 12.79632], [80.20113, 12.79785], [80.19954, 12.79854], [80.19933, 12.79865], [80.1988, 12.79897], [80.19785, 12.79962], [80.197, 12.80024], [80.19511, 12.80156], [80.19195, 12.80378], [80.1912, 12.80434], [80.1895, 12.8059], [80.18935, 12.80604], [80.18751, 12.80761], [80.1863, 12.80863], [80.18161, 12.81263], [80.18064, 12.81346], [80.1799, 12.81413], [80.17832, 12.81555], [80.17315, 12.82023], [80.17003, 12.82307], [80.16671, 12.82606], [80.16496, 12.82765], [80.1616, 12.83069], [80.15949, 12.83256], [80.15837, 12.83356], [80.15717, 12.83466], [80.15582, 12.83589], [80.15549, 12.83624], [80.15539, 12.83642], [80.15533, 12.8366], [80.15527, 12.83698], [80.15522, 12.83735], [80.15513, 12.83761], [80.15504, 12.83779], [80.15485, 12.83805], [80.15422, 12.83872], [80.15293, 12.84008], [80.15286, 12.84015], [80.15239, 12.84064], [80.1516, 12.84148], [80.15115, 12.84197], [80.15024, 12.84296], [80.14995, 12.84327], [80.14974, 12.84352], [80.14962, 12.84371], [80.14951, 12.84394], [80.14946, 12.84406], [80.14932, 12.84437], [80.14911, 12.84495], [80.14887, 12.84567], [80.14876, 12.84588], [80.1486, 12.84601], [80.14844, 12.84608], [80.14819, 12.84616], [80.147, 12.84649], [80.14669, 12.84659], [80.14644, 12.8467], [80.14484, 12.84759], [80.1437, 12.84826], [80.14288, 12.84878], [80.14212, 12.84928], [80.14169, 12.84966], [80.14105, 12.85032], [80.14021, 12.85121], [80.14017, 12.85124], [80.13966, 12.85175], [80.13834, 12.8531], [80.13603, 12.8555], [80.13462, 12.85698], [80.13373, 12.8579], [80.13368, 12.85795], [80.13091, 12.86081], [80.13051, 12.86118], [80.1301, 12.86142], [80.1293, 12.86178], [80.12882, 12.86196], [80.12685, 12.86273], [80.11972, 12.8655], [80.1162, 12.86688], [80.11552, 12.86715], [80.11372, 12.86787], [80.11326, 12.86807], [80.11269, 12.86829], [80.11139, 12.86884], [80.11078, 12.86908], [80.10919, 12.86975], [80.10805, 12.8702], [80.1074, 12.87037], [80.10697, 12.87045], [80.10548, 12.87075], [80.10392, 12.87106], [80.10185, 12.8714], [80.10181, 12.8714], [80.10091, 12.87157], [80.09824, 12.87192], [80.09714, 12.87207], [80.09627, 12.87218], [80.09591, 12.8723], [80.09432, 12.87288], [80.09055, 12.87429], [80.08971, 12.8746], [80.08913, 12.87485], [80.08877, 12.87504], [80.08856, 12.87517], [80.08782, 12.87568], [80.08675, 12.87642], [80.08612, 12.87686], [80.08587, 12.87701], [80.08551, 12.87717], [80.08469, 12.8775], [80.08165, 12.87859], [80.08059, 12.87898], [80.08027, 12.87906], [80.07992, 12.8792], [80.08019, 12.87989], [80.08056, 12.88078], [80.08062, 12.88094], [80.08075, 12.88127], [80.08085, 12.88141], [80.08105, 12.8817], [80.08128, 12.88226], [80.08151, 12.88288], [80.08218, 12.88456], [80.08279, 12.88596], [80.08351, 12.88769], [80.08459, 12.89039], [80.08494, 12.89116], [80.0852, 12.89167], [80.08566, 12.89247], [80.08582, 12.89269], [80.08623, 12.89322], [80.08686, 12.89408], [80.08933, 12.89738], [80.08935, 12.89741], [80.09299, 12.90224], [80.09363, 12.9031], [80.09455, 12.90427], [80.09536, 12.90537], [80.0959, 12.90607], [80.0962, 12.90645], [80.09738, 12.90803], [80.0979, 12.90866], [80.09822, 12.90892], [80.09833, 12.90901], [80.09875, 12.90932], [80.09972, 12.9099], [80.10035, 12.91027], [80.10062, 12.91048], [80.10084, 12.9107], [80.10103, 12.91099], [80.10117, 12.91127], [80.10123, 12.91151], [80.10132, 12.91205], [80.10141, 12.91295], [80.10148, 12.91356], [80.1015, 12.91384], [80.10154, 12.91398], [80.10166, 12.91436], [80.10181, 12.91467], [80.10204, 12.91499], [80.10231, 12.91524], [80.10265, 12.91547], [80.1029, 12.91557], [80.10339, 12.91568], [80.10417, 12.91577], [80.10446, 12.91584], [80.10449, 12.91587], [80.10487, 12.91596], [80.10513, 12.91606], [80.10578, 12.91639], [80.10587, 12.91644], [80.10714, 12.91709], [80.1077, 12.91744], [80.10831, 12.91793], [80.10923, 12.91866], [80.10963, 12.919], [80.11048, 12.91963], [80.11101, 12.92007], [80.1123, 12.9213], [80.11312, 12.92212], [80.11392, 12.92287], [80.11423, 12.9232], [80.11555, 12.92452], [80.11736, 12.92628], [80.11742, 12.92636], [80.11778, 12.92677], [80.11805, 12.92704], [80.11867, 12.92761]]}}]}