{"type": "FeatureCollection", "features": [{"type": "Feature", "properties": {"route_name": "88KET", "stop_id": "EkWBPXmr", "name": "Broadway", "city": "CHENNAI"}, "geometry": {"type": "Point", "coordinates": [80.28388983, 13.08820568]}}, {"type": "Feature", "properties": {"route_name": "88KET", "stop_id": "zVYhNTdK", "name": "Flower Bazzar", "city": "CHENNAI"}, "geometry": {"type": "Point", "coordinates": [80.28141873, 13.08750696]}}, {"type": "Feature", "properties": {"route_name": "88KET", "stop_id": "xbiDwIOu", "name": "Payaigada Evening Bazar", "city": "CHENNAI"}, "geometry": {"type": "Point", "coordinates": [80.28017343, 13.08554921]}}, {"type": "Feature", "properties": {"route_name": "88KET", "stop_id": "TShNRujB", "name": "Mgr Central Station Or Rajiv Gandhi Government General Hospital", "city": "CHENNAI"}, "geometry": {"type": "Point", "coordinates": [80.27666299527485, 13.081750493356726]}}, {"type": "Feature", "properties": {"route_name": "88KET", "stop_id": "hxSTJhOz", "name": "Pallavan Salai", "city": "CHENNAI"}, "geometry": {"type": "Point", "coordinates": [80.27638522507527, 13.075417794179309]}}, {"type": "Feature", "properties": {"route_name": "88KET", "stop_id": "rDSiGFpR", "name": "Simson Or Periyar Bridge", "city": "CHENNAI"}, "geometry": {"type": "Point", "coordinates": [80.27388174341809, 13.070529313285379]}}, {"type": "Feature", "properties": {"route_name": "88KET", "stop_id": "LbKosGpD", "name": "Shanthi Theatre", "city": "CHENNAI"}, "geometry": {"type": "Point", "coordinates": [80.27047620448093, 13.067231830340535]}}, {"type": "Feature", "properties": {"route_name": "88KET", "stop_id": "NBopaFdP", "name": "Lic", "city": "CHENNAI"}, "geometry": {"type": "Point", "coordinates": [80.2663441938297, 13.06467874213801]}}, {"type": "Feature", "properties": {"route_name": "88KET", "stop_id": "mHRdWDIt", "name": "Spensor Plaza TVS", "city": "CHENNAI"}, "geometry": {"type": "Point", "coordinates": [80.2599162395787, 13.059476027356299]}}, {"type": "Feature", "properties": {"route_name": "88KET", "stop_id": "XFLojCJa", "name": "Anand Theatre", "city": "CHENNAI"}, "geometry": {"type": "Point", "coordinates": [80.25718621, 13.05641246]}}, {"type": "Feature", "properties": {"route_name": "88KET", "stop_id": "qpacHTVx", "name": "Church Park School", "city": "CHENNAI"}, "geometry": {"type": "Point", "coordinates": [80.25381812534101, 13.054320507629198]}}, {"type": "Feature", "properties": {"route_name": "88KET", "stop_id": "cPCRxZjy", "name": "Thousand light Or U S Embassy", "city": "CHENNAI"}, "geometry": {"type": "Point", "coordinates": [80.25297039129896, 13.053612965708266]}}, {"type": "Feature", "properties": {"route_name": "88KET", "stop_id": "LPfgjVyT", "name": "DMS", "city": "CHENNAI"}, "geometry": {"type": "Point", "coordinates": [80.24861385254701, 13.046978028476232]}}, {"type": "Feature", "properties": {"route_name": "88KET", "stop_id": "cniBuICf", "name": "Vanavil", "city": "CHENNAI"}, "geometry": {"type": "Point", "coordinates": [80.24742096301384, 13.041493303435086]}}, {"type": "Feature", "properties": {"route_name": "88KET", "stop_id": "WtPVEKaC", "name": "Teynampet Metro or SIET College", "city": "CHENNAI"}, "geometry": {"type": "Point", "coordinates": [80.24651083106585, 13.037120995799397]}}, {"type": "Feature", "properties": {"route_name": "88KET", "stop_id": "BYsSDXCP", "name": "Nandanam Metro", "city": "CHENNAI"}, "geometry": {"type": "Point", "coordinates": [80.24112919587397, 13.031649101433104]}}, {"type": "Feature", "properties": {"route_name": "88KET", "stop_id": "zjSAMvDn", "name": "Nandanam YMCA", "city": "CHENNAI"}, "geometry": {"type": "Point", "coordinates": [80.2366264217136, 13.02885415557313]}}, {"type": "Feature", "properties": {"route_name": "88KET", "stop_id": "fubLBmAl", "name": "Saidapet Veterinary Hospital Or Raja Hostel", "city": "CHENNAI"}, "geometry": {"type": "Point", "coordinates": [80.22976399085928, 13.025144344408464]}}, {"type": "Feature", "properties": {"route_name": "88KET", "stop_id": "DOGyniWl", "name": "Saidapet Metro", "city": "CHENNAI"}, "geometry": {"type": "Point", "coordinates": [80.2281859358351, 13.023758074666299]}}, {"type": "Feature", "properties": {"route_name": "88KET", "stop_id": "GbYxEXTt", "name": "Tamil Nadu Open University Or Panagal Maligai", "city": "CHENNAI"}, "geometry": {"type": "Point", "coordinates": [80.22567676852101, 13.021143761114198]}}, {"type": "Feature", "properties": {"route_name": "88KET", "stop_id": "YmkUpvHU", "name": "Chinnamalai B S or Saidapet Court", "city": "CHENNAI"}, "geometry": {"type": "Point", "coordinates": [80.22645940770053, 13.0139397637957]}}, {"type": "Feature", "properties": {"route_name": "88KET", "stop_id": "rRGVruPM", "name": "Raj Bhavan Quarters", "city": "CHENNAI"}, "geometry": {"type": "Point", "coordinates": [80.22517469844684, 13.010580746325664]}}, {"type": "Feature", "properties": {"route_name": "88KET", "stop_id": "GpnhEWuy", "name": "Concorde or Chellammal College", "city": "CHENNAI"}, "geometry": {"type": "Point", "coordinates": [80.22194994, 13.01186343]}}, {"type": "Feature", "properties": {"route_name": "88KET", "stop_id": "QDIpIlEK", "name": "Guindy Railway Station", "city": "CHENNAI"}, "geometry": {"type": "Point", "coordinates": [80.21333453957197, 13.008223468910234]}}, {"type": "Feature", "properties": {"route_name": "88KET", "stop_id": "tRncbstl", "name": "Maduvankarai", "city": "CHENNAI"}, "geometry": {"type": "Point", "coordinates": [80.21173369, 13.00366368]}}, {"type": "Feature", "properties": {"route_name": "88KET", "stop_id": "WFZVQzrl", "name": "Guindy M K N Salai", "city": "CHENNAI"}, "geometry": {"type": "Point", "coordinates": [80.20971883, 13.00723642]}}, {"type": "Feature", "properties": {"route_name": "88KET", "stop_id": "mhgPTzcZ", "name": "Kathipara", "city": "CHENNAI"}, "geometry": {"type": "Point", "coordinates": [80.20165780604873, 13.007366252856462]}}, {"type": "Feature", "properties": {"route_name": "88KET", "stop_id": "bOiSLYGO", "name": "Butt Road", "city": "CHENNAI"}, "geometry": {"type": "Point", "coordinates": [80.19710214350084, 13.007293584482266]}}, {"type": "Feature", "properties": {"route_name": "88KET", "stop_id": "uXKxCjNA", "name": "Military Quarters", "city": "CHENNAI"}, "geometry": {"type": "Point", "coordinates": [80.19561240579367, 13.010828879135412]}}, {"type": "Feature", "properties": {"route_name": "88KET", "stop_id": "YzgNCqsj", "name": "Contonment Cemetery", "city": "CHENNAI"}, "geometry": {"type": "Point", "coordinates": [80.19306036441805, 13.014560233574766]}}, {"type": "Feature", "properties": {"route_name": "88KET", "stop_id": "fMrlznIn", "name": "Trade Centre Nandambakkam", "city": "CHENNAI"}, "geometry": {"type": "Point", "coordinates": [80.18919166368482, 13.01669199193343]}}, {"type": "Feature", "properties": {"route_name": "88KET", "stop_id": "cwgbfpqq", "name": "Miot Hospital", "city": "CHENNAI"}, "geometry": {"type": "Point", "coordinates": [80.1844229969937, 13.020576206613658]}}, {"type": "Feature", "properties": {"route_name": "88KET", "stop_id": "nsbHlbAq", "name": "DLF Or L and T", "city": "CHENNAI"}, "geometry": {"type": "Point", "coordinates": [80.17873929100392, 13.02363881209801]}}, {"type": "Feature", "properties": {"route_name": "88KET", "stop_id": "WhHfbZWj", "name": "Mugalivakkam", "city": "CHENNAI"}, "geometry": {"type": "Point", "coordinates": [80.1683835935878, 13.02943507912661]}}, {"type": "Feature", "properties": {"route_name": "88KET", "stop_id": "lsBVGYKC", "name": "Porur Shakthi Nagar", "city": "CHENNAI"}, "geometry": {"type": "Point", "coordinates": [80.16484110784074, 13.031434305596445]}}, {"type": "Feature", "properties": {"route_name": "88KET", "stop_id": "gGjwcdJB", "name": "Porur Junction", "city": "CHENNAI"}, "geometry": {"type": "Point", "coordinates": [80.15569952686212, 13.034294312598654]}}, {"type": "Feature", "properties": {"route_name": "88KET", "stop_id": "wyEQXfIU", "name": "Porur E B Office", "city": "CHENNAI"}, "geometry": {"type": "Point", "coordinates": [80.15293087001737, 13.030636642116919]}}, {"type": "Feature", "properties": {"route_name": "88KET", "stop_id": "FCsbIOBe", "name": "Vigneshwara Nagar Porur", "city": "CHENNAI"}, "geometry": {"type": "Point", "coordinates": [80.15125509136055, 13.028138903084185]}}, {"type": "Feature", "properties": {"route_name": "88KET", "stop_id": "aWNaUdzp", "name": "Madhanandapuram", "city": "CHENNAI"}, "geometry": {"type": "Point", "coordinates": [80.14656646490482, 13.02302722408822]}}, {"type": "Feature", "properties": {"route_name": "88KET", "stop_id": "ZIPCqImv", "name": "Bai Kadai Moulivakkam", "city": "CHENNAI"}, "geometry": {"type": "Point", "coordinates": [80.14403182388355, 13.020562403388517]}}, {"type": "Feature", "properties": {"route_name": "88KET", "stop_id": "ciAbSxQX", "name": "Moulivakkam L And T", "city": "CHENNAI"}, "geometry": {"type": "Point", "coordinates": [80.14265212808891, 13.019115462052312]}}, {"type": "Feature", "properties": {"route_name": "88KET", "stop_id": "TEKQTTfp", "name": "Gerugambakkam", "city": "CHENNAI"}, "geometry": {"type": "Point", "coordinates": [80.13654946600218, 13.015397339832532]}}, {"type": "Feature", "properties": {"route_name": "88KET", "stop_id": "YzXnYVPd", "name": "Periyapanicherr", "city": "CHENNAI"}, "geometry": {"type": "Point", "coordinates": [80.13198323559209, 13.012474922040846]}}, {"type": "Feature", "properties": {"route_name": "88KET", "stop_id": "IkwHYYuh", "name": "Periyapanicherry Church", "city": "CHENNAI"}, "geometry": {"type": "Point", "coordinates": [80.13008993337337, 13.011881708960981]}}, {"type": "Feature", "properties": {"route_name": "88KET", "stop_id": "ZuDlysuz", "name": "Chekkady", "city": "CHENNAI"}, "geometry": {"type": "Point", "coordinates": [80.12385644230562, 13.01097123167517]}}, {"type": "Feature", "properties": {"route_name": "88KET", "stop_id": "qoWOoICL", "name": "Kovur E B Office", "city": "CHENNAI"}, "geometry": {"type": "Point", "coordinates": [80.11449240152763, 13.010566466099364]}}, {"type": "Feature", "properties": {"route_name": "88KET", "stop_id": "KcDUQTDz", "name": "Madha Hospital And College", "city": "CHENNAI"}, "geometry": {"type": "Point", "coordinates": [80.11308843888071, 13.007429887221573]}}, {"type": "Feature", "properties": {"route_name": "88KET", "stop_id": "HZcfHzwe", "name": "Moondram Kattalai", "city": "CHENNAI"}, "geometry": {"type": "Point", "coordinates": [80.10950948097036, 13.005394192855286]}}, {"type": "Feature", "properties": {"route_name": "88KET", "stop_id": "EhUxMFuQ", "name": "Kundrathur Nalu Road Or Kolachery Junction", "city": "CHENNAI"}, "geometry": {"type": "Point", "coordinates": [80.09972237237162, 13.003494659599554]}}, {"type": "Feature", "properties": {"route_name": "88KET", "stop_id": "MhxjGQjy", "name": "Shri Nagathaman Temple", "city": "CHENNAI"}, "geometry": {"type": "Point", "coordinates": [80.09762761733964, 13.00014673192873]}}, {"type": "Feature", "properties": {"route_name": "88KET", "stop_id": "uDnSXuvA", "name": "Uzhavar Santhai", "city": "CHENNAI"}, "geometry": {"type": "Point", "coordinates": [80.09167556325303, 12.996867491144673]}}, {"type": "Feature", "properties": {"route_name": "88KET", "stop_id": "eLmJkuZC", "name": "Madha Engineering College", "city": "CHENNAI"}, "geometry": {"type": "Point", "coordinates": [80.08508134370845, 12.994387100699148]}}, {"type": "Feature", "properties": {"route_name": "88KET", "stop_id": "kiTgZeoH", "name": "Sirukalathur", "city": "CHENNAI"}, "geometry": {"type": "Point", "coordinates": [80.07826627480495, 12.994844098505215]}}, {"type": "Feature", "properties": {"route_name": "88KET", "stop_id": "KGIBfEut", "name": "Sirukalathur Kozhi Pannai", "city": "CHENNAI"}, "geometry": {"type": "Point", "coordinates": [80.07501556509544, 12.994385831572348]}}, {"type": "Feature", "properties": {"route_name": "88KET", "stop_id": "aunBMooM", "name": "Saraswathinagar", "city": "CHENNAI"}, "geometry": {"type": "Point", "coordinates": [80.06767688854654, 12.992511212506749]}}, {"type": "Feature", "properties": {"route_name": "88KET", "stop_id": "dAxtDTje", "name": "Kaladipet", "city": "CHENNAI"}, "geometry": {"type": "Point", "coordinates": [80.06431798465235, 12.987454217754173]}}, {"type": "Feature", "properties": {"route_name": "88KET", "stop_id": "SUVVzOYC", "name": "Nandambakkam", "city": "CHENNAI"}, "geometry": {"type": "Point", "coordinates": [80.06258560366473, 12.983753104195035]}}, {"type": "Feature", "properties": {"route_name": "88KET", "stop_id": "cThdGxLv", "name": "Azhagesa Nagar", "city": "CHENNAI"}, "geometry": {"type": "Point", "coordinates": [80.06013005554087, 12.982563677838709]}}, {"type": "Feature", "properties": {"route_name": "88KET", "stop_id": "YvLuczKe", "name": "Nandambakkam.Kalaignar Nagar", "city": "CHENNAI"}, "geometry": {"type": "Point", "coordinates": [80.05698682778586, 12.980932595317743]}}, {"type": "Feature", "properties": {"route_name": "88KET", "stop_id": "CHKZpApa", "name": "Annai Anjugam Nagar", "city": "CHENNAI"}, "geometry": {"type": "Point", "coordinates": [80.05300198524856, 12.978190867366065]}}, {"type": "Feature", "properties": {"route_name": "88KET", "stop_id": "DKWSfiEo", "name": "Puthuper", "city": "CHENNAI"}, "geometry": {"type": "Point", "coordinates": [80.04521939498841, 12.974024331866229]}}, {"type": "Feature", "properties": {"route_name": "88KET", "stop_id": "VtPnVtjF", "name": "Nallur Check Post", "city": "CHENNAI"}, "geometry": {"type": "Point", "coordinates": [80.03241483923512, 12.969203593199794]}}, {"type": "Feature", "properties": {"route_name": "88KET", "stop_id": "rmmCKKeS", "name": "Nallur", "city": "CHENNAI"}, "geometry": {"type": "Point", "coordinates": [80.02997900398138, 12.960641754410966]}}, {"type": "Feature", "properties": {"name": "88KET"}, "geometry": {"type": "LineString", "coordinates": [[80.28388, 13.08836], [80.28347, 13.08833], [80.28291, 13.08832], [80.28261, 13.08833], [80.28227, 13.08828], [80.28204, 13.08823], [80.28184, 13.08815], [80.28156, 13.08799], [80.28153, 13.08794], [80.28145, 13.08769], [80.2814, 13.08751], [80.28095, 13.08603], [80.28087, 13.08583], [80.28083, 13.08578], [80.28076, 13.08575], [80.28024, 13.0856], [80.28016, 13.08559], [80.27982, 13.08551], [80.27957, 13.08537], [80.27943, 13.08516], [80.27937, 13.08497], [80.27928, 13.08459], [80.27914, 13.08376], [80.27898, 13.08332], [80.27883, 13.08295], [80.27864, 13.08244], [80.27856, 13.08217], [80.27853, 13.08206], [80.2784, 13.08205], [80.27669, 13.08183], [80.27665, 13.08182], [80.27668, 13.0818], [80.27666, 13.08179], [80.27604, 13.08168], [80.27572, 13.08164], [80.2755, 13.08156], [80.27532, 13.08152], [80.27527, 13.08149], [80.27524, 13.08144], [80.27525, 13.08117], [80.27529, 13.08069], [80.27534, 13.07998], [80.27534, 13.07973], [80.27529, 13.07939], [80.27518, 13.07885], [80.27519, 13.07876], [80.27522, 13.07867], [80.27528, 13.07856], [80.27537, 13.07845], [80.27544, 13.07841], [80.27573, 13.0783], [80.27606, 13.07819], [80.27616, 13.07807], [80.27622, 13.07786], [80.27633, 13.07542], [80.27642, 13.0742], [80.27647, 13.0738], [80.27652, 13.0737], [80.27589, 13.07309], [80.27512, 13.0724], [80.27469, 13.072], [80.2745, 13.07174], [80.27445, 13.07158], [80.27435, 13.07127], [80.27416, 13.07087], [80.27399, 13.0707], [80.27385, 13.07056], [80.27337, 13.07014], [80.27259, 13.06953], [80.27249, 13.06943], [80.27226, 13.06916], [80.27206, 13.06877], [80.27187, 13.0685], [80.27176, 13.0684], [80.27163, 13.06828], [80.27125, 13.06802], [80.27103, 13.06785], [80.27044, 13.06726], [80.27009, 13.06691], [80.2698, 13.06667], [80.26962, 13.06655], [80.26953, 13.0665], [80.26945, 13.06646], [80.26923, 13.06639], [80.26893, 13.06635], [80.26851, 13.06633], [80.26843, 13.06631], [80.26833, 13.06625], [80.26787, 13.06595], [80.26756, 13.06571], [80.2663, 13.06473], [80.26507, 13.06373], [80.26461, 13.06339], [80.26383, 13.06264], [80.26326, 13.06221], [80.26247, 13.06161], [80.26146, 13.06077], [80.26138, 13.06069], [80.2599, 13.05949], [80.25902, 13.05877], [80.25836, 13.05824], [80.25771, 13.05768], [80.25776, 13.05662], [80.25761, 13.05659], [80.25728, 13.05652], [80.25717, 13.05649], [80.25715, 13.05648], [80.25689, 13.05642], [80.25667, 13.05639], [80.25651, 13.05639], [80.25625, 13.05618], [80.25454, 13.05494], [80.25417, 13.05463], [80.2538, 13.05434], [80.25291, 13.05369], [80.25116, 13.05242], [80.25074, 13.05209], [80.25048, 13.05181], [80.25036, 13.05166], [80.25027, 13.05152], [80.25018, 13.05132], [80.25008, 13.05096], [80.25, 13.05045], [80.24992, 13.04979], [80.24985, 13.0494], [80.2498, 13.04884], [80.24972, 13.04858], [80.24958, 13.04834], [80.24933, 13.048], [80.24879, 13.04748], [80.24874, 13.04742], [80.24862, 13.04724], [80.24855, 13.047], [80.2483, 13.04599], [80.2482, 13.04556], [80.24819, 13.04541], [80.24793, 13.04393], [80.2478, 13.04332], [80.2474, 13.0415], [80.2472, 13.04048], [80.24704, 13.03946], [80.24697, 13.0392], [80.24685, 13.03872], [80.24656, 13.03748], [80.24649, 13.03713], [80.24611, 13.03555], [80.24606, 13.03533], [80.24592, 13.03504], [80.24581, 13.03491], [80.24567, 13.03478], [80.24489, 13.03416], [80.24462, 13.03396], [80.24429, 13.03373], [80.24299, 13.03274], [80.24254, 13.03244], [80.24229, 13.03229], [80.24141, 13.03181], [80.24121, 13.0317], [80.24112, 13.03166], [80.24019, 13.03123], [80.23974, 13.031], [80.23785, 13.02991], [80.23735, 13.0296], [80.23706, 13.02936], [80.23657, 13.02892], [80.23562, 13.02808], [80.23548, 13.02796], [80.2348, 13.02759], [80.23306, 13.02657], [80.2326, 13.02635], [80.23236, 13.02627], [80.23215, 13.02622], [80.2314, 13.02603], [80.23108, 13.02592], [80.23089, 13.02586], [80.23051, 13.02571], [80.23024, 13.02557], [80.22973, 13.02518], [80.22835, 13.02408], [80.22809, 13.02386], [80.22772, 13.02352], [80.22757, 13.02338], [80.22631, 13.02197], [80.22569, 13.02114], [80.22513, 13.02039], [80.22497, 13.02023], [80.22468, 13.01979], [80.22459, 13.01965], [80.22452, 13.01949], [80.22446, 13.01919], [80.22447, 13.01893], [80.22514, 13.01725], [80.22537, 13.01666], [80.22545, 13.01641], [80.22569, 13.01577], [80.22622, 13.01442], [80.22641, 13.01392], [80.22672, 13.01307], [80.22699, 13.01237], [80.22751, 13.01108], [80.22792, 13.01013], [80.22796, 13.00976], [80.22792, 13.00961], [80.22783, 13.00955], [80.22774, 13.00952], [80.22769, 13.00952], [80.22747, 13.00959], [80.22629, 13.01014], [80.22615, 13.01018], [80.22607, 13.01018], [80.22541, 13.0105], [80.22519, 13.01061], [80.22492, 13.01074], [80.22486, 13.01075], [80.22467, 13.01083], [80.22409, 13.01106], [80.22357, 13.01125], [80.22323, 13.01137], [80.22204, 13.01188], [80.22196, 13.0119], [80.22136, 13.01211], [80.22113, 13.01219], [80.22101, 13.01216], [80.22021, 13.01189], [80.21913, 13.01155], [80.21816, 13.01123], [80.21773, 13.01106], [80.21689, 13.01073], [80.21656, 13.01056], [80.21619, 13.01039], [80.21618, 13.01034], [80.21613, 13.01029], [80.21601, 13.01021], [80.21542, 13.00995], [80.21501, 13.00972], [80.21487, 13.00962], [80.21468, 13.00946], [80.21413, 13.00903], [80.21362, 13.00864], [80.21343, 13.00842], [80.21332, 13.00823], [80.21331, 13.00824], [80.21331, 13.00823], [80.21321, 13.00803], [80.21296, 13.00771], [80.21291, 13.00763], [80.21285, 13.00747], [80.21275, 13.00692], [80.21274, 13.00682], [80.21275, 13.00661], [80.21277, 13.00642], [80.21294, 13.00603], [80.213, 13.00587], [80.21297, 13.00571], [80.21293, 13.00562], [80.21283, 13.00553], [80.21263, 13.00522], [80.2123, 13.00467], [80.2122, 13.00445], [80.21209, 13.00411], [80.21201, 13.00378], [80.21201, 13.00372], [80.21173, 13.0037], [80.2115, 13.00369], [80.21117, 13.00374], [80.21006, 13.00358], [80.20961, 13.00355], [80.20915, 13.00363], [80.20876, 13.00372], [80.20868, 13.00376], [80.20861, 13.00388], [80.2086, 13.00405], [80.20922, 13.0054], [80.20949, 13.00605], [80.20969, 13.00679], [80.20979, 13.00722], [80.20998, 13.00808], [80.20996, 13.00816], [80.20991, 13.00822], [80.20984, 13.00827], [80.20972, 13.00822], [80.20946, 13.00813], [80.20919, 13.00805], [80.20866, 13.00798], [80.20706, 13.00774], [80.20595, 13.00761], [80.20544, 13.00758], [80.20405, 13.00757], [80.20377, 13.00755], [80.20341, 13.00748], [80.20291, 13.00741], [80.20262, 13.00737], [80.20207, 13.00737], [80.20166, 13.00741], [80.20106, 13.00746], [80.20026, 13.00749], [80.19969, 13.00748], [80.19847, 13.00739], [80.1971, 13.00737], [80.19708, 13.00737], [80.19631, 13.00735], [80.19624, 13.00737], [80.19621, 13.00741], [80.19618, 13.00748], [80.19617, 13.00758], [80.19619, 13.0079], [80.19623, 13.00849], [80.19623, 13.00864], [80.1962, 13.00876], [80.196, 13.00918], [80.19592, 13.00935], [80.19588, 13.00951], [80.19586, 13.00971], [80.19588, 13.01006], [80.19589, 13.01039], [80.19587, 13.01053], [80.19576, 13.01077], [80.19569, 13.01087], [80.19432, 13.01309], [80.19406, 13.0135], [80.19389, 13.01378], [80.19368, 13.01408], [80.19358, 13.0142], [80.19337, 13.01438], [80.19308, 13.01459], [80.19287, 13.01474], [80.19249, 13.01495], [80.19231, 13.01506], [80.19014, 13.01626], [80.18924, 13.01678], [80.18717, 13.01785], [80.18703, 13.01797], [80.18681, 13.01821], [80.18658, 13.01853], [80.18589, 13.01969], [80.18565, 13.02007], [80.18555, 13.02019], [80.18543, 13.02029], [80.18534, 13.02035], [80.18493, 13.02051], [80.18444, 13.02064], [80.18404, 13.02078], [80.18366, 13.02096], [80.18172, 13.02207], [80.17878, 13.02371], [80.17728, 13.02453], [80.1759, 13.02532], [80.175, 13.02584], [80.17476, 13.02597], [80.1726, 13.02718], [80.17029, 13.02846], [80.16956, 13.02887], [80.16882, 13.02929], [80.16842, 13.0295], [80.16762, 13.02992], [80.16653, 13.03052], [80.16486, 13.03147], [80.16428, 13.0318], [80.16313, 13.03247], [80.16254, 13.03278], [80.16134, 13.03347], [80.16011, 13.03414], [80.15984, 13.03429], [80.15968, 13.03434], [80.15944, 13.03438], [80.15872, 13.03438], [80.15785, 13.03431], [80.15714, 13.03424], [80.15666, 13.03428], [80.15592, 13.03463], [80.15575, 13.03446], [80.15565, 13.03433], [80.15523, 13.03374], [80.15498, 13.03345], [80.15475, 13.03316], [80.15445, 13.03286], [80.15417, 13.03256], [80.15388, 13.03222], [80.15379, 13.03208], [80.15348, 13.03154], [80.15291, 13.03065], [80.15247, 13.02995], [80.15178, 13.02896], [80.1513, 13.02822], [80.15124, 13.02815], [80.15048, 13.02712], [80.14976, 13.0262], [80.14905, 13.02545], [80.14857, 13.02502], [80.1483, 13.02481], [80.14751, 13.02413], [80.14722, 13.02382], [80.14675, 13.02331], [80.1465, 13.02305], [80.14654, 13.023], [80.1465, 13.02305], [80.14631, 13.02286], [80.14583, 13.02238], [80.14479, 13.02135], [80.14402, 13.02058], [80.14353, 13.02014], [80.14319, 13.01983], [80.14283, 13.01946], [80.14257, 13.01919], [80.1415, 13.01809], [80.14117, 13.01781], [80.14104, 13.01773], [80.14059, 13.01749], [80.13966, 13.01704], [80.13825, 13.01634], [80.13747, 13.01593], [80.13704, 13.01573], [80.1367, 13.01553], [80.13653, 13.01544], [80.13604, 13.01519], [80.13523, 13.01474], [80.13487, 13.01456], [80.13396, 13.01394], [80.13341, 13.01357], [80.13331, 13.01348], [80.13324, 13.01339], [80.13312, 13.0132], [80.133, 13.01285], [80.13297, 13.01275], [80.13293, 13.01269], [80.13283, 13.01261], [80.13266, 13.01255], [80.13198, 13.01255], [80.1318, 13.01254], [80.13149, 13.0125], [80.13105, 13.01234], [80.13049, 13.01207], [80.13008, 13.01191], [80.12956, 13.01176], [80.12806, 13.01161], [80.12752, 13.01154], [80.12701, 13.01149], [80.12608, 13.01146], [80.1255, 13.01147], [80.12487, 13.01151], [80.12463, 13.01148], [80.1244, 13.01138], [80.12389, 13.01108], [80.12382, 13.01104], [80.12338, 13.01072], [80.1232, 13.01052], [80.12311, 13.01037], [80.12287, 13.00996], [80.1228, 13.00989], [80.12272, 13.00984], [80.12257, 13.0098], [80.12235, 13.00979], [80.12154, 13.00973], [80.12077, 13.00972], [80.12052, 13.00975], [80.12037, 13.0098], [80.11976, 13.01004], [80.11943, 13.01011], [80.11911, 13.01016], [80.11879, 13.01018], [80.11862, 13.0102], [80.11848, 13.01025], [80.11758, 13.01068], [80.11716, 13.01082], [80.11656, 13.01096], [80.11593, 13.01106], [80.11517, 13.01115], [80.11478, 13.0112], [80.11461, 13.0112], [80.11449, 13.01114], [80.11443, 13.01107], [80.11441, 13.01097], [80.11442, 13.01057], [80.11443, 13.00898], [80.1144, 13.00879], [80.11436, 13.00864], [80.11429, 13.00853], [80.11418, 13.00839], [80.11401, 13.00823], [80.11358, 13.00789], [80.11305, 13.00748], [80.11274, 13.00724], [80.11158, 13.00648], [80.11116, 13.00629], [80.11082, 13.00618], [80.11061, 13.00609], [80.11038, 13.00597], [80.11, 13.00569], [80.10977, 13.00556], [80.10956, 13.00549], [80.10949, 13.00548], [80.1095, 13.00545], [80.10812, 13.00534], [80.10743, 13.0053], [80.10667, 13.00527], [80.10609, 13.00521], [80.10507, 13.00501], [80.10432, 13.00481], [80.10388, 13.00472], [80.10354, 13.00468], [80.10295, 13.00469], [80.10263, 13.00467], [80.10212, 13.00458], [80.10175, 13.00446], [80.10105, 13.00411], [80.10077, 13.00398], [80.10018, 13.00372], [80.0997, 13.00356], [80.09971, 13.00355], [80.09935, 13.00343], [80.09928, 13.00339], [80.09911, 13.00322], [80.09861, 13.00246], [80.09812, 13.00162], [80.09797, 13.00132], [80.09777, 13.00056], [80.09763, 13.00031], [80.09755, 13.00019], [80.09742, 13.0], [80.09701, 12.99934], [80.09676, 12.99885], [80.09668, 12.99867], [80.09654, 12.99829], [80.09651, 12.99822], [80.09645, 12.99774], [80.09639, 12.99743], [80.09508, 12.9975], [80.09459, 12.99749], [80.0941, 12.99744], [80.09325, 12.99732], [80.09279, 12.99728], [80.09221, 12.99725], [80.09199, 12.9972], [80.09182, 12.99712], [80.09173, 12.99703], [80.09163, 12.99689], [80.09117, 12.99606], [80.091, 12.99577], [80.0908, 12.99554], [80.09066, 12.99548], [80.09031, 12.99539], [80.08913, 12.99524], [80.08785, 12.99503], [80.08595, 12.99465], [80.08507, 12.99448], [80.08485, 12.99446], [80.08437, 12.99457], [80.08425, 12.9946], [80.08421, 12.99456], [80.08409, 12.99449], [80.08394, 12.99446], [80.0836, 12.99452], [80.08301, 12.99464], [80.08282, 12.99473], [80.08271, 12.99486], [80.08266, 12.99497], [80.08177, 12.99516], [80.0808, 12.99539], [80.07981, 12.99562], [80.0796, 12.99561], [80.07945, 12.99556], [80.0792, 12.99543], [80.07864, 12.99515], [80.07822, 12.99492], [80.07784, 12.99466], [80.07754, 12.99447], [80.07727, 12.99435], [80.07711, 12.9943], [80.07691, 12.99427], [80.07645, 12.99427], [80.07502, 12.99441], [80.07101, 12.9949], [80.07053, 12.99493], [80.0703, 12.99492], [80.07022, 12.9949], [80.07007, 12.99481], [80.06947, 12.99439], [80.06923, 12.9942], [80.0684, 12.99341], [80.06823, 12.99324], [80.06768, 12.99258], [80.06764, 12.99254], [80.06718, 12.99197], [80.06655, 12.99124], [80.06616, 12.9907], [80.06593, 12.9904], [80.06454, 12.98874], [80.06448, 12.98863], [80.06438, 12.9883], [80.06431, 12.98766], [80.06426, 12.98747], [80.06391, 12.98627], [80.06365, 12.98551], [80.06322, 12.98444], [80.06299, 12.98409], [80.06283, 12.98396], [80.0626, 12.98381], [80.06256, 12.98379], [80.06128, 12.9832], [80.06031, 12.98272], [80.06013, 12.98262], [80.0601, 12.98261], [80.05944, 12.98225], [80.059, 12.98196], [80.05857, 12.98167], [80.05808, 12.9814], [80.05741, 12.98111], [80.05698, 12.98095], [80.05635, 12.98063], [80.05528, 12.97992], [80.05427, 12.97919], [80.05297, 12.97823], [80.05276, 12.97806], [80.05196, 12.9775], [80.05129, 12.97704], [80.04971, 12.97602], [80.04851, 12.97529], [80.04805, 12.97502], [80.0476, 12.9748], [80.04716, 12.97464], [80.04638, 12.97443], [80.04569, 12.97427], [80.04534, 12.97415], [80.04519, 12.97408], [80.04455, 12.97374], [80.04413, 12.97351], [80.04366, 12.97321], [80.04265, 12.97256], [80.04167, 12.9719], [80.04124, 12.97163], [80.04072, 12.97134], [80.04023, 12.97111], [80.03976, 12.97092], [80.0395, 12.97084], [80.0392, 12.97078], [80.03788, 12.97058], [80.03657, 12.97035], [80.03585, 12.9702], [80.0348, 12.96992], [80.03239, 12.96929], [80.0323, 12.96927], [80.0323, 12.96917], [80.03228, 12.96905], [80.03213, 12.96858], [80.03191, 12.96795], [80.03173, 12.96727], [80.03138, 12.9662], [80.03114, 12.96538], [80.03067, 12.96379], [80.03008, 12.96171], [80.03001, 12.9613], [80.02997, 12.96096], [80.02996, 12.96064]]}}]}