{"type": "FeatureCollection", "features": [{"type": "Feature", "properties": {"route_name": "37CT", "stop_id": "ssCuUaaJ", "name": "Dasarathapuram", "city": "CHENNAI"}, "geometry": {"type": "Point", "coordinates": [80.20415281620865, 13.057383265063951]}}, {"type": "Feature", "properties": {"route_name": "37CT", "stop_id": "FFlVogkV", "name": "Saligramam", "city": "CHENNAI"}, "geometry": {"type": "Point", "coordinates": [80.20414974736411, 13.054401644102029]}}, {"type": "Feature", "properties": {"route_name": "37CT", "stop_id": "udvGqqIc", "name": "Prasad Thetre", "city": "CHENNAI"}, "geometry": {"type": "Point", "coordinates": [80.20391158533448, 13.050742704933544]}}, {"type": "Feature", "properties": {"route_name": "37CT", "stop_id": "lqMPnIra", "name": "Vadapalani Bus Stand", "city": "CHENNAI"}, "geometry": {"type": "Point", "coordinates": [80.20703522, 13.04932793]}}, {"type": "Feature", "properties": {"route_name": "37CT", "stop_id": "pPqywgRl", "name": "Power House Kodambakkam", "city": "CHENNAI"}, "geometry": {"type": "Point", "coordinates": [80.22024830726139, 13.052461049156314]}}, {"type": "Feature", "properties": {"route_name": "37CT", "stop_id": "yprCGtVa", "name": "Trustpuram", "city": "CHENNAI"}, "geometry": {"type": "Point", "coordinates": [80.22150742159147, 13.052837844908307]}}, {"type": "Feature", "properties": {"route_name": "37CT", "stop_id": "psXocZQH", "name": "Liberty", "city": "CHENNAI"}, "geometry": {"type": "Point", "coordinates": [80.22724074153382, 13.054106799197433]}}, {"type": "Feature", "properties": {"route_name": "37CT", "stop_id": "iEKuRfDT", "name": "Periyar Salai", "city": "CHENNAI"}, "geometry": {"type": "Point", "coordinates": [80.23682363671765, 13.053403245630598]}}, {"type": "Feature", "properties": {"route_name": "37CT", "stop_id": "ImIhxSnH", "name": "Vetnary Hospital", "city": "CHENNAI"}, "geometry": {"type": "Point", "coordinates": [80.23977037234306, 13.052823738605921]}}, {"type": "Feature", "properties": {"route_name": "37CT", "stop_id": "RfzcmazU", "name": "Valluvar Kottam", "city": "CHENNAI"}, "geometry": {"type": "Point", "coordinates": [80.24202386011893, 13.053769261938113]}}, {"type": "Feature", "properties": {"route_name": "37CT", "stop_id": "sCyvkPkr", "name": "Nungambakkam Police Station", "city": "CHENNAI"}, "geometry": {"type": "Point", "coordinates": [80.24240336072728, 13.059340774362308]}}, {"type": "Feature", "properties": {"route_name": "37CT", "stop_id": "XwcxmOai", "name": "Sterling Road Chetpat", "city": "CHENNAI"}, "geometry": {"type": "Point", "coordinates": [80.24317368782556, 13.062032636646551]}}, {"type": "Feature", "properties": {"route_name": "37CT", "stop_id": "HrNWphPZ", "name": "Chetpet", "city": "CHENNAI"}, "geometry": {"type": "Point", "coordinates": [80.24199315966757, 13.069809897502173]}}, {"type": "Feature", "properties": {"route_name": "37CT", "stop_id": "nrKKniYe", "name": "KMC Hospital", "city": "CHENNAI"}, "geometry": {"type": "Point", "coordinates": [80.24411828837378, 13.077972939220746]}}, {"type": "Feature", "properties": {"route_name": "37CT", "stop_id": "tBJBJfdu", "name": "Dasaprakash", "city": "CHENNAI"}, "geometry": {"type": "Point", "coordinates": [80.25350765, 13.07867085]}}, {"type": "Feature", "properties": {"route_name": "37CT", "stop_id": "vIqdsoZx", "name": "Alagappa Schools", "city": "CHENNAI"}, "geometry": {"type": "Point", "coordinates": [80.25412541, 13.08181132]}}, {"type": "Feature", "properties": {"route_name": "37CT", "stop_id": "SqxhBMol", "name": "Motcham Aysha Hospital Or Motcham Theatre", "city": "CHENNAI"}, "geometry": {"type": "Point", "coordinates": [80.25019329, 13.08489827]}}, {"type": "Feature", "properties": {"route_name": "37CT", "stop_id": "qvujbmjR", "name": "Purasaivakkam Tank", "city": "CHENNAI"}, "geometry": {"type": "Point", "coordinates": [80.25375225, 13.08560766]}}, {"type": "Feature", "properties": {"route_name": "37CT", "stop_id": "mKIQRbrs", "name": "Doveton", "city": "CHENNAI"}, "geometry": {"type": "Point", "coordinates": [80.25785369, 13.08699492]}}, {"type": "Feature", "properties": {"route_name": "37CT", "stop_id": "hfsVeMMa", "name": "Choolai Post Office", "city": "CHENNAI"}, "geometry": {"type": "Point", "coordinates": [80.26533304002942, 13.090237781461314]}}, {"type": "Feature", "properties": {"route_name": "37CT", "stop_id": "zOQhKaAF", "name": "Choolai Rountana", "city": "CHENNAI"}, "geometry": {"type": "Point", "coordinates": [80.26930782820705, 13.091287428125854]}}, {"type": "Feature", "properties": {"route_name": "37CT", "stop_id": "jOxyxYyy", "name": "Power House Basin Bridge", "city": "CHENNAI"}, "geometry": {"type": "Point", "coordinates": [80.26840757363152, 13.098252023674124]}}, {"type": "Feature", "properties": {"route_name": "37CT", "stop_id": "fFHpEWYG", "name": "Basin Bridge Railway Station", "city": "CHENNAI"}, "geometry": {"type": "Point", "coordinates": [80.27046578961017, 13.101775131468846]}}, {"type": "Feature", "properties": {"route_name": "37CT", "stop_id": "FcOkCcps", "name": "Ramalingapuram Toll", "city": "CHENNAI"}, "geometry": {"type": "Point", "coordinates": [80.26712729733799, 13.109006355868484]}}, {"type": "Feature", "properties": {"route_name": "37CT", "stop_id": "nGkhhpkU", "name": "Basin Bridge", "city": "CHENNAI"}, "geometry": {"type": "Point", "coordinates": [80.27121453233914, 13.104809963502738]}}, {"type": "Feature", "properties": {"route_name": "37CT", "stop_id": "TPFTQSyz", "name": "Moolakothalam", "city": "CHENNAI"}, "geometry": {"type": "Point", "coordinates": [80.27383789807436, 13.104101773364562]}}, {"type": "Feature", "properties": {"route_name": "37CT", "stop_id": "qdrjbHYS", "name": "Vallalar Nagar Bus Depot", "city": "CHENNAI"}, "geometry": {"type": "Point", "coordinates": [80.27580342110537, 13.1045538453887]}}, {"type": "Feature", "properties": {"route_name": "37CT", "stop_id": "XZcLQQZr", "name": "Mint Bus Terminal Or Vallalar Nagar", "city": "CHENNAI"}, "geometry": {"type": "Point", "coordinates": [80.27901656494782, 13.105667767410482]}}, {"type": "Feature", "properties": {"name": "37CT"}, "geometry": {"type": "LineString", "coordinates": [[80.20408, 13.05738], [80.2041, 13.05609], [80.20407, 13.05442], [80.20408, 13.05335], [80.20401, 13.05261], [80.20401, 13.05213], [80.20393, 13.05141], [80.20393, 13.05124], [80.20389, 13.05088], [80.20388, 13.05075], [80.20383, 13.05017], [80.20383, 13.04964], [80.20383, 13.04895], [80.20386, 13.04808], [80.20388, 13.04799], [80.20451, 13.04817], [80.20557, 13.04847], [80.20686, 13.04889], [80.20716, 13.049], [80.20829, 13.04939], [80.20875, 13.04949], [80.21117, 13.04983], [80.21174, 13.04993], [80.21183, 13.04996], [80.21193, 13.04999], [80.21213, 13.05], [80.21275, 13.05005], [80.21306, 13.0501], [80.21337, 13.05016], [80.21366, 13.05022], [80.21444, 13.05054], [80.21494, 13.05073], [80.21545, 13.0509], [80.21615, 13.05111], [80.21667, 13.0513], [80.21735, 13.05153], [80.2179, 13.05172], [80.21873, 13.05204], [80.21918, 13.05214], [80.22026, 13.05242], [80.22152, 13.05279], [80.22278, 13.05313], [80.22353, 13.05334], [80.22397, 13.05343], [80.22417, 13.05345], [80.22569, 13.0538], [80.22657, 13.05393], [80.22725, 13.05401], [80.22821, 13.05409], [80.22824, 13.05407], [80.22835, 13.05405], [80.22918, 13.05406], [80.23055, 13.05408], [80.23151, 13.05408], [80.23213, 13.05403], [80.23392, 13.05385], [80.23457, 13.05381], [80.23617, 13.0535], [80.23682, 13.05337], [80.23753, 13.05324], [80.23845, 13.0531], [80.23899, 13.05299], [80.23977, 13.05281], [80.24084, 13.05254], [80.24104, 13.05254], [80.24138, 13.05258], [80.24164, 13.05263], [80.24183, 13.05315], [80.24205, 13.05365], [80.24209, 13.05374], [80.24225, 13.05411], [80.2423, 13.05443], [80.24231, 13.05472], [80.24225, 13.05508], [80.24219, 13.05553], [80.24224, 13.0558], [80.24231, 13.05601], [80.24239, 13.05614], [80.24246, 13.05629], [80.24258, 13.05655], [80.2426, 13.05679], [80.24257, 13.05688], [80.24257, 13.05689], [80.24258, 13.05691], [80.24264, 13.05697], [80.24267, 13.05697], [80.24277, 13.05724], [80.24277, 13.05753], [80.24273, 13.05786], [80.24247, 13.05921], [80.24247, 13.05933], [80.24247, 13.05935], [80.24248, 13.05955], [80.24261, 13.05996], [80.24283, 13.06052], [80.243, 13.06099], [80.24312, 13.06141], [80.24321, 13.06203], [80.24341, 13.06314], [80.24345, 13.06335], [80.24344, 13.06367], [80.24346, 13.06397], [80.24352, 13.06456], [80.24351, 13.06517], [80.24349, 13.06571], [80.24353, 13.06587], [80.24345, 13.06584], [80.24343, 13.0661], [80.24339, 13.06635], [80.24332, 13.06653], [80.24317, 13.06685], [80.24281, 13.06764], [80.24268, 13.06817], [80.24259, 13.06848], [80.24235, 13.06914], [80.24225, 13.06933], [80.24212, 13.06968], [80.24208, 13.06983], [80.24177, 13.07093], [80.24154, 13.07156], [80.24145, 13.07179], [80.24134, 13.07197], [80.24105, 13.07241], [80.24086, 13.07272], [80.2408, 13.07289], [80.24058, 13.07357], [80.2405, 13.07387], [80.24049, 13.07455], [80.24046, 13.07544], [80.24045, 13.07608], [80.24051, 13.0766], [80.24057, 13.07699], [80.24056, 13.07735], [80.24195, 13.07763], [80.24261, 13.07775], [80.24412, 13.07795], [80.24416, 13.07795], [80.24446, 13.07794], [80.24568, 13.07804], [80.24619, 13.0781], [80.24678, 13.07821], [80.24796, 13.07847], [80.24878, 13.07865], [80.24973, 13.0788], [80.2507, 13.07887], [80.25183, 13.0789], [80.25237, 13.07889], [80.25337, 13.07886], [80.25362, 13.07888], [80.25461, 13.079], [80.25462, 13.0789], [80.25422, 13.07885], [80.25349, 13.07877], [80.25333, 13.07875], [80.25304, 13.07876], [80.25202, 13.0788], [80.25166, 13.0788], [80.25165, 13.0789], [80.25183, 13.0789], [80.25237, 13.07889], [80.25277, 13.07887], [80.25337, 13.07886], [80.25362, 13.07888], [80.25461, 13.079], [80.25455, 13.07941], [80.25457, 13.07965], [80.25475, 13.08073], [80.25483, 13.08113], [80.25482, 13.08162], [80.25417, 13.08184], [80.25413, 13.08184], [80.25385, 13.0819], [80.25355, 13.08193], [80.25329, 13.08194], [80.25316, 13.08191], [80.25296, 13.08184], [80.25276, 13.08174], [80.25221, 13.08145], [80.2521, 13.08143], [80.25191, 13.08142], [80.25105, 13.08141], [80.25097, 13.08136], [80.25059, 13.08135], [80.24999, 13.08134], [80.24973, 13.08137], [80.24967, 13.08144], [80.24966, 13.0815], [80.24969, 13.08175], [80.24971, 13.08196], [80.24969, 13.08201], [80.2498, 13.08242], [80.24991, 13.08317], [80.25005, 13.08387], [80.25024, 13.08489], [80.25039, 13.0859], [80.25043, 13.08597], [80.25054, 13.08591], [80.25062, 13.0859], [80.25084, 13.08587], [80.25127, 13.08583], [80.2521, 13.08569], [80.25289, 13.08561], [80.25311, 13.08558], [80.25336, 13.08558], [80.25375, 13.08559], [80.25446, 13.08568], [80.25471, 13.08577], [80.25631, 13.08636], [80.25636, 13.08643], [80.25754, 13.08685], [80.25787, 13.08694], [80.25833, 13.08706], [80.25891, 13.08723], [80.26005, 13.08753], [80.26076, 13.08773], [80.2609, 13.08777], [80.26099, 13.08776], [80.2631, 13.0884], [80.26332, 13.08852], [80.26371, 13.0888], [80.26447, 13.08941], [80.26497, 13.08982], [80.26524, 13.09015], [80.26535, 13.0902], [80.26585, 13.09034], [80.26634, 13.09043], [80.26789, 13.09054], [80.26887, 13.09062], [80.26908, 13.09066], [80.26922, 13.09072], [80.26933, 13.09075], [80.26934, 13.09078], [80.26934, 13.09087], [80.26934, 13.09129], [80.26943, 13.09219], [80.26945, 13.09229], [80.26941, 13.09233], [80.26927, 13.09244], [80.26909, 13.09265], [80.26838, 13.09402], [80.2684, 13.09415], [80.26852, 13.09455], [80.26859, 13.09592], [80.26858, 13.09667], [80.26852, 13.09735], [80.26843, 13.09819], [80.26844, 13.09825], [80.26846, 13.09833], [80.26886, 13.09898], [80.26952, 13.10008], [80.27043, 13.10146], [80.27049, 13.10163], [80.27049, 13.10178], [80.27045, 13.10338], [80.27048, 13.10374], [80.27052, 13.10393], [80.2706, 13.10416], [80.27069, 13.10427], [80.27075, 13.10431], [80.27111, 13.10443], [80.27127, 13.10452], [80.271, 13.10515], [80.27085, 13.10544], [80.27061, 13.10572], [80.26972, 13.10656], [80.26942, 13.10687], [80.26929, 13.10693], [80.26908, 13.10712], [80.26842, 13.10778], [80.26781, 13.10839], [80.26715, 13.10903], [80.26655, 13.10964], [80.26646, 13.10976], [80.26662, 13.10985], [80.26669, 13.10986], [80.26684, 13.10967], [80.26713, 13.10933], [80.26732, 13.10915], [80.268, 13.10854], [80.26904, 13.10754], [80.26913, 13.10743], [80.26918, 13.10727], [80.27009, 13.10635], [80.27081, 13.10561], [80.2709, 13.10548], [80.27106, 13.10515], [80.27121, 13.10481], [80.27132, 13.10457], [80.27136, 13.10452], [80.27173, 13.10441], [80.27186, 13.10437], [80.27197, 13.1043], [80.2724, 13.10394], [80.2725, 13.10389], [80.2726, 13.10387], [80.27288, 13.1039], [80.27343, 13.10402], [80.27384, 13.10407], [80.27385, 13.10405], [80.27515, 13.1043], [80.27582, 13.10452], [80.27676, 13.10484], [80.27723, 13.105], [80.27735, 13.10506], [80.27766, 13.10517], [80.27807, 13.1053], [80.27904, 13.10558]]}}]}